[{"businessID": "VaorFVboJxLfHIakSzGL6w", "name": "l\u2019abeille", "address": "412 Greenwich St, New York, NY 10013", "coordinates": "40.72188,-74.00995", "rating": 4.0, "review_count": 27, "zip_code": "10013", "cuisineType": "french", "insertedAtTimestamp": "2022-10-19 21:20:47.190022"}, {"businessID": "FiRB9Ek3Xo9JHwXgBYITYg", "name": "La Sir\u00e8ne-Soho", "address": "558 Broome St, New York, NY 10013", "coordinates": "40.7243642217227,-74.005708694458", "rating": 4.5, "review_count": 1691, "zip_code": "10013", "cuisineType": "french", "insertedAtTimestamp": "2022-10-19 21:20:47.399880"}, {"businessID": "xQ445GaWVN5Aa3sFX9OoIg", "name": "Buvette", "address": "42 Grove St, New York, NY 10014", "coordinates": "40.732704,-74.00434640955953", "rating": 4.0, "review_count": 2018, "zip_code": "10014", "cuisineType": "french", "insertedAtTimestamp": "2022-10-19 21:20:47.653031"}, {"businessID": "vRrVSB-LegwUwIxpkeRVtQ", "name": "Le Bernardin", "address": "155 W 51st St, The Equitable Bldg, New York, NY 10019", "coordinates": "40.761557,-73.981763", "rating": 4.5, "review_count": 2759, "zip_code": "10019", "cuisineType": "french", "insertedAtTimestamp": "2022-10-19 21:20:47.921912"}, {"businessID": "kHeakps7Gj8EaImiOYaX8g", "name": "Le French Diner", "address": "188 Orchard St, New York, NY 10002", "coordinates": "40.7218274586187,-73.9879689992204", "rating": 4.5, "review_count": 147, "zip_code": "10002", "cuisineType": "french", "insertedAtTimestamp": "2022-10-19 21:20:48.131075"}, {"businessID": "1A3m0-dOhF2PKRU_8S2YYQ", "name": "Le Prive", "address": "626 10th Ave, New York, NY 10036", "coordinates": "40.76108,-73.99419", "rating": 4.5, "review_count": 230, "zip_code": "10036", "cuisineType": "french", "insertedAtTimestamp": "2022-10-19 21:20:48.314012"}, {"businessID": "RQojRzAYA9Cq87PqwQq5yg", "name": "Deux Amis", "address": "356 E 51st St, New York, NY 10022", "coordinates": "40.7544765,-73.9660238", "rating": 4.0, "review_count": 199, "zip_code": "10022", "cuisineType": "french", "insertedAtTimestamp": "2022-10-19 21:20:48.539506"}, {"businessID": "2P2yx60T04Te19tkRZE43w", "name": "Le Rock", "address": "45 Rockefeller Plz, New York, NY 10111", "coordinates": "40.75922,-73.97821", "rating": 5.0, "review_count": 16, "zip_code": "10111", "cuisineType": "french", "insertedAtTimestamp": "2022-10-19 21:20:48.715828"}, {"businessID": "obFs12x7mgYPGxgalBd22w", "name": "Le Coucou", "address": "138 Lafayette St, New York, NY 10013", "coordinates": "40.71909,-74.00013", "rating": 4.0, "review_count": 639, "zip_code": "10013", "cuisineType": "french", "insertedAtTimestamp": "2022-10-19 21:20:48.966401"}, {"businessID": "IYDOX3EelsDWW3kWeoE_Zw", "name": "La Brasserie", "address": "411 Park Ave S, New York, NY 10016", "coordinates": "40.74362,-73.98365", "rating": 4.5, "review_count": 27, "zip_code": "10016", "cuisineType": "french", "insertedAtTimestamp": "2022-10-19 21:20:49.176967"}, {"businessID": "iexl39DYyy_76Xq3ExaJkQ", "name": "Excuse My French", "address": "96 Orchard St, New York, NY 10002", "coordinates": "40.718437,-73.989807", "rating": 4.0, "review_count": 345, "zip_code": "10002", "cuisineType": "french", "insertedAtTimestamp": "2022-10-19 21:20:49.366823"}, {"businessID": "4yZzQKtaPJxSAxNUO20JcA", "name": "Mino Brasserie", "address": "225 W 12th St, New York, NY 10011", "coordinates": "40.73771,-74.00152", "rating": 4.5, "review_count": 41, "zip_code": "10011", "cuisineType": "french", "insertedAtTimestamp": "2022-10-19 21:20:49.521600"}, {"businessID": "VMSlE-GQZhcvkp2Mr03xfA", "name": "L'ami Pierre", "address": "149 W 51st St, New York, NY 10019", "coordinates": "40.761320187028105,-73.9815026", "rating": 4.5, "review_count": 3, "zip_code": "10019", "cuisineType": "french", "insertedAtTimestamp": "2022-10-19 21:20:49.720571"}, {"businessID": "ZjU9qd-RR55cEEKufmdN5Q", "name": "Cath\u00e9drale Restaurant", "address": "112 E 11th St, New York City, NY 10003", "coordinates": "40.731616260076336,-73.98947915459632", "rating": 4.0, "review_count": 310, "zip_code": "10003", "cuisineType": "french", "insertedAtTimestamp": "2022-10-19 21:20:49.901728"}, {"businessID": "6S62Z7e0UP82shutXERUzA", "name": "Cafe Du Soleil", "address": "2723 Broadway, New York, NY 10025", "coordinates": "40.8000739,-73.9682123", "rating": 3.5, "review_count": 533, "zip_code": "10025", "cuisineType": "french", "insertedAtTimestamp": "2022-10-19 21:20:50.109496"}, {"businessID": "7flJeg5Tnc06cQQ7jnBtxg", "name": "Barnea Bistro", "address": "211 E 46th St, New York, NY 10017", "coordinates": "40.75314,-73.97179", "rating": 4.5, "review_count": 55, "zip_code": "10017", "cuisineType": "french", "insertedAtTimestamp": "2022-10-19 21:20:50.334707"}, {"businessID": "gtXP0CmOnBbgfnff7VXa7A", "name": "Pastis", "address": "52 Gansevoort St, New York, NY 10014", "coordinates": "40.73928,-74.00695", "rating": 4.0, "review_count": 412, "zip_code": "10014", "cuisineType": "french", "insertedAtTimestamp": "2022-10-19 21:20:50.651356"}, {"businessID": "qOomR3AwClOGpV1HdqOTFg", "name": "Les Enfants de Boheme", "address": "177 Henry St, New York, NY 10002", "coordinates": "40.7136187,-73.9888503", "rating": 4.5, "review_count": 320, "zip_code": "10002", "cuisineType": "french", "insertedAtTimestamp": "2022-10-19 21:20:50.833063"}, {"businessID": "y2dSu-qwp1BmLfQRn_c-1Q", "name": "Bar Lula", "address": "132 1st Ave, New York, NY 10009", "coordinates": "40.72743,-73.98521", "rating": 4.5, "review_count": 39, "zip_code": "10009", "cuisineType": "french", "insertedAtTimestamp": "2022-10-19 21:20:51.022221"}, {"businessID": "IaKzW5PcmHGklEhAy_9hMQ", "name": "Le Gratin", "address": "5 Beekman St, New York, NY 10038", "coordinates": "40.711440173909835,-74.0068285", "rating": 4.0, "review_count": 21, "zip_code": "10038", "cuisineType": "french", "insertedAtTimestamp": "2022-10-19 21:20:51.224932"}, {"businessID": "C6f_MQaRwIbJ8diailVaCA", "name": "L'Appart", "address": "225 Liberty St, New York, NY 10281", "coordinates": "40.712708,-74.015919", "rating": 5.0, "review_count": 129, "zip_code": "10281", "cuisineType": "french", "insertedAtTimestamp": "2022-10-19 21:20:51.441221"}, {"businessID": "flcy6dNr4s12PTv6VtBK9Q", "name": "L\u0112NA", "address": "137 Eldridge St, New York, NY 10002", "coordinates": "40.719135,-73.991758", "rating": 4.5, "review_count": 203, "zip_code": "10002", "cuisineType": "french", "insertedAtTimestamp": "2022-10-19 21:20:51.683437"}, {"businessID": "bTyyPU8A4pz9dieLSZPMdA", "name": "Le Rivage", "address": "340 W 46th St, New York, NY 10036", "coordinates": "40.76023,-73.98957", "rating": 4.0, "review_count": 544, "zip_code": "10036", "cuisineType": "french", "insertedAtTimestamp": "2022-10-19 21:20:51.872055"}, {"businessID": "A8zppFZvBDGUKRSUrzJWMg", "name": "Chez Josephine", "address": "414 W 42nd St, New York, NY 10036", "coordinates": "40.758502,-73.993413", "rating": 4.0, "review_count": 575, "zip_code": "10036", "cuisineType": "french", "insertedAtTimestamp": "2022-10-19 21:20:52.100446"}, {"businessID": "EF4M55USa1ZNy1rP5Kuk2w", "name": "Chez Moi", "address": "135 Atlantic Ave, Brooklyn, NY 11201", "coordinates": "40.6907305802403,-73.99551244328", "rating": 4.0, "review_count": 452, "zip_code": "11201", "cuisineType": "french", "insertedAtTimestamp": "2022-10-19 21:20:52.350568"}, {"businessID": "ykTc4pZYEAY0Esd0yVFSOQ", "name": "Vin Sur Vingt", "address": "66 W 84th St, New York, NY 10024", "coordinates": "40.78492,-73.97291", "rating": 4.5, "review_count": 65, "zip_code": "10024", "cuisineType": "french", "insertedAtTimestamp": "2022-10-19 21:20:52.560811"}, {"businessID": "ILwCoB-PD8n9ObGk_sac0A", "name": "Recette", "address": "103 Havemeyer St, Brooklyn, NY 11211", "coordinates": "40.71326399774355,-73.95637202012806", "rating": 4.5, "review_count": 70, "zip_code": "11211", "cuisineType": "french", "insertedAtTimestamp": "2022-10-19 21:20:52.756872"}, {"businessID": "CsZLG1VpdFAZiT_qRRmJ2A", "name": "Vin Sur Vingt", "address": "1140 Broadway, New York, NY 10001", "coordinates": "40.743927,-73.9887", "rating": 4.0, "review_count": 166, "zip_code": "10001", "cuisineType": "french", "insertedAtTimestamp": "2022-10-19 21:20:53.021263"}, {"businessID": "WoZnkXZInggzgQM_LbDpGg", "name": "Le Baratin", "address": "26 Greenwich Ave, New York, NY 10011", "coordinates": "40.735025,-73.999857", "rating": 4.0, "review_count": 240, "zip_code": "10011", "cuisineType": "french", "insertedAtTimestamp": "2022-10-19 21:20:53.286443"}, {"businessID": "mjGdtrh0tX7I91GM9dlMNg", "name": "MIMI", "address": "185 Sullivan St, New York, NY 10012", "coordinates": "40.7283483,-74.0006612", "rating": 4.0, "review_count": 168, "zip_code": "10012", "cuisineType": "french", "insertedAtTimestamp": "2022-10-19 21:20:53.476144"}, {"businessID": "HUEj_yVB1E2mNNxW5PqUtQ", "name": "Bistro Vendome", "address": "405 East 58th St, New York, NY 10022", "coordinates": "40.7588875,-73.961963", "rating": 4.0, "review_count": 175, "zip_code": "10022", "cuisineType": "french", "insertedAtTimestamp": "2022-10-19 21:20:54.335509"}, {"businessID": "p6-X_mg5ETcUuV-X4RkPCg", "name": "Citro\u00ebn", "address": "931 Manhattan Ave, Brooklyn, NY 11222", "coordinates": "40.7312,-73.95459", "rating": 4.5, "review_count": 96, "zip_code": "11222", "cuisineType": "french", "insertedAtTimestamp": "2022-10-19 21:20:54.524480"}, {"businessID": "KIIYvTOc0Uv90aUHEGvoSg", "name": "La Grenouille", "address": "3 E 52nd St, New York, NY 10022", "coordinates": "40.75961,-73.97562", "rating": 4.0, "review_count": 478, "zip_code": "10022", "cuisineType": "french", "insertedAtTimestamp": "2022-10-19 21:20:54.767470"}, {"businessID": "0Q13lJ3OHXOuBVpN6jeTjw", "name": "Tartine", "address": "253 W 11th St, New York, NY 10014", "coordinates": "40.7362899,-74.00344", "rating": 4.0, "review_count": 1040, "zip_code": "10014", "cuisineType": "french", "insertedAtTimestamp": "2022-10-19 21:20:54.993955"}, {"businessID": "cJREPXNhyznkLrKhjg9hoA", "name": "Tournesol", "address": "5012 Vernon Blvd, Long Island City, NY 11101", "coordinates": "40.74239,-73.95451", "rating": 4.0, "review_count": 459, "zip_code": "11101", "cuisineType": "french", "insertedAtTimestamp": "2022-10-19 21:20:55.232154"}, {"businessID": "hD55NUiGDK7STQ8oy9QDPA", "name": "Le Monde", "address": "2885 Broadway, New York, NY 10025", "coordinates": "40.8058021,-73.9658246", "rating": 3.0, "review_count": 547, "zip_code": "10025", "cuisineType": "french", "insertedAtTimestamp": "2022-10-19 21:20:55.488064"}, {"businessID": "aTFkjo0scqmOgsFF5kuGXg", "name": "Claudette", "address": "24 5th Ave, New York, NY 10011", "coordinates": "40.7331,-73.99596", "rating": 4.0, "review_count": 477, "zip_code": "10011", "cuisineType": "french", "insertedAtTimestamp": "2022-10-19 21:20:55.778964"}, {"businessID": "U8bfgo6nmR6g6RbERK8ECg", "name": "Maison Close", "address": "15 Watts St, New York, NY 10013", "coordinates": "40.72331,-74.00363", "rating": 4.0, "review_count": 7, "zip_code": "10013", "cuisineType": "french", "insertedAtTimestamp": "2022-10-19 21:20:56.048849"}, {"businessID": "aUakHsv3bAk6tDtLe96rIA", "name": "Lucien", "address": "14 1st Ave, New York, NY 10009", "coordinates": "40.72339,-73.98817", "rating": 3.5, "review_count": 437, "zip_code": "10009", "cuisineType": "french", "insertedAtTimestamp": "2022-10-19 21:20:56.231534"}, {"businessID": "CcxreLJbZsO6Z775-hMWpw", "name": "St Tropez West Village", "address": "304 W 4th St, New York, NY 10014", "coordinates": "40.73704,-74.00386", "rating": 4.5, "review_count": 250, "zip_code": "10014", "cuisineType": "french", "insertedAtTimestamp": "2022-10-19 21:20:56.436069"}, {"businessID": "ikkIneKupd7sClxu9nvdzQ", "name": "Shiraz Kitchen & Wine Bar", "address": "111 W 17th St, New York, NY 10011", "coordinates": "40.73975906936846,-73.9959804", "rating": 4.5, "review_count": 143, "zip_code": "10011", "cuisineType": "french", "insertedAtTimestamp": "2022-10-19 21:20:56.613102"}, {"businessID": "_FlytyN_g4CjBL14JvrjBw", "name": "Manny's Bistro", "address": "225 Columbus Ave, New York, NY 10023", "coordinates": "40.776204,-73.979266", "rating": 4.0, "review_count": 46, "zip_code": "10023", "cuisineType": "french", "insertedAtTimestamp": "2022-10-19 21:20:56.873553"}, {"businessID": "VpEy7E9fij06n7BRrzvEaw", "name": "Le Crocodile", "address": "80 Wythe Ave, Brooklyn, NY 11249", "coordinates": "40.72191,-73.957873", "rating": 4.5, "review_count": 174, "zip_code": "11249", "cuisineType": "french", "insertedAtTimestamp": "2022-10-19 21:20:57.155523"}, {"businessID": "ZeKrSgDN0ksEp9TxiuezSg", "name": "46 Bistro", "address": "300 W 46th St, New York, NY 10036", "coordinates": "40.75985,-73.98833", "rating": 4.0, "review_count": 14, "zip_code": "10036", "cuisineType": "french", "insertedAtTimestamp": "2022-10-19 21:20:57.380170"}, {"businessID": "LF2_slTY37P0Ua8vI4Hr5g", "name": "Bistro Les Amis", "address": "180 Spring St, New York, NY 10012", "coordinates": "40.724678,-74.002624", "rating": 4.0, "review_count": 446, "zip_code": "10012", "cuisineType": "french", "insertedAtTimestamp": "2022-10-19 21:20:57.638049"}, {"businessID": "BA6wd1pZTVu1DmrtiyTs8g", "name": "Raoul's Restaurant", "address": "180 Prince St, New York, NY 10012", "coordinates": "40.72615,-74.00216", "rating": 4.0, "review_count": 591, "zip_code": "10012", "cuisineType": "french", "insertedAtTimestamp": "2022-10-19 21:20:57.892116"}, {"businessID": "PflHKSowWSsR-a76Ne7nzg", "name": "La Marchande", "address": "88 Wall St, New York, NY 10005", "coordinates": "40.7054495,-74.0075335", "rating": 4.0, "review_count": 8, "zip_code": "10005", "cuisineType": "french", "insertedAtTimestamp": "2022-10-19 21:20:58.079503"}, {"businessID": "3gtheZvv3Or0YzWXIl3SJg", "name": "Benoit", "address": "60 W 55th St, New York, NY 10019", "coordinates": "40.7625640535871,-73.9772810679851", "rating": 3.5, "review_count": 551, "zip_code": "10019", "cuisineType": "french", "insertedAtTimestamp": "2022-10-19 21:20:58.277930"}, {"businessID": "o-N9S05IjZdEdzdO6DB3Bw", "name": "Selo", "address": "33-05 Broadway, Astoria, NY 11106", "coordinates": "40.7613,-73.92335", "rating": 5.0, "review_count": 57, "zip_code": "11106", "cuisineType": "french", "insertedAtTimestamp": "2022-10-19 21:20:58.511164"}, {"businessID": "qEbQbYZxurnuVxDrNHQUJg", "name": "La Boite en Bois", "address": "75 W 68th St, New York, NY 10023", "coordinates": "40.7749214172363,-73.9802398681641", "rating": 3.5, "review_count": 252, "zip_code": "10023", "cuisineType": "french", "insertedAtTimestamp": "2022-10-19 21:20:58.908745"}, {"businessID": "TjsclSn2PbJ9AV3S4oiXUw", "name": "MaryLou", "address": "41 St Marks Pl, New York, NY 10003", "coordinates": "40.7285,-73.98707", "rating": 4.5, "review_count": 10, "zip_code": "10003", "cuisineType": "french", "insertedAtTimestamp": "2022-10-19 21:20:59.344232"}, {"businessID": "5XQgZQF-5N94bkQ2d_PJIQ", "name": "Pascalou", "address": "1308 Madison Ave, New York, NY 10128", "coordinates": "40.78521,-73.95595", "rating": 4.0, "review_count": 277, "zip_code": "10128", "cuisineType": "french", "insertedAtTimestamp": "2022-10-19 21:20:59.544178"}, {"businessID": "xN7JOFf3nBBDxvZ1M4Slbg", "name": "Barb\u00e8s Restaurant", "address": "1300 Park Ave, Hoboken, NJ 07030", "coordinates": "40.7529899,-74.02924", "rating": 4.0, "review_count": 281, "zip_code": "07030", "cuisineType": "french", "insertedAtTimestamp": "2022-10-19 21:20:59.771887"}, {"businessID": "mJeKLz8GC4x6HGWNun1CNA", "name": "Bar B\u00eate", "address": "263 Smith St, Brooklyn, NY 11231", "coordinates": "40.6830415993956,-73.9928337145761", "rating": 4.5, "review_count": 62, "zip_code": "11231", "cuisineType": "french", "insertedAtTimestamp": "2022-10-19 21:21:00.327941"}, {"businessID": "dwNmZYx74kAjTsk1hTVtjw", "name": "Maman", "address": "114 W 41st St, New York, NY 10036", "coordinates": "40.75446,-73.98554", "rating": 4.5, "review_count": 48, "zip_code": "10036", "cuisineType": "french", "insertedAtTimestamp": "2022-10-19 21:21:00.558578"}, {"businessID": "nlmFAz_93gjSUfmvmv8Tog", "name": "Le Grainne Cafe", "address": "183 9th Ave, New York, NY 10011", "coordinates": "40.7454064780449,-74.0024026704959", "rating": 4.0, "review_count": 656, "zip_code": "10011", "cuisineType": "french", "insertedAtTimestamp": "2022-10-19 21:21:00.737519"}, {"businessID": "N66LlG3W6Tw5LhUtAE7h1w", "name": "Cafe Un Deux Trois", "address": "123 W 44th St, New York, NY 10036", "coordinates": "40.75667,-73.98414", "rating": 3.5, "review_count": 650, "zip_code": "10036", "cuisineType": "french", "insertedAtTimestamp": "2022-10-19 21:21:00.936191"}, {"businessID": "yvhhKv2CDjuJsC4ecG848g", "name": "Le Bilboquet", "address": "20 E 60th St, New York, NY 10022", "coordinates": "40.76381,-73.97058", "rating": 3.5, "review_count": 227, "zip_code": "10022", "cuisineType": "french", "insertedAtTimestamp": "2022-10-19 21:21:01.152339"}, {"businessID": "TfeWzIvhIInBxaKG0Ngmqw", "name": "Amuse Bouche Bistro", "address": "1590 Park Ave, New York, NY 10029", "coordinates": "40.7985629667818,-73.9437040686607", "rating": 5.0, "review_count": 23, "zip_code": "10029", "cuisineType": "french", "insertedAtTimestamp": "2022-10-19 21:21:01.347317"}, {"businessID": "bqhBU_iyHpaLlq0WSc5Nkw", "name": "Jean Claude 2", "address": "1343 2nd Ave, New York, NY 10021", "coordinates": "40.7680053710938,-73.9592895507812", "rating": 4.0, "review_count": 191, "zip_code": "10021", "cuisineType": "french", "insertedAtTimestamp": "2022-10-19 21:21:01.568198"}, {"businessID": "g5f6p9jfzB30Mhcu6d5OWA", "name": "Petite Boucherie", "address": "14 Christopher St, New York, NY 10014", "coordinates": "40.73382,-74.00042", "rating": 4.5, "review_count": 236, "zip_code": "10014", "cuisineType": "french", "insertedAtTimestamp": "2022-10-19 21:21:01.755570"}, {"businessID": "5LqclCP-RTj61-5QNo0jZw", "name": "Maison Harlem", "address": "341 St Nicholas Ave, New York, NY 10027", "coordinates": "40.8121862892803,-73.9516100875101", "rating": 4.0, "review_count": 558, "zip_code": "10027", "cuisineType": "french", "insertedAtTimestamp": "2022-10-19 21:21:01.972985"}, {"businessID": "50fWXrNECQQYght4ZWeBXQ", "name": "Taureau", "address": "558 Broome St, New York, NY 10013", "coordinates": "40.724511,-74.005701", "rating": 4.5, "review_count": 599, "zip_code": "10013", "cuisineType": "french", "insertedAtTimestamp": "2022-10-19 21:21:02.146282"}, {"businessID": "1DfbZ0VsSCg9g1KILmnvzQ", "name": "Per Se", "address": "10 Columbus Cir, Fl 4, New York, NY 10019", "coordinates": "40.7681528889558,-73.9827629623657", "rating": 4.5, "review_count": 1797, "zip_code": "10019", "cuisineType": "french", "insertedAtTimestamp": "2022-10-19 21:21:02.393860"}, {"businessID": "cHvd_fnNqbcR4EdyodzGzw", "name": "Koloman", "address": "16 W 29th St, New York, NY 10001", "coordinates": "40.74569968921106,-73.9880941", "rating": 5.0, "review_count": 10, "zip_code": "10001", "cuisineType": "french", "insertedAtTimestamp": "2022-10-19 21:21:02.597250"}, {"businessID": "pDwhlX9jNBGnjvyGR9jYWQ", "name": "Gabriel Kreuther", "address": "41 W 42nd St, New York, NY 10036", "coordinates": "40.754546,-73.982556", "rating": 4.5, "review_count": 575, "zip_code": "10036", "cuisineType": "french", "insertedAtTimestamp": "2022-10-19 21:21:02.856603"}, {"businessID": "QvQilClGyuKFz08TBsoJNA", "name": "Le District - Market District", "address": "225 Liberty St, New York, NY 10281", "coordinates": "40.7126473617984,-74.0157784596443", "rating": 3.5, "review_count": 587, "zip_code": "10281", "cuisineType": "french", "insertedAtTimestamp": "2022-10-19 21:21:03.088728"}, {"businessID": "TQzGf4k3HXyMbnNkYKKQSw", "name": "Oxalis", "address": "791 Washington Ave, Brooklyn, NY 11238", "coordinates": "40.673109,-73.9626279", "rating": 4.5, "review_count": 219, "zip_code": "11238", "cuisineType": "french", "insertedAtTimestamp": "2022-10-19 21:21:03.280165"}, {"businessID": "GBJOu9Rk4JqqWjB8ddYudw", "name": "La Mercerie", "address": "53 Howard St, New York, NY 10013", "coordinates": "40.7202236743825,-74.0021909441629", "rating": 3.5, "review_count": 305, "zip_code": "10013", "cuisineType": "french", "insertedAtTimestamp": "2022-10-19 21:21:04.361180"}, {"businessID": "uby3glEc0Brt9LAoCI0WTg", "name": "L\u2019Express", "address": "249 Park Ave S, New York, NY 10003", "coordinates": "40.738162056865,-73.987657", "rating": 3.5, "review_count": 872, "zip_code": "10003", "cuisineType": "french", "insertedAtTimestamp": "2022-10-19 21:21:04.580183"}, {"businessID": "dAHoDxBmzWqfobnTbCHaQA", "name": "Frenchette", "address": "241 W Broadway, New York, NY 10013", "coordinates": "40.71964,-74.00578", "rating": 3.5, "review_count": 316, "zip_code": "10013", "cuisineType": "french", "insertedAtTimestamp": "2022-10-19 21:21:04.796768"}, {"businessID": "Du4yrt8aWlBhOeEjhEH3ww", "name": "St Tropez Soho", "address": "194 Spring St, New York, NY 10012", "coordinates": "40.72498,-74.00328", "rating": 4.0, "review_count": 140, "zip_code": "10012", "cuisineType": "french", "insertedAtTimestamp": "2022-10-19 21:21:05.042703"}, {"businessID": "JUGgD5WXc8eU5MoBKrfSGA", "name": "L'Atelier de Jo\u00ebl Robuchon", "address": "85 10th Ave, New York, NY 10011", "coordinates": "40.743052,-74.007872", "rating": 4.5, "review_count": 145, "zip_code": "10011", "cuisineType": "french", "insertedAtTimestamp": "2022-10-19 21:21:05.423304"}, {"businessID": "g6R8iwi__IDy8plQy0v9WQ", "name": "Caf\u00e9 Gitane", "address": "242 Mott St, New York, NY 10012", "coordinates": "40.7231802723335,-73.9946175625656", "rating": 4.0, "review_count": 741, "zip_code": "10012", "cuisineType": "french", "insertedAtTimestamp": "2022-10-19 21:21:05.632008"}, {"businessID": "JP51QIvqSr9mTmuxyd5GMA", "name": "La Boh\u00e8me", "address": "233 Clinton St, Hoboken, NJ 07030", "coordinates": "40.74070351187905,-74.03451684924673", "rating": 4.0, "review_count": 58, "zip_code": "07030", "cuisineType": "french", "insertedAtTimestamp": "2022-10-19 21:21:05.834930"}, {"businessID": "9pI_G9xGiTY4YCcfe9eoPA", "name": "French Louie", "address": "320 Atlantic Ave, Brooklyn, NY 11201", "coordinates": "40.6879459,-73.988257", "rating": 4.0, "review_count": 446, "zip_code": "11201", "cuisineType": "french", "insertedAtTimestamp": "2022-10-19 21:21:06.042060"}, {"businessID": "WBPbYPBrha8jxeUuqreYpQ", "name": "Bistro So", "address": "530 Driggs Ave, Brooklyn, NY 11211", "coordinates": "40.71755,-73.95603", "rating": 4.5, "review_count": 31, "zip_code": "11211", "cuisineType": "french", "insertedAtTimestamp": "2022-10-19 21:21:06.279453"}, {"businessID": "l2b6HJGarUxoeLnM9syTmg", "name": "Compagnie des Vins Surnaturels", "address": "249 Ctr St, New York, NY 10013", "coordinates": "40.7205157,-73.9981652", "rating": 4.5, "review_count": 144, "zip_code": "10013", "cuisineType": "french", "insertedAtTimestamp": "2022-10-19 21:21:06.488887"}, {"businessID": "qLL_x4uzDHCgXd9lwaGxjw", "name": "Frevo", "address": "48 W 8th St, New York, NY 10011", "coordinates": "40.73313,-73.99867", "rating": 4.5, "review_count": 62, "zip_code": "10011", "cuisineType": "french", "insertedAtTimestamp": "2022-10-19 21:21:06.689137"}, {"businessID": "e55zGi8q6Z0uOZ_RJQhHFA", "name": "Vin Sur Vingt", "address": "170 2nd Ave, New York, NY 10003", "coordinates": "40.73018,-73.98626", "rating": 4.5, "review_count": 20, "zip_code": "10003", "cuisineType": "french", "insertedAtTimestamp": "2022-10-19 21:21:06.926721"}, {"businessID": "C2o3Iw-DXjoUJFgQIbiqkQ", "name": "BoCaphe", "address": "222 Lafayette St, New York, NY 10012", "coordinates": "40.722062,-73.997587", "rating": 4.0, "review_count": 1707, "zip_code": "10012", "cuisineType": "french", "insertedAtTimestamp": "2022-10-19 21:21:07.167450"}, {"businessID": "ZOfk6Ao0db5icjc0WEq7zg", "name": "Bacchus Bistro & Wine Bar", "address": "409-411 Atlantic Ave, Brooklyn, NY 11217", "coordinates": "40.68692,-73.98437", "rating": 4.0, "review_count": 533, "zip_code": "11217", "cuisineType": "french", "insertedAtTimestamp": "2022-10-19 21:21:07.377075"}, {"businessID": "mBZUWdasmua9XOsWy8xdWA", "name": "Jacques", "address": "206 E 85th St, Ste 204, New York, NY 10028", "coordinates": "40.777824,-73.954143", "rating": 3.5, "review_count": 248, "zip_code": "10028", "cuisineType": "french", "insertedAtTimestamp": "2022-10-19 21:21:07.591465"}, {"businessID": "7uGPAk8ELYABSzZhXhj7tA", "name": "Le Gigot", "address": "18 Cornelia St, New York, NY 10014", "coordinates": "40.7314099,-74.00197", "rating": 4.0, "review_count": 229, "zip_code": "10014", "cuisineType": "french", "insertedAtTimestamp": "2022-10-19 21:21:07.832855"}, {"businessID": "fAPkN79fe7Gjq7A6fj6s9Q", "name": "Bistro Eloise", "address": "75-57 31st Ave, East Elmhurst, NY 11370", "coordinates": "40.7587335,-73.8920429", "rating": 4.5, "review_count": 256, "zip_code": "11370", "cuisineType": "french", "insertedAtTimestamp": "2022-10-19 21:21:08.052390"}, {"businessID": "lu0XMmcPyFGvIgqRcbU_4g", "name": "Le Jardinier", "address": "610 Lexington Ave, New York, NY 10022", "coordinates": "40.7582033,-73.9713074", "rating": 4.0, "review_count": 45, "zip_code": "10022", "cuisineType": "french", "insertedAtTimestamp": "2022-10-19 21:21:08.277661"}, {"businessID": "7m4GnzK5pv7qGn-Ar1zabQ", "name": "Lena", "address": "1B West 8th St, New York, NY 10011", "coordinates": "40.732552,-73.996704", "rating": 4.5, "review_count": 32, "zip_code": "10011", "cuisineType": "french", "insertedAtTimestamp": "2022-10-19 21:21:08.541490"}, {"businessID": "Bx9ufqCtxxdl2l6pT3J45g", "name": "Petrossian Boutique & Cafe", "address": "911 7th Ave, New York, NY 10019", "coordinates": "40.766026225434,-73.97945224279856", "rating": 4.0, "review_count": 367, "zip_code": "10019", "cuisineType": "french", "insertedAtTimestamp": "2022-10-19 21:21:08.768935"}, {"businessID": "DZaN3bNWfwcm__sNw5bvDg", "name": "Daniel", "address": "60 E 65th St, New York, NY 10065", "coordinates": "40.7667736797858,-73.967607", "rating": 4.5, "review_count": 1803, "zip_code": "10065", "cuisineType": "french", "insertedAtTimestamp": "2022-10-19 21:21:09.000754"}, {"businessID": "eoz2NahxyivVRs8Ll9Ljjg", "name": "Aldo Sohm Wine Bar", "address": "151 W 51st St, New York, NY 10019", "coordinates": "40.7613464555977,-73.9811449219513", "rating": 4.0, "review_count": 262, "zip_code": "10019", "cuisineType": "french", "insertedAtTimestamp": "2022-10-19 21:21:09.329546"}, {"businessID": "q-QEwZi32JCnjb7zbY-PQw", "name": "Soogil", "address": "108 E 4th St, New York, NY 10003", "coordinates": "40.72551,-73.98838", "rating": 4.0, "review_count": 149, "zip_code": "10003", "cuisineType": "french", "insertedAtTimestamp": "2022-10-19 21:21:09.543013"}, {"businessID": "V69n3YrAs59GenGB2jLVrA", "name": "Orsay", "address": "1057 Lexington Ave, New York, NY 10021", "coordinates": "40.772384,-73.960433", "rating": 3.5, "review_count": 323, "zip_code": "10021", "cuisineType": "french", "insertedAtTimestamp": "2022-10-19 21:21:09.742728"}, {"businessID": "IVjpsmmsgc42k9K2RZR3Qg", "name": "Le Fond", "address": "105 Norman Ave, Brooklyn, NY 11222", "coordinates": "40.7258415222168,-73.9511032104492", "rating": 4.5, "review_count": 166, "zip_code": "11222", "cuisineType": "french", "insertedAtTimestamp": "2022-10-19 21:21:09.984597"}, {"businessID": "PMJOGt8QQmo-2A4DnUcmZQ", "name": "Liberty Bistro", "address": "225 Liberty St, New York, NY 10080", "coordinates": "40.712344,-74.015511", "rating": 4.0, "review_count": 109, "zip_code": "10080", "cuisineType": "french", "insertedAtTimestamp": "2022-10-19 21:21:10.172331"}, {"businessID": "K_RLEEEkMmlis5hteYlYUQ", "name": "Majorelle", "address": "28 E 63rd St, New York, NY 10065", "coordinates": "40.7657132,-73.9692137", "rating": 4.5, "review_count": 81, "zip_code": "10065", "cuisineType": "french", "insertedAtTimestamp": "2022-10-19 21:21:10.370777"}, {"businessID": "npiIhpcWePbVT3JYEcy3zg", "name": "Wayan", "address": "20 Spring St, New York, NY 10012", "coordinates": "40.7213813139202,-73.9950757664721", "rating": 4.0, "review_count": 500, "zip_code": "10012", "cuisineType": "french", "insertedAtTimestamp": "2022-10-19 21:21:10.601017"}, {"businessID": "npWACY8WDDyYhMt0s3YFwQ", "name": "Vin Sur Vingt", "address": "100 Riverside Blvd, New York, NY 10069", "coordinates": "40.7757,-73.98948", "rating": 4.0, "review_count": 33, "zip_code": "10069", "cuisineType": "french", "insertedAtTimestamp": "2022-10-19 21:21:10.876452"}, {"businessID": "wDLHOgux_G8Y82Y6D9rSog", "name": "Maison Sun", "address": "177 Prince St, New York, NY 10012", "coordinates": "40.72651460000001,-74.0017635", "rating": 4.5, "review_count": 42, "zip_code": "10012", "cuisineType": "french", "insertedAtTimestamp": "2022-10-19 21:21:11.091027"}, {"businessID": "aS8QlNmESvm2ZLsE9D-c3g", "name": "Aunt Bernie's Bar and Jardin", "address": "513 3rd Ave, New York, NY 10016", "coordinates": "40.74598,-73.97772", "rating": 5.0, "review_count": 6, "zip_code": "10016", "cuisineType": "french", "insertedAtTimestamp": "2022-10-19 21:21:11.362011"}, {"businessID": "uuDvk4EsRUkeTj4jVKJOpw", "name": "Rue 57", "address": "60 W 57th St, New York, NY 10019", "coordinates": "40.7640285260993,-73.9770378404755", "rating": 3.5, "review_count": 1239, "zip_code": "10019", "cuisineType": "french", "insertedAtTimestamp": "2022-10-19 21:21:11.591135"}, {"businessID": "sHSCUGKAUR9gYThXlginkA", "name": "Bar Blondeau", "address": "80 Wythe Ave, Ste 6, Brooklyn, NY 11249", "coordinates": "40.72208,-73.95785", "rating": 4.0, "review_count": 39, "zip_code": "11249", "cuisineType": "french", "insertedAtTimestamp": "2022-10-19 21:21:11.809546"}, {"businessID": "-vBfKWJ1v9YdJQT5XUbcBQ", "name": "Le Botaniste", "address": "833 Lexington Ave, New York, NY 10065", "coordinates": "40.7649986274526,-73.9659830279587", "rating": 4.5, "review_count": 444, "zip_code": "10065", "cuisineType": "french", "insertedAtTimestamp": "2022-10-19 21:21:12.026643"}, {"businessID": "emTmnLlesIwxRofQ34ntdA", "name": "Juliette", "address": "135C N 5th St, Brooklyn, NY 11249", "coordinates": "40.71702,-73.959077", "rating": 3.5, "review_count": 991, "zip_code": "11249", "cuisineType": "french", "insertedAtTimestamp": "2022-10-19 21:21:12.245556"}, {"businessID": "FbGw2sPwZZlZuEndVpP2pQ", "name": "La Petite Joie", "address": "577 Union Ave, Brooklyn, NY 11211", "coordinates": "40.717711705769275,-73.9524272", "rating": 4.5, "review_count": 22, "zip_code": "11211", "cuisineType": "french", "insertedAtTimestamp": "2022-10-19 21:21:12.470721"}, {"businessID": "PBUIaPtgnhmdHE3KHglK-g", "name": "Jean-Georges", "address": "1 Central Park W, New York, NY 10023", "coordinates": "40.7691122743293,-73.9814290717583", "rating": 4.0, "review_count": 1979, "zip_code": "10023", "cuisineType": "french", "insertedAtTimestamp": "2022-10-19 21:21:12.792795"}, {"businessID": "xEDD2ScBU3jHhWxlMC7dkQ", "name": "Nougatine at Jean-Georges", "address": "1 Central Park W, New York, NY 10023", "coordinates": "40.76891,-73.98176", "rating": 4.0, "review_count": 1214, "zip_code": "10023", "cuisineType": "french", "insertedAtTimestamp": "2022-10-19 21:21:13.041051"}, {"businessID": "lSAY2Dy26TMsKalCyBxEaA", "name": "Gypsy Rose Bistro", "address": "125 W 26th St, New York, NY 10001", "coordinates": "40.74542683929814,-73.99223294109106", "rating": 4.0, "review_count": 4, "zip_code": "10001", "cuisineType": "french", "insertedAtTimestamp": "2022-10-19 21:21:13.311167"}, {"businessID": "XDMtYVpUQag-uay9DHMm9A", "name": "Quatorze", "address": "1578 1st Ave, New York, NY 10028", "coordinates": "40.77433249323621,-73.9509927699736", "rating": 4.0, "review_count": 76, "zip_code": "10028", "cuisineType": "french", "insertedAtTimestamp": "2022-10-19 21:21:14.348573"}, {"businessID": "xGQ26ijvBi9DKVVG7DQOlA", "name": "Le Moulin a Cafe", "address": "1439 York Ave, New York, NY 10075", "coordinates": "40.76981507188533,-73.9518785114284", "rating": 4.0, "review_count": 387, "zip_code": "10075", "cuisineType": "french", "insertedAtTimestamp": "2022-10-19 21:21:14.678391"}, {"businessID": "lw4ZMgn-QBh_5W1ipNHjaw", "name": "La Goulue", "address": "29 E 61st St, New York, NY 10065", "coordinates": "40.76482082282401,-73.9699213", "rating": 3.5, "review_count": 120, "zip_code": "10065", "cuisineType": "french", "insertedAtTimestamp": "2022-10-19 21:21:14.930261"}, {"businessID": "28EoYA9TiHANksq662_3vQ", "name": "Lamonte", "address": "557 Driggs Ave, Brooklyn, NY 11211", "coordinates": "40.71684,-73.95648", "rating": 4.5, "review_count": 12, "zip_code": "11211", "cuisineType": "french", "insertedAtTimestamp": "2022-10-19 21:21:15.154385"}, {"businessID": "8cT6XDwI9KiCaoVohlx42Q", "name": "BXL Zoute", "address": "50 W 22nd St, New York, NY 10010", "coordinates": "40.74174,-73.992627", "rating": 4.0, "review_count": 440, "zip_code": "10010", "cuisineType": "french", "insertedAtTimestamp": "2022-10-19 21:21:15.348120"}, {"businessID": "59dXrRQE3JVItSneV3a1bg", "name": "Le Veau D'or", "address": "129 E 60th St, New York, NY 10022", "coordinates": "40.76316,-73.96814", "rating": 3.5, "review_count": 97, "zip_code": "10022", "cuisineType": "french", "insertedAtTimestamp": "2022-10-19 21:21:15.557865"}, {"businessID": "xTnivXEdEtXrnhp-z4JGvg", "name": "La Parisienne", "address": "9 Maiden Ln, New York, NY 10038", "coordinates": "40.70961,-74.0093799", "rating": 4.5, "review_count": 749, "zip_code": "10038", "cuisineType": "french", "insertedAtTimestamp": "2022-10-19 21:21:15.755739"}, {"businessID": "qcvGRJT3QedXz7p3_CDmmA", "name": "Bel Ami", "address": "30 E 68th St, New York, NY 10065", "coordinates": "40.7689753,-73.9670732", "rating": 4.0, "review_count": 227, "zip_code": "10065", "cuisineType": "french", "insertedAtTimestamp": "2022-10-19 21:21:15.967430"}, {"businessID": "DEHWHskp2gSAkfdylc4SNA", "name": "Yatenga French Bistro & Bar", "address": "2269 Adam Clayton Powell Jr Blvd, New York, NY 10030", "coordinates": "40.8142691169743,-73.9441050339131", "rating": 4.0, "review_count": 272, "zip_code": "10030", "cuisineType": "french", "insertedAtTimestamp": "2022-10-19 21:21:16.210833"}, {"businessID": "RP02PZPNdhfoL-TjOMiKVg", "name": "Table d'H\u00f4te", "address": "44 E 92nd St, New York, NY 10128", "coordinates": "40.78447,-73.95581", "rating": 4.0, "review_count": 165, "zip_code": "10128", "cuisineType": "french", "insertedAtTimestamp": "2022-10-19 21:21:16.449572"}, {"businessID": "bEXTA_Gwo2oVg4gnFd9fNA", "name": "Ai Fiori", "address": "400 5th Ave, Ste 2, New York, NY 10018", "coordinates": "40.7500752,-73.9837835", "rating": 4.0, "review_count": 1418, "zip_code": "10018", "cuisineType": "french", "insertedAtTimestamp": "2022-10-19 21:21:16.692463"}, {"businessID": "6BHKPn6QtTJ0lTZonI-WgQ", "name": "The Lavaux", "address": "630 Hudson St, New York, NY 10014", "coordinates": "40.7383532750564,-74.0055276453495", "rating": 4.5, "review_count": 75, "zip_code": "10014", "cuisineType": "french", "insertedAtTimestamp": "2022-10-19 21:21:16.926652"}, {"businessID": "49ST--X1jcIPzUIM1O3K6w", "name": "Mominette", "address": "221 Knickerbocker Ave, Brooklyn, NY 11237", "coordinates": "40.703252,-73.925889", "rating": 4.0, "review_count": 751, "zip_code": "11237", "cuisineType": "french", "insertedAtTimestamp": "2022-10-19 21:21:17.123449"}, {"businessID": "9vQca1DMqfbDGssiqEd6Hw", "name": "Le Gamin", "address": "108 Franklin St, Brooklyn, NY 11222", "coordinates": "40.728299,-73.957153", "rating": 3.5, "review_count": 242, "zip_code": "11222", "cuisineType": "french", "insertedAtTimestamp": "2022-10-19 21:21:17.355300"}, {"businessID": "mosd9Voq5Ws6k6Uduii_ww", "name": "Bar Boulud", "address": "1900 Broadway, New York, NY 10023", "coordinates": "40.7718443592464,-73.9818808860381", "rating": 3.5, "review_count": 947, "zip_code": "10023", "cuisineType": "french", "insertedAtTimestamp": "2022-10-19 21:21:17.617321"}, {"businessID": "VuR3lhMA80aH42jrBM_C8A", "name": "Duane Park", "address": "308 Bowery, New York, NY 10012", "coordinates": "40.7249172,-73.9925423", "rating": 4.5, "review_count": 549, "zip_code": "10012", "cuisineType": "french", "insertedAtTimestamp": "2022-10-19 21:21:17.894831"}, {"businessID": "nRO136GRieGtxz18uD61DA", "name": "Eleven Madison Park", "address": "11 Madison Ave, New York, NY 10010", "coordinates": "40.7416907417333,-73.9872074872255", "rating": 4.5, "review_count": 2333, "zip_code": "10010", "cuisineType": "french", "insertedAtTimestamp": "2022-10-19 21:21:18.199030"}, {"businessID": "O64wSq9NvecPNPRkz38o8Q", "name": "Madame Claude Bis", "address": "390 4th St, Jersey City, NJ 07302", "coordinates": "40.72473095928894,-74.05183738424924", "rating": 4.0, "review_count": 240, "zip_code": "07302", "cuisineType": "french", "insertedAtTimestamp": "2022-10-19 21:21:18.393775"}, {"businessID": "Su-MRJLlxUtjU_-V5viYYA", "name": "French Roast", "address": "2340 Broadway, New York, NY 10024", "coordinates": "40.7877322,-73.9767123", "rating": 3.0, "review_count": 615, "zip_code": "10024", "cuisineType": "french", "insertedAtTimestamp": "2022-10-19 21:21:18.606023"}, {"businessID": "VFUHY1Y6pg0UaNmE3CS7cA", "name": "Ver\u014dnika", "address": "281 Park Ave S 22nd St Entrance, Second Floor, New York, NY 10010", "coordinates": "40.7392209,-73.98672189999999", "rating": 4.0, "review_count": 17, "zip_code": "10010", "cuisineType": "french", "insertedAtTimestamp": "2022-10-19 21:21:18.805561"}, {"businessID": "LpIpG7klTOl_btqxNkp-Vw", "name": "Ernesto\u2019s", "address": "259 E Broadway, New York, NY 10002", "coordinates": "40.71429,-73.9854371", "rating": 3.5, "review_count": 113, "zip_code": "10002", "cuisineType": "french", "insertedAtTimestamp": "2022-10-19 21:21:18.999065"}, {"businessID": "MbLH5wjrqEJAid5woCAh5g", "name": "Le Singe", "address": "160 7th Ave, New York, NY 10011", "coordinates": "40.74202269200279,-73.99738698512807", "rating": 3.5, "review_count": 257, "zip_code": "10011", "cuisineType": "french", "insertedAtTimestamp": "2022-10-19 21:21:19.205605"}, {"businessID": "fFkqEyupjc5x2iJQIPcpLw", "name": "Ruffian", "address": "125 E 7th St, New York, NY 10009", "coordinates": "40.7264,-73.98411", "rating": 4.5, "review_count": 258, "zip_code": "10009", "cuisineType": "french", "insertedAtTimestamp": "2022-10-19 21:21:19.420688"}, {"businessID": "hSpZSqElyjHTfE4lQJ97Cg", "name": "Mareluna", "address": "137 Sullivan St, New York, NY 10012", "coordinates": "40.72686027756351,-74.00191202883569", "rating": 5.0, "review_count": 43, "zip_code": "10012", "cuisineType": "french", "insertedAtTimestamp": "2022-10-19 21:21:19.631993"}, {"businessID": "HbCyzokiA19bEWUp6mga_g", "name": "bibi", "address": "211 E 4th St, New York, NY 10009", "coordinates": "40.723937,-73.983519", "rating": 4.5, "review_count": 210, "zip_code": "10009", "cuisineType": "french", "insertedAtTimestamp": "2022-10-19 21:21:19.833215"}, {"businessID": "t-Pm38_XhMnGfOYgkhaNRA", "name": "Le Fanfare", "address": "1103 Manhattan Ave, Brooklyn, NY 11222", "coordinates": "40.736202,-73.955558", "rating": 4.0, "review_count": 224, "zip_code": "11222", "cuisineType": "french", "insertedAtTimestamp": "2022-10-19 21:21:20.034443"}, {"businessID": "Knbn0h4MA1KX5Fv3eZfK4w", "name": "Nice Matin", "address": "201 W 79th St, New York, NY 10024", "coordinates": "40.78343707106175,-73.9784952", "rating": 3.5, "review_count": 814, "zip_code": "10024", "cuisineType": "french", "insertedAtTimestamp": "2022-10-19 21:21:20.227403"}, {"businessID": "CsdS-L70jLn-exz34j8h5Q", "name": "L'avenue at Saks", "address": "8 East 50th St, New York, NY 10022", "coordinates": "40.758267086090314,-73.9768371", "rating": 4.0, "review_count": 115, "zip_code": "10022", "cuisineType": "french", "insertedAtTimestamp": "2022-10-19 21:21:20.468293"}, {"businessID": "hVWEXOdZ8x0xEunx3k6LXA", "name": "Saga", "address": "70 Pine St, Fl 63, New York, NY 10270", "coordinates": "40.70642,-74.007666", "rating": 4.0, "review_count": 24, "zip_code": "10270", "cuisineType": "french", "insertedAtTimestamp": "2022-10-19 21:21:20.674242"}, {"businessID": "H_KyiRhwho8rdlw_R93_0Q", "name": "Marea", "address": "240 Central Park S, New York, NY 10019", "coordinates": "40.7674213694566,-73.9810554368179", "rating": 4.0, "review_count": 2286, "zip_code": "10019", "cuisineType": "french", "insertedAtTimestamp": "2022-10-19 21:21:20.932174"}, {"businessID": "ar2xOWS0wl5yB60GH1uI5w", "name": "Chez Olivia", "address": "29-11 23rd Ave, Astoria, NY 11105", "coordinates": "40.774977,-73.913251", "rating": 4.5, "review_count": 34, "zip_code": "11105", "cuisineType": "french", "insertedAtTimestamp": "2022-10-19 21:21:21.144015"}, {"businessID": "8ucQ3A7f6h9_PkKStYBkQA", "name": "LaLou", "address": "581 Vanderbilt Ave, Brooklyn, NY 11238", "coordinates": "40.680311,-73.967596", "rating": 4.0, "review_count": 84, "zip_code": "11238", "cuisineType": "french", "insertedAtTimestamp": "2022-10-19 21:21:21.377726"}, {"businessID": "PXTzmqJW7gbK-IkfKBEnFw", "name": "Cafe Triskell", "address": "33-04 36th Ave, Astoria, NY 11106", "coordinates": "40.7557027855819,-73.9280135680406", "rating": 4.5, "review_count": 460, "zip_code": "11106", "cuisineType": "french", "insertedAtTimestamp": "2022-10-19 21:21:21.599174"}, {"businessID": "Nt36orNgZKCsGcdHw8TwEg", "name": "Francis & Staub - La Rotisserie", "address": "30 E 20th St, New York, NY 10003", "coordinates": "40.738572,-73.988906", "rating": 4.0, "review_count": 6, "zip_code": "10003", "cuisineType": "french", "insertedAtTimestamp": "2022-10-19 21:21:21.825394"}, {"businessID": "srhEv1OqoK9W5JRdiMWDyw", "name": "Ayza Wine & Chocolate Bar", "address": "11 W 31st St, New York, NY 10001", "coordinates": "40.7471774721074,-73.987011312828", "rating": 4.0, "review_count": 2043, "zip_code": "10001", "cuisineType": "french", "insertedAtTimestamp": "2022-10-19 21:21:22.064962"}, {"businessID": "VqnPcfqYltgxAkIuTaGkYg", "name": "Tre", "address": "173 Ludlow St, New York, NY 10002", "coordinates": "40.72184,-73.987714", "rating": 4.0, "review_count": 511, "zip_code": "10002", "cuisineType": "french", "insertedAtTimestamp": "2022-10-19 21:21:22.253001"}, {"businessID": "Ih7hLJl-UiGSrBEI3A12gA", "name": "Le Charlot", "address": "19 E 69th St, New York, NY 10021", "coordinates": "40.7697443505402,-73.966497", "rating": 3.0, "review_count": 135, "zip_code": "10021", "cuisineType": "french", "insertedAtTimestamp": "2022-10-19 21:21:22.494465"}, {"businessID": "OwcGML0xYT-t4vmMthgOkA", "name": "Match 65 Brasserie", "address": "29 E 65th St, New York, NY 10065", "coordinates": "40.7673434,-73.9682993", "rating": 3.5, "review_count": 255, "zip_code": "10065", "cuisineType": "french", "insertedAtTimestamp": "2022-10-19 21:21:22.679645"}, {"businessID": "kuSkLiSq9gHuytBBOOYeeQ", "name": "La Ripaille", "address": "605 Hudson St, New York, NY 10014", "coordinates": "40.73728,-74.00591", "rating": 4.0, "review_count": 134, "zip_code": "10014", "cuisineType": "french", "insertedAtTimestamp": "2022-10-19 21:21:22.878945"}, {"businessID": "XBWO26QblInZGftnSDD94A", "name": "Maman", "address": "211 W Broadway, New York, NY 10013", "coordinates": "40.7188969,-74.0062207", "rating": 4.0, "review_count": 331, "zip_code": "10013", "cuisineType": "french", "insertedAtTimestamp": "2022-10-19 21:21:23.075166"}, {"businessID": "zBButa4blgIhHru9B2qMrw", "name": "Caf\u00e9 Paulette", "address": "1 S Elliott Pl, Brooklyn, NY 11217", "coordinates": "40.6896094060701,-73.975917359407", "rating": 3.5, "review_count": 233, "zip_code": "11217", "cuisineType": "french", "insertedAtTimestamp": "2022-10-19 21:21:24.114655"}, {"businessID": "jqTCCgP1P0qv-ouHWynTjQ", "name": "Angelina", "address": "1050 6th Ave, New York, NY 10018", "coordinates": "40.75316,-73.98491", "rating": 3.5, "review_count": 331, "zip_code": "10018", "cuisineType": "french", "insertedAtTimestamp": "2022-10-19 21:21:24.334509"}, {"businessID": "mxDfu4bHwSXoCr3FRpyMsw", "name": "L'Antagoniste", "address": "238 Malcolm X Blvd, Brooklyn, NY 11221", "coordinates": "40.68501,-73.92961", "rating": 4.5, "review_count": 316, "zip_code": "11221", "cuisineType": "french", "insertedAtTimestamp": "2022-10-19 21:21:24.569374"}, {"businessID": "uA0ua1WnE43E0PrQxni65g", "name": "Poulette Rotisserie", "address": "790 9th Ave, New York, NY 10019", "coordinates": "40.7648963928223,-73.9875030517578", "rating": 4.0, "review_count": 187, "zip_code": "10019", "cuisineType": "french", "insertedAtTimestamp": "2022-10-19 21:21:25.072570"}, {"businessID": "UJDb0M1eF4KkxJdCTh67cw", "name": "Shun", "address": "610 Lexington Ave, New York, NY 10022", "coordinates": "40.7582033,-73.9713074", "rating": 4.5, "review_count": 52, "zip_code": "10022", "cuisineType": "french", "insertedAtTimestamp": "2022-10-19 21:21:25.310558"}, {"businessID": "K6ik5ceZaea55wXnmHWz0Q", "name": "Bliss 46 Bistro", "address": "43-46 46th St, Sunnyside, NY 11104", "coordinates": "40.743560749198224,-73.91874828398852", "rating": 4.0, "review_count": 231, "zip_code": "11104", "cuisineType": "french", "insertedAtTimestamp": "2022-10-19 21:21:25.570130"}, {"businessID": "hcGcjMrRcVSLzmBIsMIcwQ", "name": "Chez Les Frenchies", "address": "501 E 75th St, New York, NY 10021", "coordinates": "40.7687,-73.95182", "rating": 4.5, "review_count": 36, "zip_code": "10021", "cuisineType": "french", "insertedAtTimestamp": "2022-10-19 21:21:25.908897"}, {"businessID": "myYOl6CDu1fieWKxXn-1Og", "name": "Little Prince", "address": "199 Prince St, New York, NY 10012", "coordinates": "40.7267198,-74.0027459", "rating": 4.0, "review_count": 346, "zip_code": "10012", "cuisineType": "french", "insertedAtTimestamp": "2022-10-19 21:21:26.109304"}, {"businessID": "NIX9YFX1taOkm1J9IGuLqA", "name": "Bistrot Leo", "address": "60 Thompson St, New York, NY 10012", "coordinates": "40.724050209663815,-74.00322623068801", "rating": 3.5, "review_count": 99, "zip_code": "10012", "cuisineType": "french", "insertedAtTimestamp": "2022-10-19 21:21:26.326279"}, {"businessID": "YE4pvo8ectzEaRYGqUgFcA", "name": "Felice 64", "address": "1166 1st Ave, New York, NY 10065", "coordinates": "40.76256,-73.9596", "rating": 4.0, "review_count": 385, "zip_code": "10065", "cuisineType": "french", "insertedAtTimestamp": "2022-10-19 21:21:26.554020"}, {"businessID": "8BznEcBs3Wo-vhDM2FGOiQ", "name": "La Rotisserie du Coin", "address": "107-10 71st Rd, Forest Hills, NY 11375", "coordinates": "40.71997598356764,-73.8432860411044", "rating": 4.0, "review_count": 96, "zip_code": "11375", "cuisineType": "french", "insertedAtTimestamp": "2022-10-19 21:21:26.788209"}, {"businessID": "OsA5iRphHwPlYNhdddvBng", "name": "June", "address": "231 Court St, Brooklyn, NY 11201", "coordinates": "40.68606512542637,-73.99388911165558", "rating": 4.0, "review_count": 207, "zip_code": "11201", "cuisineType": "french", "insertedAtTimestamp": "2022-10-19 21:21:26.997707"}, {"businessID": "JbpjgLAk4DaP0zvY7dP9Hw", "name": "Elysian Cafe", "address": "1001 Washington St, Hoboken, NJ 07030", "coordinates": "40.7486464,-74.027349", "rating": 3.5, "review_count": 636, "zip_code": "07030", "cuisineType": "french", "insertedAtTimestamp": "2022-10-19 21:21:27.208577"}, {"businessID": "RKpp5WskkZmOjpJtRlbY9g", "name": "Poulette - Midtown East", "address": "304 E 49th St, New York, NY 10017", "coordinates": "40.75398,-73.96857", "rating": 4.0, "review_count": 77, "zip_code": "10017", "cuisineType": "french", "insertedAtTimestamp": "2022-10-19 21:21:27.554739"}, {"businessID": "M6Eiyx9LXMetMUxsYe-fvw", "name": "Ponty Bistro", "address": "2375 Adam Clayton Powell Blvd, New York, NY 10030", "coordinates": "40.8175925,-73.9412695", "rating": 4.0, "review_count": 468, "zip_code": "10030", "cuisineType": "french", "insertedAtTimestamp": "2022-10-19 21:21:27.774243"}, {"businessID": "diX-SHOYXgGzEEYMCLxaCw", "name": "Sixty Three Clinton", "address": "63 Clinton St, New York, NY 10002", "coordinates": "40.71946,-73.98498", "rating": 4.5, "review_count": 85, "zip_code": "10002", "cuisineType": "french", "insertedAtTimestamp": "2022-10-19 21:21:27.993617"}, {"businessID": "JU5d81TYm7IJHWqOqJWMqw", "name": "Have & Meyer", "address": "103 Havemeyer St, Brooklyn, NY 11211", "coordinates": "40.7132687751084,-73.9564743950496", "rating": 4.0, "review_count": 175, "zip_code": "11211", "cuisineType": "french", "insertedAtTimestamp": "2022-10-19 21:21:28.221227"}, {"businessID": "z8TIY5xLeQptbXxZp3LpsA", "name": "Felice 56", "address": "15 W 56th St, New York, NY 10019", "coordinates": "40.762862,-73.975396", "rating": 4.5, "review_count": 71, "zip_code": "10019", "cuisineType": "french", "insertedAtTimestamp": "2022-10-19 21:21:28.406456"}, {"businessID": "MXfDg1qs9h2254F-z2pQsg", "name": "Madame Bont\u00e9 Caf\u00e9", "address": "318 E 84th St, New York, NY 10028", "coordinates": "40.7761,-73.95185", "rating": 4.5, "review_count": 43, "zip_code": "10028", "cuisineType": "french", "insertedAtTimestamp": "2022-10-19 21:21:28.616029"}, {"businessID": "TNymQn5Fb0GobRGbax1vRQ", "name": "Pergola Des Artistes", "address": "252 W 46th St, New York, NY 10036", "coordinates": "40.75926,-73.98729", "rating": 3.5, "review_count": 120, "zip_code": "10036", "cuisineType": "french", "insertedAtTimestamp": "2022-10-19 21:21:28.825761"}, {"businessID": "FNxOWxts63oDRKwy9Pbfzw", "name": "Tarallucci E Vino - Nomad", "address": "44 E 28th St, New York, NY 10016", "coordinates": "40.74345604900017,-73.98470300895319", "rating": 4.0, "review_count": 193, "zip_code": "10016", "cuisineType": "french", "insertedAtTimestamp": "2022-10-19 21:21:29.031005"}, {"businessID": "43y93456fzLVTF7LdlZikw", "name": "La Boulangerie", "address": "109-01 72nd Rd, Forest Hills, NY 11375", "coordinates": "40.7191996169974,-73.8415304306788", "rating": 4.0, "review_count": 626, "zip_code": "11375", "cuisineType": "french", "insertedAtTimestamp": "2022-10-19 21:21:29.229585"}, {"businessID": "StF9WWWbrRzEOmNAcEINcA", "name": "Balzem", "address": "202 Mott St, New York, NY 10012", "coordinates": "40.72139,-73.99545", "rating": 4.0, "review_count": 501, "zip_code": "10012", "cuisineType": "french", "insertedAtTimestamp": "2022-10-19 21:21:29.430957"}, {"businessID": "uBGjcW-GuYy_qSvMykuISA", "name": "Pommes Frites", "address": "128 Macdougal St, New York, NY 10012", "coordinates": "40.730022,-74.000152", "rating": 4.5, "review_count": 1072, "zip_code": "10012", "cuisineType": "french", "insertedAtTimestamp": "2022-10-19 21:21:29.656982"}, {"businessID": "RyVOeKAWLT2srJqpGNFHXw", "name": "Cafe Le Mistral", "address": "330 5th St, Brooklyn, NY 11215", "coordinates": "40.671555,-73.984566", "rating": 4.0, "review_count": 105, "zip_code": "11215", "cuisineType": "french", "insertedAtTimestamp": "2022-10-19 21:21:29.861614"}, {"businessID": "FON3TceJNsTC0I0mzBwOKg", "name": "Fig & Olive", "address": "10 E 52nd St, New York, NY 10022", "coordinates": "40.75938,-73.97558", "rating": 3.5, "review_count": 1222, "zip_code": "10022", "cuisineType": "french", "insertedAtTimestamp": "2022-10-19 21:21:30.113863"}, {"businessID": "iV5yy8EbjsPoYWtjRhB61Q", "name": "Nica Trattoria", "address": "354 E 84th St, New York, NY 10028", "coordinates": "40.7756431,-73.950783", "rating": 4.5, "review_count": 151, "zip_code": "10028", "cuisineType": "french", "insertedAtTimestamp": "2022-10-19 21:21:30.319623"}, {"businessID": "6o0ik4agLEB0mlDlkPVprA", "name": "Wine Escape", "address": "405 W 44th St, New York, NY 10036", "coordinates": "40.760139,-73.99205", "rating": 4.5, "review_count": 215, "zip_code": "10036", "cuisineType": "french", "insertedAtTimestamp": "2022-10-19 21:21:30.535063"}, {"businessID": "RdjykuwofIdvPTwohJeulw", "name": "Maman", "address": "12 W 48th St, New York, NY 10036", "coordinates": "40.75754502006123,-73.9791089", "rating": 3.5, "review_count": 83, "zip_code": "10036", "cuisineType": "french", "insertedAtTimestamp": "2022-10-19 21:21:30.751035"}, {"businessID": "CAjV0WZ--OxkepK2CIDBBA", "name": "Fleming by Le Bilboquet", "address": "27 E 62nd St, New York, NY 10065", "coordinates": "40.7653496594521,-73.9698017113384", "rating": 3.5, "review_count": 17, "zip_code": "10065", "cuisineType": "french", "insertedAtTimestamp": "2022-10-19 21:21:30.973376"}, {"businessID": "jeJfYLekXo3yxUpDfNukyQ", "name": "Cafe Matisse", "address": "167 Park Ave, Rutherford, NJ 07070", "coordinates": "40.82503,-74.10933", "rating": 4.5, "review_count": 415, "zip_code": "07070", "cuisineType": "french", "insertedAtTimestamp": "2022-10-19 21:21:31.140456"}, {"businessID": "g3jNtkQZVZrrC823oBxdtg", "name": "Lafayette Grand Caf\u00e9 & Bakery", "address": "380 Lafayette St, New York, NY 10003", "coordinates": "40.727617,-73.993464", "rating": 3.5, "review_count": 1145, "zip_code": "10003", "cuisineType": "french", "insertedAtTimestamp": "2022-10-19 21:21:31.352667"}, {"businessID": "iMVaP0rVsQgpvHcASEB8ew", "name": "Lena West village ", "address": "10 Morton St, Manhattan, NY 10014", "coordinates": "40.731268662277984,-74.00359908613547", "rating": 4.5, "review_count": 18, "zip_code": "10014", "cuisineType": "french", "insertedAtTimestamp": "2022-10-19 21:21:31.577805"}, {"businessID": "562aZEpTDdYKDe5hWuDyFA", "name": "La Gioconda", "address": "226 E 53rd St, New York, NY 10022", "coordinates": "40.75716,-73.96833", "rating": 4.0, "review_count": 186, "zip_code": "10022", "cuisineType": "french", "insertedAtTimestamp": "2022-10-19 21:21:31.762754"}, {"businessID": "9BzRiWO6PSdR-l3dzCm3VA", "name": "Buceo 95", "address": "201 W 95th St, New York, NY 10025", "coordinates": "40.793613,-73.971112", "rating": 4.0, "review_count": 471, "zip_code": "10025", "cuisineType": "french", "insertedAtTimestamp": "2022-10-19 21:21:31.951914"}, {"businessID": "E2gIY7uWsmvpcUKItVOJoA", "name": "Vanguard Wine Bar", "address": "1372 1st Ave, New York, NY 10021", "coordinates": "40.76854110588842,-73.95510188318822", "rating": 4.0, "review_count": 54, "zip_code": "10021", "cuisineType": "french", "insertedAtTimestamp": "2022-10-19 21:21:32.203219"}, {"businessID": "cRmRAl5HHJcysKBSrHivHA", "name": "Lamano Chelsea", "address": "265 W 20th St, New York, NY 10011", "coordinates": "40.7433797337789,-73.9994259551167", "rating": 4.0, "review_count": 119, "zip_code": "10011", "cuisineType": "french", "insertedAtTimestamp": "2022-10-19 21:21:32.407015"}, {"businessID": "PszZvrDqzgPpl6SQuk3K9Q", "name": "Endswell Bar & Bistro", "address": "773 Fulton St, Brooklyn, NY 11217", "coordinates": "40.68618,-73.97377", "rating": 4.5, "review_count": 108, "zip_code": "11217", "cuisineType": "french", "insertedAtTimestamp": "2022-10-19 21:21:32.693279"}, {"businessID": "TOlIQbDBIHq_or6JcXx4ZQ", "name": "Sauced", "address": "331 Bedford Ave, Brooklyn, NY 11211", "coordinates": "40.7126701394003,-73.9623194526208", "rating": 4.0, "review_count": 47, "zip_code": "11211", "cuisineType": "french", "insertedAtTimestamp": "2022-10-19 21:21:33.789997"}, {"businessID": "E5rmVdrCn-0uwD2M9nkXdw", "name": "Da Capo", "address": "1392 Madison Ave, New York, NY 10029", "coordinates": "40.7877696714384,-73.9538384601474", "rating": 4.5, "review_count": 218, "zip_code": "10029", "cuisineType": "french", "insertedAtTimestamp": "2022-10-19 21:21:33.980188"}, {"businessID": "k9i7G5WBJV-ohHyvHP7FAg", "name": "Danubius Restaurant", "address": "47-57 41st St, Sunnyside, NY 11104", "coordinates": "40.740360159934376,-73.92383323150537", "rating": 4.5, "review_count": 16, "zip_code": "11104", "cuisineType": "french", "insertedAtTimestamp": "2022-10-19 21:21:34.158994"}, {"businessID": "WA6HwJ3UlGWWCeJdOTlLWw", "name": "The Pandering Pig", "address": "209 Pinehurst Ave, New York, NY 10033", "coordinates": "40.855144,-73.937599", "rating": 4.0, "review_count": 128, "zip_code": "10033", "cuisineType": "french", "insertedAtTimestamp": "2022-10-19 21:21:34.360682"}, {"businessID": "FXYsBqMu2q1dhJYQg_FfAA", "name": "Rosemary\u2019s", "address": "350 1st Ave, New York, NY 10010", "coordinates": "40.73512,-73.97965", "rating": 4.0, "review_count": 173, "zip_code": "10010", "cuisineType": "french", "insertedAtTimestamp": "2022-10-19 21:21:34.554631"}, {"businessID": "3D6UAhoKnF3A03rX_v5ngA", "name": "Bacaro", "address": "136 Division St, New York, NY 10002", "coordinates": "40.71456,-73.99154", "rating": 4.0, "review_count": 421, "zip_code": "10002", "cuisineType": "french", "insertedAtTimestamp": "2022-10-19 21:21:34.760731"}, {"businessID": "9V0u-hctFSqJf6lHZra_QA", "name": "La Bouche", "address": "207 Washington St, Hoboken, NJ 07030", "coordinates": "40.7389977,-74.030226", "rating": 3.5, "review_count": 235, "zip_code": "07030", "cuisineType": "french", "insertedAtTimestamp": "2022-10-19 21:21:34.952575"}, {"businessID": "MCnexHfsclcOpLHS4_2U0A", "name": "San Carlo Osteria Piemonte", "address": "90 Thompson St, New York, NY 10012", "coordinates": "40.72517,-74.00212", "rating": 4.5, "review_count": 265, "zip_code": "10012", "cuisineType": "french", "insertedAtTimestamp": "2022-10-19 21:21:35.197117"}, {"businessID": "h_qGWauoScc3tMBDBb-few", "name": "GAUDIr", "address": "251 E 110th St, New York, NY 10029", "coordinates": "40.79349,-73.941", "rating": 5.0, "review_count": 63, "zip_code": "10029", "cuisineType": "french", "insertedAtTimestamp": "2022-10-19 21:21:35.410734"}, {"businessID": "AZSC48kTDCRU1CqxdE04Kg", "name": "Dizzy's Club", "address": "10 Columbus Cir, 5th Fl of Jazz at Lincoln Center, Frederick P Rose Hall, New York, NY 10019", "coordinates": "40.7686020583993,-73.9830386638641", "rating": 4.0, "review_count": 390, "zip_code": "10019", "cuisineType": "french", "insertedAtTimestamp": "2022-10-19 21:21:35.647196"}, {"businessID": "2BRJP7YeiNuWSwyn2TdAoA", "name": "Kafana", "address": "116 Ave C, New York, NY 10009", "coordinates": "40.72432,-73.97851", "rating": 4.0, "review_count": 433, "zip_code": "10009", "cuisineType": "french", "insertedAtTimestamp": "2022-10-19 21:21:35.857708"}, {"businessID": "8meCFIM2dRUffcvuCqUv5A", "name": "Plein Air", "address": "68-38 Forest Ave, Ridgewood, NY 11385", "coordinates": "40.70259,-73.90122", "rating": 4.5, "review_count": 23, "zip_code": "11385", "cuisineType": "french", "insertedAtTimestamp": "2022-10-19 21:21:36.257846"}, {"businessID": "M85t-iOAbMpO9mVIKAgwMw", "name": "Le Garage", "address": "157 Suydam St, Brooklyn, NY 11221", "coordinates": "40.6993863968861,-73.9265948743181", "rating": 4.0, "review_count": 178, "zip_code": "11221", "cuisineType": "french", "insertedAtTimestamp": "2022-10-19 21:21:36.559247"}, {"businessID": "I6Wg1NFYAAVzM2OpsdqcXA", "name": "Grand Vin", "address": "500 Grand St, Hoboken, NJ 07030", "coordinates": "40.74331,-74.03517", "rating": 4.0, "review_count": 523, "zip_code": "07030", "cuisineType": "french", "insertedAtTimestamp": "2022-10-19 21:21:36.756519"}, {"businessID": "LJfveecaTYurCxv1Al9iFw", "name": "Bar Six", "address": "502 Ave Of The Americas, New York, NY 10011", "coordinates": "40.736389,-73.997146", "rating": 3.5, "review_count": 251, "zip_code": "10011", "cuisineType": "french", "insertedAtTimestamp": "2022-10-19 21:21:36.978362"}, {"businessID": "fVslDZ8dGsVmcRhS0R0kFg", "name": "Huertas", "address": "107 1st Ave, New York, NY 10003", "coordinates": "40.726856,-73.986251", "rating": 4.0, "review_count": 338, "zip_code": "10003", "cuisineType": "french", "insertedAtTimestamp": "2022-10-19 21:21:37.195610"}, {"businessID": "JwPVO6qcRgtqSTEFdfz4TA", "name": "Sylla", "address": "1666 Park Ave, New York, NY 10035", "coordinates": "40.80035,-73.94279", "rating": 5.0, "review_count": 2, "zip_code": "10035", "cuisineType": "french", "insertedAtTimestamp": "2022-10-19 21:21:37.390661"}, {"businessID": "mCxVAHNCDmWQw7ONts8PSw", "name": "Dubrovnik Restaurant", "address": "721 Main St, New Rochelle, NY 10801", "coordinates": "40.903654,-73.789276", "rating": 4.5, "review_count": 283, "zip_code": "10801", "cuisineType": "french", "insertedAtTimestamp": "2022-10-19 21:21:37.620108"}, {"businessID": "lQ8qDNaTPnewJt6xwG__gQ", "name": "Leland Eating and Drinking House ", "address": "755 Dean St, Brooklyn, NY 11238", "coordinates": "40.679822105618534,-73.96511882543564", "rating": 4.5, "review_count": 53, "zip_code": "11238", "cuisineType": "french", "insertedAtTimestamp": "2022-10-19 21:21:37.909470"}, {"businessID": "vegSCksJy6SI8WUGttLH-w", "name": "Fradei Bistro", "address": "99 South Portland Ave, Brooklyn, NY 11217", "coordinates": "40.686579,-73.974191", "rating": 4.0, "review_count": 59, "zip_code": "11217", "cuisineType": "french", "insertedAtTimestamp": "2022-10-19 21:21:38.142236"}, {"businessID": "3PabSEZ2ESexVFZznyozVw", "name": "Delice & Sarrasin", "address": "20 Christopher St, New York, NY 10014", "coordinates": "40.73377,-74.00065", "rating": 4.0, "review_count": 503, "zip_code": "10014", "cuisineType": "french", "insertedAtTimestamp": "2022-10-19 21:21:38.375849"}, {"businessID": "f6T-6GqekmmfXRwzr_W4aQ", "name": "Le Club New York", "address": "85 10th Ave, New York, NY 10011", "coordinates": "40.74303,-74.00779", "rating": 5.0, "review_count": 1, "zip_code": "10011", "cuisineType": "french", "insertedAtTimestamp": "2022-10-19 21:21:38.627504"}, {"businessID": "w_9Z79bTe2_cmbbohrWPHQ", "name": "Skin Contact", "address": "76 Orchard St, New York, NY 10002", "coordinates": "40.717668,-73.990224", "rating": 4.5, "review_count": 36, "zip_code": "10002", "cuisineType": "french", "insertedAtTimestamp": "2022-10-19 21:21:38.843936"}, {"businessID": "5IGFJRN06HiclnivxaFThQ", "name": "El Pote Espa\u00f1ol Restaurant", "address": "718 2nd Ave, New York, NY 10016", "coordinates": "40.74754,-73.9735", "rating": 4.0, "review_count": 208, "zip_code": "10016", "cuisineType": "french", "insertedAtTimestamp": "2022-10-19 21:21:39.024281"}, {"businessID": "71HLFDV5yIX8l7WqP7Km5g", "name": "Westlight", "address": "111 N 12th St, Brooklyn, NY 11249", "coordinates": "40.722299,-73.956691", "rating": 3.5, "review_count": 711, "zip_code": "11249", "cuisineType": "french", "insertedAtTimestamp": "2022-10-19 21:21:39.261353"}, {"businessID": "bjzBkF2FFMsdkCk50xseFQ", "name": "Etcetera Etcetera", "address": "352 W 44th St, New York, NY 10036", "coordinates": "40.75926,-73.99115", "rating": 4.0, "review_count": 480, "zip_code": "10036", "cuisineType": "french", "insertedAtTimestamp": "2022-10-19 21:21:39.469546"}, {"businessID": "dvkQIG20RjgNi-SwRr_1CQ", "name": "MAMO Restaurant", "address": "323 W Broadway, New York, NY 10013", "coordinates": "40.72186,-74.00382", "rating": 4.0, "review_count": 324, "zip_code": "10013", "cuisineType": "french", "insertedAtTimestamp": "2022-10-19 21:21:39.685293"}, {"businessID": "w7pT9wF_0SOEatSpeaFwkQ", "name": "T Brasserie", "address": "96 South St, New York, NY 10038", "coordinates": "40.7066059745047,-74.00266169999999", "rating": 3.0, "review_count": 6, "zip_code": "10038", "cuisineType": "french", "insertedAtTimestamp": "2022-10-19 21:21:39.878554"}, {"businessID": "0FaLilJs2VN83hOEBcBnPg", "name": "Au Za'atar", "address": "188 Avenue A, New York, NY 10009", "coordinates": "40.728901,-73.981185", "rating": 4.0, "review_count": 1409, "zip_code": "10009", "cuisineType": "french", "insertedAtTimestamp": "2022-10-19 21:21:40.074170"}, {"businessID": "TCJrcryBkI6eg2HYThoiKg", "name": "Petite Crevette", "address": "144 Union St, Brooklyn, NY 11231", "coordinates": "40.68396014724072,-74.00180035145536", "rating": 4.0, "review_count": 339, "zip_code": "11231", "cuisineType": "french", "insertedAtTimestamp": "2022-10-19 21:21:40.297998"}, {"businessID": "ByIhI19_bVFl5koNk0ylpw", "name": "Tartinery", "address": "10 Columbus Cir, Fl 3, New York, NY 10019", "coordinates": "40.768494,-73.983072", "rating": 3.5, "review_count": 45, "zip_code": "10019", "cuisineType": "french", "insertedAtTimestamp": "2022-10-19 21:21:40.516598"}, {"businessID": "y5b85IZGLxNdksDBFm1GBw", "name": "Gene's Restaurant", "address": "73 W 11th St, New York, NY 10011", "coordinates": "40.735408782959,-73.9977264404297", "rating": 4.0, "review_count": 96, "zip_code": "10011", "cuisineType": "french", "insertedAtTimestamp": "2022-10-19 21:21:40.710640"}, {"businessID": "wpye6v-2fIx7Z2Sz12XubA", "name": "Barawine", "address": "200 Lenox Ave, New York, NY 10027", "coordinates": "40.8045311,-73.9473801", "rating": 3.5, "review_count": 369, "zip_code": "10027", "cuisineType": "french", "insertedAtTimestamp": "2022-10-19 21:21:40.918488"}, {"businessID": "jzN5KHYtrM2rh58iHGVuVA", "name": "Levant on Smith", "address": "223 Smith St, Brooklyn, NY 11201", "coordinates": "40.68424,-73.99201", "rating": 4.0, "review_count": 52, "zip_code": "11201", "cuisineType": "french", "insertedAtTimestamp": "2022-10-19 21:21:41.157586"}, {"businessID": "78TCGIG1eHMYdyvMpFdDbQ", "name": "Follia", "address": "179 3rd Ave, New York, NY 10003", "coordinates": "40.7349243164062,-73.9855880737305", "rating": 4.0, "review_count": 259, "zip_code": "10003", "cuisineType": "french", "insertedAtTimestamp": "2022-10-19 21:21:41.370745"}, {"businessID": "THvj8ivYzVh0fAOePxdclA", "name": "Kaskade", "address": "123 Greenpoint Ave, New York, NY 11222", "coordinates": "40.73023,-73.95518", "rating": 4.5, "review_count": 30, "zip_code": "11222", "cuisineType": "french", "insertedAtTimestamp": "2022-10-19 21:21:41.581444"}, {"businessID": "kr9FFwsZ0uNxNEJTfHu3_g", "name": "Murals On 54", "address": "65 W 54th St, New York, NY 10019", "coordinates": "40.7624022,-73.9782725", "rating": 2.5, "review_count": 28, "zip_code": "10019", "cuisineType": "french", "insertedAtTimestamp": "2022-10-19 21:21:42.656735"}, {"businessID": "rVJ57CwEcucZg1k_y8u3Rg", "name": "Patisserie Fouet", "address": "15 E 13th St, New York, NY 10003", "coordinates": "40.735034,-73.993047", "rating": 4.5, "review_count": 362, "zip_code": "10003", "cuisineType": "french", "insertedAtTimestamp": "2022-10-19 21:21:42.867365"}, {"businessID": "KXhxtA_JDkCrujeyXvqsgQ", "name": "Canto", "address": "117 Perry St, New York, NY 10014", "coordinates": "40.73512,-74.00671", "rating": 4.5, "review_count": 98, "zip_code": "10014", "cuisineType": "french", "insertedAtTimestamp": "2022-10-19 21:21:43.128801"}, {"businessID": "Oz98C9STC5axnUJgZP4tgA", "name": "White Radish", "address": "108-25 Ascan Ave, Forest Hills, NY 11375", "coordinates": "40.718172,-73.840906", "rating": 4.0, "review_count": 143, "zip_code": "11375", "cuisineType": "french", "insertedAtTimestamp": "2022-10-19 21:21:43.327451"}, {"businessID": "XVMzBs7wGeU5BWgyBL3xyQ", "name": "Ardesia Wine Bar", "address": "510 W 52nd St, New York, NY 10019", "coordinates": "40.7660831005947,-73.9914581179619", "rating": 4.0, "review_count": 403, "zip_code": "10019", "cuisineType": "french", "insertedAtTimestamp": "2022-10-19 21:21:43.502515"}, {"businessID": "Om6KGbN524K6pu9IkPT0Rg", "name": "Maite", "address": "159 Central Ave, Brooklyn, NY 11221", "coordinates": "40.69924,-73.926797", "rating": 4.0, "review_count": 212, "zip_code": "11221", "cuisineType": "french", "insertedAtTimestamp": "2022-10-19 21:21:43.743938"}, {"businessID": "afbl_jCNpomzJiDBdomb6g", "name": "Oceans New York", "address": "233 Park Ave S, New York, NY 10003", "coordinates": "40.737408,-73.987887", "rating": 4.5, "review_count": 158, "zip_code": "10003", "cuisineType": "french", "insertedAtTimestamp": "2022-10-19 21:21:44.001115"}, {"businessID": "KCBfW6sWl9Gx-LvMff08jg", "name": "Osteria Morini", "address": "218 Lafayette St, New York, NY 10012", "coordinates": "40.7219179851303,-73.9976472073402", "rating": 4.0, "review_count": 1260, "zip_code": "10012", "cuisineType": "french", "insertedAtTimestamp": "2022-10-19 21:21:44.292677"}, {"businessID": "3qf3FLXxVdX3Wz5F_rTeog", "name": "Bar Tabac", "address": "128 Smith St, Brooklyn, NY 11201", "coordinates": "40.68736766240864,-73.99028494341295", "rating": 3.5, "review_count": 623, "zip_code": "11201", "cuisineType": "french", "insertedAtTimestamp": "2022-10-19 21:21:44.531621"}, {"businessID": "ATQDTQu3SsCetuG-byzOFg", "name": "Cafe Gitane", "address": "70 Hudson Ave, Brooklyn, NY 11201", "coordinates": "40.7028272982236,-73.9812811999999", "rating": 4.0, "review_count": 29, "zip_code": "11201", "cuisineType": "french", "insertedAtTimestamp": "2022-10-19 21:21:44.747875"}, {"businessID": "0IRyJ0_FkSllp1nxYO06Qg", "name": "Babs", "address": "72 Macdougal St, New York, NY 10012", "coordinates": "40.728252213994,-74.0018033981323", "rating": 3.5, "review_count": 62, "zip_code": "10012", "cuisineType": "french", "insertedAtTimestamp": "2022-10-19 21:21:44.975384"}, {"businessID": "FeSynfcDT4qB2kDixHUQCA", "name": "Danji", "address": "346 W 52nd St, New York, NY 10019", "coordinates": "40.764,-73.98686", "rating": 4.0, "review_count": 1070, "zip_code": "10019", "cuisineType": "french", "insertedAtTimestamp": "2022-10-19 21:21:45.196623"}, {"businessID": "hkooeEkd3oPsLD6JJrYpjA", "name": "Caf\u00e9 Luce", "address": "235 E 53rd St, New York, NY 10022", "coordinates": "40.757323,-73.967928", "rating": 5.0, "review_count": 68, "zip_code": "10022", "cuisineType": "french", "insertedAtTimestamp": "2022-10-19 21:21:45.380661"}, {"businessID": "mv8dMMzzrzalso3sYCP_QA", "name": "CAF\u00c9 LULUc", "address": "214 Smith St, Brooklyn, NY 11201", "coordinates": "40.68451,-73.99225", "rating": 4.0, "review_count": 1575, "zip_code": "11201", "cuisineType": "french", "insertedAtTimestamp": "2022-10-19 21:21:45.628666"}, {"businessID": "cTE0e96GYzet799EJeStoQ", "name": "Chama Mama", "address": "149 W 14th St, New York, NY 10011", "coordinates": "40.7384,-73.99892", "rating": 4.5, "review_count": 557, "zip_code": "10011", "cuisineType": "french", "insertedAtTimestamp": "2022-10-19 21:21:45.914568"}, {"businessID": "RW-v9cm9rQZS9cSihuXfvw", "name": "Brandy Library", "address": "25 N Moore St, New York, NY 10013", "coordinates": "40.720073,-74.007227", "rating": 4.0, "review_count": 654, "zip_code": "10013", "cuisineType": "french", "insertedAtTimestamp": "2022-10-19 21:21:46.201342"}, {"businessID": "E2zKMwHhz4--dyplQ7gf8A", "name": "Pappardella", "address": "316 Columbus Ave, Ste 1, New York, NY 10023", "coordinates": "40.77940129780038,-73.97750031523518", "rating": 3.5, "review_count": 700, "zip_code": "10023", "cuisineType": "french", "insertedAtTimestamp": "2022-10-19 21:21:46.503498"}, {"businessID": "JNv9J5mn1JtzYqn_R2bFYA", "name": "Petit Paulette", "address": "136 Dekalb Ave, Brooklyn, NY 11217", "coordinates": "40.68961,-73.97579", "rating": 4.5, "review_count": 20, "zip_code": "11217", "cuisineType": "french", "insertedAtTimestamp": "2022-10-19 21:21:46.747950"}, {"businessID": "kq8kgjEVgDi6VBIKqUcZ9w", "name": "Vanguard", "address": "252 W 51st St, New York, NY 10019", "coordinates": "40.7626160764232,-73.9853272587061", "rating": 5.0, "review_count": 21, "zip_code": "10019", "cuisineType": "french", "insertedAtTimestamp": "2022-10-19 21:21:46.983718"}, {"businessID": "iDy3AXrzSV1QMKWGIOYgSw", "name": "La Branche Bistro & Caf\u00e9", "address": "194 Broadway, Bayonne, NJ 07002", "coordinates": "40.6528775194062,-74.1276292592593", "rating": 4.5, "review_count": 24, "zip_code": "07002", "cuisineType": "french", "insertedAtTimestamp": "2022-10-19 21:21:47.213279"}, {"businessID": "xR2Yeb_Nh0MOAiUIaqaVOg", "name": "Tavern 157", "address": "157-12 Northern Blvd, Flushing, NY 11354", "coordinates": "40.7634836392041,-73.807817278102", "rating": 4.5, "review_count": 486, "zip_code": "11354", "cuisineType": "french", "insertedAtTimestamp": "2022-10-19 21:21:47.386522"}, {"businessID": "ktMtLr8mp4K7IGxUgCTs6Q", "name": "Bocca di Bacco", "address": "635 9th Ave, New York, NY 10036", "coordinates": "40.76021745303923,-73.99156281784906", "rating": 4.5, "review_count": 5, "zip_code": "10036", "cuisineType": "french", "insertedAtTimestamp": "2022-10-19 21:21:47.586644"}, {"businessID": "gvMYV5E3HyzhN_MYFIMGzg", "name": "El Born", "address": "651 Manhattan Ave, Brooklyn, NY 11222", "coordinates": "40.7243479163883,-73.9512226101037", "rating": 4.5, "review_count": 387, "zip_code": "11222", "cuisineType": "french", "insertedAtTimestamp": "2022-10-19 21:21:47.853274"}, {"businessID": "jva4AMX7zRkNsY3DKX9LlQ", "name": "Harajuku Sushi and Crepe", "address": "New York, NY 10001", "coordinates": "40.7491302490234,-73.9923629760742", "rating": 5.0, "review_count": 14, "zip_code": "10001", "cuisineType": "french", "insertedAtTimestamp": "2022-10-19 21:21:48.206738"}, {"businessID": "RrYu2qflS9MkK8U8kwbBXg", "name": "Flute Midtown", "address": "205 W 54th St, New York, NY 10019", "coordinates": "40.76393,-73.98197", "rating": 3.5, "review_count": 300, "zip_code": "10019", "cuisineType": "french", "insertedAtTimestamp": "2022-10-19 21:21:48.439385"}, {"businessID": "ui4Hhq2duXIZLuzev9531g", "name": "Otway", "address": "930 Fulton St, Brooklyn, NY 11238", "coordinates": "40.68274,-73.96388", "rating": 4.0, "review_count": 103, "zip_code": "11238", "cuisineType": "french", "insertedAtTimestamp": "2022-10-19 21:21:48.677497"}, {"businessID": "CaYvCcWDITsD0J_4NL2TFg", "name": "Porcelain", "address": "880 Woodward Ave, Ridgewood, NY 11385", "coordinates": "40.702315,-73.901679", "rating": 4.5, "review_count": 47, "zip_code": "11385", "cuisineType": "french", "insertedAtTimestamp": "2022-10-19 21:21:48.993572"}, {"businessID": "WI_AYZSW8ds1GjFq3PQJRA", "name": "Satis Bistro", "address": "212 Washington St, Jersey City, NJ 07302", "coordinates": "40.7144521915461,-74.037669933778", "rating": 4.0, "review_count": 744, "zip_code": "07302", "cuisineType": "french", "insertedAtTimestamp": "2022-10-19 21:21:49.223369"}, {"businessID": "T-RXDLq_VEv7s1_SooYIYQ", "name": "Osteria 57", "address": "57 W 10th St, New York, NY 10011", "coordinates": "40.73467,-73.99786", "rating": 4.5, "review_count": 267, "zip_code": "10011", "cuisineType": "french", "insertedAtTimestamp": "2022-10-19 21:21:49.468904"}, {"businessID": "m1cJLpDN4B-_0hGgPfe5OA", "name": "Salt + Charcoal", "address": "171 Grand St, Brooklyn, NY 11249", "coordinates": "40.71453,-73.9613511", "rating": 4.0, "review_count": 681, "zip_code": "11249", "cuisineType": "french", "insertedAtTimestamp": "2022-10-19 21:21:49.689859"}, {"businessID": "5Vzj1puJsudW6RGI6B76SA", "name": "L'atelier Gourmand", "address": "Avenue Deloffre, Manhattan, NY 10069", "coordinates": "40.7147400000155,-73.9461399997206", "rating": 4.0, "review_count": 1, "zip_code": "10069", "cuisineType": "french", "insertedAtTimestamp": "2022-10-19 21:21:49.892193"}, {"businessID": "t3WXZ8U6espLzY5YQ1Ocsg", "name": "Cello Wine & Cocktail Bistro", "address": "226 E 53rd St, New York, NY 10022", "coordinates": "40.7570686,-73.9684187", "rating": 4.0, "review_count": 207, "zip_code": "10022", "cuisineType": "french", "insertedAtTimestamp": "2022-10-19 21:21:50.154295"}, {"businessID": "EP4joK7HT-AdSJvas1hIzg", "name": "Corner Bar", "address": "60 Canal St, New York, NY 10002", "coordinates": "40.71492731897193,-73.9922917140167", "rating": 3.5, "review_count": 17, "zip_code": "10002", "cuisineType": "french", "insertedAtTimestamp": "2022-10-19 21:21:50.379802"}, {"businessID": "TN1dGAwvNevkzXfL0sU41A", "name": "BLVD Wine Bar", "address": "4720 Center Blvd, Long Island City, NY 11109", "coordinates": "40.74596,-73.9575", "rating": 4.0, "review_count": 178, "zip_code": "11109", "cuisineType": "french", "insertedAtTimestamp": "2022-10-19 21:21:50.574126"}, {"businessID": "TdUhTJ7hCt0uANqHIcltOA", "name": "Olivier Bistro", "address": "469 4th Ave, Brooklyn, NY 11215", "coordinates": "40.6688499963761,-73.9896939343586", "rating": 4.0, "review_count": 359, "zip_code": "11215", "cuisineType": "french", "insertedAtTimestamp": "2022-10-19 21:21:50.793920"}, {"businessID": "_KIjhnsaui-wF9OePRZ5NA", "name": "Gottino Enoteca e Salumeria", "address": "52 Greenwich Ave, New York, NY 10011", "coordinates": "40.7358,-74.00036", "rating": 4.0, "review_count": 313, "zip_code": "10011", "cuisineType": "french", "insertedAtTimestamp": "2022-10-19 21:21:51.026735"}, {"businessID": "R15b1EaOvR3xe9xLacMJdg", "name": "DB Bistro Moderne", "address": "55 W 44th St, Ste 1, New York, NY 10036", "coordinates": "40.75588924800012,-73.98219940123487", "rating": 3.5, "review_count": 710, "zip_code": "10036", "cuisineType": "french", "insertedAtTimestamp": "2022-10-19 21:21:51.263170"}, {"businessID": "nBy8KtcUHktPFKw-VClG1A", "name": "La Pecora Bianca", "address": "950 2nd Ave, New York, NY 10022", "coordinates": "40.75495,-73.9682718", "rating": 3.5, "review_count": 349, "zip_code": "10022", "cuisineType": "french", "insertedAtTimestamp": "2022-10-19 21:21:51.440449"}, {"businessID": "e4YHihk1HFJ1EB7oD7dKDw", "name": "Sel et Poivre", "address": "853 Lexington Ave, New York, NY 10065", "coordinates": "40.765595,-73.965433", "rating": 3.5, "review_count": 151, "zip_code": "10065", "cuisineType": "french", "insertedAtTimestamp": "2022-10-19 21:21:51.631829"}, {"businessID": "8TEx2Za-zM_pP5MU1t8HxQ", "name": "Arte Cafe", "address": "106 W 73rd St, New York, NY 10023", "coordinates": "40.778494,-73.978869", "rating": 3.0, "review_count": 706, "zip_code": "10023", "cuisineType": "french", "insertedAtTimestamp": "2022-10-19 21:21:51.840790"}, {"businessID": "zV5u8sr2u9x_oxq7BNuKKw", "name": "Le Marais", "address": "150 W 46th St, New York, NY 10036", "coordinates": "40.758,-73.98429", "rating": 3.0, "review_count": 326, "zip_code": "10036", "cuisineType": "french", "insertedAtTimestamp": "2022-10-19 21:21:53.150106"}, {"businessID": "PsKVwP5k5G1-o0r-m2Fx2A", "name": "A Taste Of Magic", "address": "733 9th Ave, Gossip Restaurant, Manhattan, NY 10019", "coordinates": "40.76337,-73.989431", "rating": 4.5, "review_count": 73, "zip_code": "10019", "cuisineType": "french", "insertedAtTimestamp": "2022-10-19 21:21:53.371307"}, {"businessID": "tV2IY8q92bOEwVC4McgPjw", "name": "Wallse", "address": "344 W 11th St, New York, NY 10014", "coordinates": "40.7354552762594,-74.0082208400924", "rating": 4.0, "review_count": 348, "zip_code": "10014", "cuisineType": "french", "insertedAtTimestamp": "2022-10-19 21:21:53.614162"}, {"businessID": "giL47kf_ln3aqJNWhGuNCA", "name": "Pinky's Space", "address": "70 E 1st St, New York, NY 10003", "coordinates": "40.72355,-73.98879", "rating": 4.5, "review_count": 15, "zip_code": "10003", "cuisineType": "french", "insertedAtTimestamp": "2022-10-19 21:21:54.051412"}, {"businessID": "H-6xYovzB8AKZb14bmYnWg", "name": "Bistro La Source", "address": "85 Morris St, Jersey City, NJ 07302", "coordinates": "40.71365,-74.03773", "rating": 3.5, "review_count": 367, "zip_code": "07302", "cuisineType": "french", "insertedAtTimestamp": "2022-10-19 21:21:54.241633"}, {"businessID": "hAmf5Tfs0OhllZHAmO-12g", "name": "Tartinery Hudson Eats", "address": "225 Liberty St, New York, NY 10281", "coordinates": "40.712338,-74.01588", "rating": 4.0, "review_count": 379, "zip_code": "10281", "cuisineType": "french", "insertedAtTimestamp": "2022-10-19 21:21:54.461525"}, {"businessID": "Ty1MvJz88DeNmX0eDHeMyQ", "name": "Pietro's", "address": "232 E 43rd St, New York, NY 10017", "coordinates": "40.7506055,-73.9721964", "rating": 4.0, "review_count": 132, "zip_code": "10017", "cuisineType": "french", "insertedAtTimestamp": "2022-10-19 21:21:54.741718"}, {"businessID": "uzEhT55QIdk9YbfFwmlRzQ", "name": "Altesi Ristorante", "address": "26 E 64th St, New York, NY 10065", "coordinates": "40.76667,-73.96959", "rating": 3.5, "review_count": 79, "zip_code": "10065", "cuisineType": "french", "insertedAtTimestamp": "2022-10-19 21:21:54.942028"}, {"businessID": "goqTQ4tOD-asC_ZJBW9l7w", "name": "Patsy's Italian Restaurant", "address": "236 W 56th St, New York, NY 10019", "coordinates": "40.76553,-73.98274", "rating": 4.0, "review_count": 1045, "zip_code": "10019", "cuisineType": "french", "insertedAtTimestamp": "2022-10-19 21:21:55.299114"}, {"businessID": "Lrob6V2y76p-hab8OSpxPw", "name": "The Petrie Court Caf\u00e9", "address": "1000 5th Ave, New York, NY 10028", "coordinates": "40.779108630404,-73.9643118198517", "rating": 2.5, "review_count": 102, "zip_code": "10028", "cuisineType": "french", "insertedAtTimestamp": "2022-10-19 21:21:55.527015"}, {"businessID": "QUTSHrHw3qRZjf749VM1Yg", "name": "Serafina Osteria", "address": "38 E 58th St, New York, NY 10022", "coordinates": "40.76273,-73.97155", "rating": 3.5, "review_count": 147, "zip_code": "10022", "cuisineType": "french", "insertedAtTimestamp": "2022-10-19 21:21:55.747998"}, {"businessID": "jvuwuo6UWC5HtPRsFhm-iA", "name": "Les Trois Chevaux", "address": "283 W 12th St, New York, NY 10014", "coordinates": "40.73764,-74.00401", "rating": 2.5, "review_count": 29, "zip_code": "10014", "cuisineType": "french", "insertedAtTimestamp": "2022-10-19 21:21:55.974733"}, {"businessID": "HD0e3eHwv573qHZOJJitWg", "name": "Aurora Soho", "address": "510 Broome St, New York, NY 10013", "coordinates": "40.723543,-74.003199", "rating": 4.0, "review_count": 513, "zip_code": "10013", "cuisineType": "french", "insertedAtTimestamp": "2022-10-19 21:21:56.195105"}, {"businessID": "ArfL-sU2FaB73WV1qQ4c6Q", "name": "Simple Cafe & Restaurant", "address": "346 Bedford Ave, Brooklyn, NY 11249", "coordinates": "40.71244,-73.96275", "rating": 4.0, "review_count": 212, "zip_code": "11249", "cuisineType": "french", "insertedAtTimestamp": "2022-10-19 21:21:56.410005"}, {"businessID": "NmzDoAerQUdvMNT90gk4Xw", "name": "Addictive NYC", "address": "19 West 46th St, New York, NY 10036", "coordinates": "40.75655,-73.97996", "rating": 4.5, "review_count": 21, "zip_code": "10036", "cuisineType": "french", "insertedAtTimestamp": "2022-10-19 21:21:56.601998"}, {"businessID": "0j4yPmK9rOS52-mgKoq0Eg", "name": "Maison Yaki", "address": "626 Vanderbilt Ave, Brooklyn, NY 11238", "coordinates": "40.67749,-73.96913", "rating": 3.5, "review_count": 135, "zip_code": "11238", "cuisineType": "french", "insertedAtTimestamp": "2022-10-19 21:21:56.835080"}, {"businessID": "y_tRUBOu3qg7lkaO2Xk1hQ", "name": "Frost Restaurant", "address": "193 Frost St, Brooklyn, NY 11211", "coordinates": "40.7183945,-73.9434941", "rating": 4.0, "review_count": 182, "zip_code": "11211", "cuisineType": "french", "insertedAtTimestamp": "2022-10-19 21:21:57.048628"}, {"businessID": "OU0Ca9LtXllTDSKBCIgy6A", "name": "Stella & Fly", "address": "1705 1st Ave, New York, NY 10128", "coordinates": "40.77855,-73.94839", "rating": 4.5, "review_count": 134, "zip_code": "10128", "cuisineType": "french", "insertedAtTimestamp": "2022-10-19 21:21:57.245187"}, {"businessID": "TExzWoDwkeNYiDBgUiKi5A", "name": "Cafe Bubamara", "address": "263 Parker Ave, Clifton, NJ 07011", "coordinates": "40.87659,-74.1243", "rating": 4.5, "review_count": 450, "zip_code": "07011", "cuisineType": "french", "insertedAtTimestamp": "2022-10-19 21:21:57.491985"}, {"businessID": "ZZ-zJbCLfXCNXZgKq3Shcw", "name": "Two Crepes", "address": "4301 Park Ave, Union City, NJ 07087", "coordinates": "40.7759488964411,-74.019702449441", "rating": 4.0, "review_count": 82, "zip_code": "07087", "cuisineType": "french", "insertedAtTimestamp": "2022-10-19 21:21:57.726716"}, {"businessID": "8vDBwBThldNxqvQ7ur1Uzw", "name": "Risbo", "address": "701 Flatbush Ave, Brooklyn, NY 11225", "coordinates": "40.6560593,-73.9597273", "rating": 4.0, "review_count": 221, "zip_code": "11225", "cuisineType": "french", "insertedAtTimestamp": "2022-10-19 21:21:57.936358"}, {"businessID": "EsF2snil1ysNFXmxz2zTWA", "name": "Giovanni's Bicycle Club", "address": "487 Sylvan Ave, Englewood Cliffs, NJ 07632", "coordinates": "40.87934,-73.95134", "rating": 4.0, "review_count": 183, "zip_code": "07632", "cuisineType": "french", "insertedAtTimestamp": "2022-10-19 21:21:58.129695"}, {"businessID": "NNCpFCnTwMgKhA10lK_DzQ", "name": "Le Song", "address": "75 9th Ave, New York, NY 10011", "coordinates": "40.7424509,-74.0059581", "rating": 3.5, "review_count": 172, "zip_code": "10011", "cuisineType": "french", "insertedAtTimestamp": "2022-10-19 21:21:58.322691"}, {"businessID": "MdDj13LgIs0WdbIdiyqB7Q", "name": "Pinch Chinese", "address": "177 Prince St, New York, NY 10012", "coordinates": "40.72645222833495,-74.0017973317552", "rating": 4.0, "review_count": 432, "zip_code": "10012", "cuisineType": "french", "insertedAtTimestamp": "2022-10-19 21:21:58.610173"}, {"businessID": "urAFiOOP-QGzD8sUwFsb6g", "name": "Coast and Valley", "address": "587 Manhattan Ave, Brooklyn, NY 11222", "coordinates": "40.72288,-73.95039", "rating": 4.5, "review_count": 47, "zip_code": "11222", "cuisineType": "french", "insertedAtTimestamp": "2022-10-19 21:21:58.849331"}, {"businessID": "sulipN61P85ISTkV-bMeFA", "name": "Medieval Times Dinner & Tournament", "address": "149 Polito Ave, Lyndhurst, NJ 07071", "coordinates": "40.807265,-74.1069909", "rating": 4.0, "review_count": 811, "zip_code": "07071", "cuisineType": "french", "insertedAtTimestamp": "2022-10-19 21:21:59.086715"}, {"businessID": "9GBqbQ415CXaBa2gwHyFHQ", "name": "Sveta", "address": "64 Carmine St, New York, NY 10014", "coordinates": "40.72967,-74.00421", "rating": 4.5, "review_count": 213, "zip_code": "10014", "cuisineType": "french", "insertedAtTimestamp": "2022-10-19 21:21:59.332514"}, {"businessID": "r7z65v8cnBP0MhGP4oQ0bQ", "name": "Oda House", "address": "406 E 73rd St, New York, NY 10021", "coordinates": "40.768084,-73.954979", "rating": 4.0, "review_count": 206, "zip_code": "10021", "cuisineType": "french", "insertedAtTimestamp": "2022-10-19 21:21:59.552419"}, {"businessID": "GAvyDral555vltKrupUcjw", "name": "Osteria Laguna", "address": "209 E 42nd St, New York, NY 10017", "coordinates": "40.750656315963745,-73.97356620000002", "rating": 3.5, "review_count": 371, "zip_code": "10017", "cuisineType": "french", "insertedAtTimestamp": "2022-10-19 21:21:59.767382"}, {"businessID": "lvbhH1AR8KCUCkNtLFAA7A", "name": "The Immigrant", "address": "341 E 9th St, New York, NY 10003", "coordinates": "40.72862,-73.9853399", "rating": 4.0, "review_count": 393, "zip_code": "10003", "cuisineType": "french", "insertedAtTimestamp": "2022-10-19 21:21:59.963563"}, {"businessID": "eBljpfHpo3m6oc5SFw-mLw", "name": "Falansai", "address": "112 Harrison Pl, Brooklyn, NY 11237", "coordinates": "40.70676,-73.92877", "rating": 4.0, "review_count": 258, "zip_code": "11237", "cuisineType": "french", "insertedAtTimestamp": "2022-10-19 21:22:00.151374"}, {"businessID": "BgOcW8LyNE7gf6MsxV9oyQ", "name": "Black Mountain Wine House", "address": "415 Union St, Brooklyn, NY 11231", "coordinates": "40.68086,-73.99155", "rating": 4.5, "review_count": 246, "zip_code": "11231", "cuisineType": "french", "insertedAtTimestamp": "2022-10-19 21:22:00.345073"}, {"businessID": "Fl2z1edJw3MONc9rERWRMg", "name": "B2 Harlem", "address": "271 W 119th St, New York, NY 10026", "coordinates": "40.80613,-73.95317", "rating": 4.0, "review_count": 310, "zip_code": "10026", "cuisineType": "french", "insertedAtTimestamp": "2022-10-19 21:22:00.527360"}, {"businessID": "xMtNlXP6JlI08GwKOYSPTg", "name": "Eight And A Half Restaurant", "address": "9 W 57th St Lbby 1, New York, NY 10019", "coordinates": "40.7638,-73.97518", "rating": 4.5, "review_count": 2, "zip_code": "10019", "cuisineType": "french", "insertedAtTimestamp": "2022-10-19 21:22:00.748836"}, {"businessID": "XzrRw4d399gaCBuon1XwSw", "name": "Le Restaurant d'Alex", "address": "60 W 23rd St, New York, NY 10010", "coordinates": "40.74252,-73.9923", "rating": 5.0, "review_count": 1, "zip_code": "10010", "cuisineType": "french", "insertedAtTimestamp": "2022-10-19 21:22:00.983230"}, {"businessID": "sMDm_LwAvZd0w7NIpk8rZg", "name": "St. George Tavern", "address": "103 Washington St, New York, NY 10006", "coordinates": "40.70838,-74.01408", "rating": 3.5, "review_count": 119, "zip_code": "10006", "cuisineType": "french", "insertedAtTimestamp": "2022-10-19 21:22:01.193979"}, {"businessID": "escMR9M42UsHQIglAz1pJw", "name": "Bubba's Bistro", "address": "31-13 Ditmars Blvd, Astoria, NY 11105", "coordinates": "40.775832308033,-73.9100879056678", "rating": 4.0, "review_count": 400, "zip_code": "11105", "cuisineType": "french", "insertedAtTimestamp": "2022-10-19 21:22:01.538077"}, {"businessID": "lP4ynyBoeFPywLg78XkMmw", "name": "Cibo e Vino", "address": "2418 Broadway, New York, NY 10024", "coordinates": "40.790001374828734,-73.97485339555206", "rating": 4.0, "review_count": 390, "zip_code": "10024", "cuisineType": "french", "insertedAtTimestamp": "2022-10-19 21:22:01.740738"}, {"businessID": "U2lfZtPmI3x-bpFztPFbkA", "name": "Claud", "address": "90 E 10th St, New York, NY 10003", "coordinates": "40.73088,-73.98968", "rating": 4.5, "review_count": 18, "zip_code": "10003", "cuisineType": "french", "insertedAtTimestamp": "2022-10-19 21:22:01.948189"}, {"businessID": "eY5PWvzZZ3faJWNO1seuaA", "name": "Paradigm", "address": "12 E 49th St, New York, NY 10017", "coordinates": "40.7575221,-73.9771166", "rating": 4.0, "review_count": 1, "zip_code": "10017", "cuisineType": "french", "insertedAtTimestamp": "2022-10-19 21:22:02.129373"}, {"businessID": "WS0ipFMNDJDy_MOylP-JGw", "name": "Felix", "address": "340 W Broadway, New York, NY 10013", "coordinates": "40.7226295,-74.0037455", "rating": 2.5, "review_count": 449, "zip_code": "10013", "cuisineType": "french", "insertedAtTimestamp": "2022-10-19 21:22:02.345343"}, {"businessID": "zDujEq9qZk13nBcG2PH4tA", "name": "Il Falco", "address": "21-50 44th Dr, Long Island City, NY 11101", "coordinates": "40.7476595714373,-73.9455319123659", "rating": 4.5, "review_count": 333, "zip_code": "11101", "cuisineType": "french", "insertedAtTimestamp": "2022-10-19 21:22:02.593031"}, {"businessID": "T0aM8ULASjWhz_TqgG8rCA", "name": "Teuta Qebaptore", "address": "603 E 186th St, Bronx, NY 10458", "coordinates": "40.8547669,-73.8879456", "rating": 4.5, "review_count": 16, "zip_code": "10458", "cuisineType": "french", "insertedAtTimestamp": "2022-10-19 21:22:02.779027"}, {"businessID": "k74Lwp6Prr3yFgoPx0HSDA", "name": "Reverence", "address": "2592 Frederick Douglass Blvd, New York, NY 10030", "coordinates": "40.8184806,-73.9448795", "rating": 4.0, "review_count": 19, "zip_code": "10030", "cuisineType": "french", "insertedAtTimestamp": "2022-10-19 21:22:02.992765"}, {"businessID": "EHINHIbLklEUShuANKjGgw", "name": "Tomi\u00f1o Taberna Gallega", "address": "192 Grand St, New York, NY 10013", "coordinates": "40.7192978908919,-73.9969160361937", "rating": 4.5, "review_count": 371, "zip_code": "10013", "cuisineType": "french", "insertedAtTimestamp": "2022-10-19 21:22:04.157000"}, {"businessID": "M6aCb7aJzIAyiNJ3c9WpMQ", "name": "Le Pain Quotidien", "address": "2 W 69th St, Sheep Meadow, New York, NY 10023", "coordinates": "40.7730269,-73.9743481", "rating": 3.5, "review_count": 109, "zip_code": "10023", "cuisineType": "french", "insertedAtTimestamp": "2022-10-19 21:22:04.405698"}, {"businessID": "yZx1kHlBHXwEBZLkX0PRhA", "name": "Plado Tasting Bar", "address": "192 E 2nd St, New York, NY 10009", "coordinates": "40.72242,-73.98397", "rating": 4.5, "review_count": 77, "zip_code": "10009", "cuisineType": "french", "insertedAtTimestamp": "2022-10-19 21:22:04.618940"}, {"businessID": "eT39RKlQ8i5Z4ml0ZwUK-Q", "name": "Tambour", "address": "652 5th Ave, Brooklyn, NY 11215", "coordinates": "40.662504,-73.992533", "rating": 4.5, "review_count": 135, "zip_code": "11215", "cuisineType": "french", "insertedAtTimestamp": "2022-10-19 21:22:04.836074"}, {"businessID": "hRsaPTimZY8VPixrrQa8NQ", "name": "Box Cafe", "address": "115 Palisade Ave, Jersey City, NJ 07306", "coordinates": "40.733214,-74.051486", "rating": 5.0, "review_count": 22, "zip_code": "07306", "cuisineType": "french", "insertedAtTimestamp": "2022-10-19 21:22:05.019958"}, {"businessID": "aKweUFx_E1KR4DoXIzcPxA", "name": "Ladur\u00e9e - New York Soho", "address": "398 W Broadway, New York, NY 10012", "coordinates": "40.7243,-74.00231", "rating": 3.0, "review_count": 92, "zip_code": "10012", "cuisineType": "french", "insertedAtTimestamp": "2022-10-19 21:22:05.225333"}, {"businessID": "qbEuBOWUXO2s-C28xJ0tOQ", "name": "Koliba", "address": "3111 23rd Ave, Astoria, NY 11105", "coordinates": "40.7743701,-73.9126345", "rating": 4.0, "review_count": 123, "zip_code": "11105", "cuisineType": "french", "insertedAtTimestamp": "2022-10-19 21:22:05.459066"}, {"businessID": "h8zxDr-SHc5VrU0PdKfwNw", "name": "Fairfax", "address": "234 W 4th St, New York, NY 10014", "coordinates": "40.7343351,-74.0032165", "rating": 4.0, "review_count": 148, "zip_code": "10014", "cuisineType": "french", "insertedAtTimestamp": "2022-10-19 21:22:05.683211"}, {"businessID": "CyIf24YrOuiikkYVnHjoog", "name": "Uncle Momo", "address": "289 Grove St, Jersey City, NJ 07302", "coordinates": "40.7183319967204,-74.0439149770278", "rating": 4.0, "review_count": 282, "zip_code": "07302", "cuisineType": "french", "insertedAtTimestamp": "2022-10-19 21:22:05.888054"}, {"businessID": "cpN0ixPR2l3QFA8Uf1BhCQ", "name": "Luna Rossa", "address": "347 E 85th St, New York, NY 10028", "coordinates": "40.776596,-73.950351", "rating": 4.0, "review_count": 135, "zip_code": "10028", "cuisineType": "french", "insertedAtTimestamp": "2022-10-19 21:22:06.120637"}, {"businessID": "KWIPsr4kQBLIpPTSwKTlig", "name": "Brookvin", "address": "381 7th Ave, Brooklyn, NY 11215", "coordinates": "40.6652526855469,-73.9825668334961", "rating": 4.0, "review_count": 321, "zip_code": "11215", "cuisineType": "french", "insertedAtTimestamp": "2022-10-19 21:22:06.358702"}, {"businessID": "Hoq8s-NePq6_3QxJhR7oNA", "name": "Bocaditos Bistro", "address": "4863 Broadway, New York, NY 10034", "coordinates": "40.8668498343787,-73.9239908382297", "rating": 4.0, "review_count": 444, "zip_code": "10034", "cuisineType": "french", "insertedAtTimestamp": "2022-10-19 21:22:06.542776"}, {"businessID": "y6V0XdpXbSoM4rHxLy5fwg", "name": "Vallata", "address": "47 E 19th St, New York, NY 10003", "coordinates": "40.738070676010935,-73.98858792703702", "rating": 4.0, "review_count": 30, "zip_code": "10003", "cuisineType": "french", "insertedAtTimestamp": "2022-10-19 21:22:06.770939"}, {"businessID": "DxeD4Jw3gsImI-olCOB0bA", "name": "Little Canal", "address": "26 Canal St, New York, NY 10002", "coordinates": "40.714309,-73.990417", "rating": 4.0, "review_count": 142, "zip_code": "10002", "cuisineType": "french", "insertedAtTimestamp": "2022-10-19 21:22:06.976394"}, {"businessID": "kr5fRwdHtVwPPwSJxm9Fkg", "name": "Il Posto Accanto", "address": "190 E 2nd St, New York, NY 10009", "coordinates": "40.72238,-73.98403", "rating": 4.0, "review_count": 294, "zip_code": "10009", "cuisineType": "french", "insertedAtTimestamp": "2022-10-19 21:22:07.163977"}, {"businessID": "WYdrEMBXzOcxffpQczHKww", "name": "Ortomare Ristorante Pizzeria", "address": "994 Columbus Ave, New York, NY 10025", "coordinates": "40.80124,-73.96161", "rating": 4.5, "review_count": 115, "zip_code": "10025", "cuisineType": "french", "insertedAtTimestamp": "2022-10-19 21:22:07.369284"}, {"businessID": "OkiPb6gNNRmcbB4zIIMx0g", "name": "Big Tiny", "address": "244 Smith St, Brooklyn, NY 11231", "coordinates": "40.6834507,-73.992855", "rating": 4.5, "review_count": 71, "zip_code": "11231", "cuisineType": "french", "insertedAtTimestamp": "2022-10-19 21:22:07.586684"}, {"businessID": "NIRIpvQRp4uF-wY_JfJF0A", "name": "Txikito", "address": "240 9th Ave, New York, NY 10001", "coordinates": "40.74739,-74.000468", "rating": 3.5, "review_count": 356, "zip_code": "10001", "cuisineType": "french", "insertedAtTimestamp": "2022-10-19 21:22:07.817099"}, {"businessID": "j8qdGKAOq6Jz9B3pZsBqDw", "name": "Manon Caf\u00e9", "address": "120 Broadway, New York, NY 10271", "coordinates": "40.7085915,-74.0108032", "rating": 4.5, "review_count": 56, "zip_code": "10271", "cuisineType": "french", "insertedAtTimestamp": "2022-10-19 21:22:08.076733"}, {"businessID": "fQBbb7wB_GOXsDmSqCEx4w", "name": "BoCaphe", "address": "104 8th Ave, New York, NY 10011", "coordinates": "40.74053,-74.00173", "rating": 3.5, "review_count": 32, "zip_code": "10011", "cuisineType": "french", "insertedAtTimestamp": "2022-10-19 21:22:08.443931"}, {"businessID": "YRgHWQgg5TYROGLgu3oQjw", "name": "Mansion Supper Club", "address": "46-11 Broadway, Long Island City, NY 11103", "coordinates": "40.75672,-73.9136", "rating": 3.5, "review_count": 60, "zip_code": "11103", "cuisineType": "french", "insertedAtTimestamp": "2022-10-19 21:22:08.654644"}, {"businessID": "x61Sizu7lqGPMGuKEGHo-Q", "name": "Senso Unico", "address": "43-04 47th Ave, Sunnyside, NY 11104", "coordinates": "40.7414137015591,-73.9216857927781", "rating": 4.5, "review_count": 93, "zip_code": "11104", "cuisineType": "french", "insertedAtTimestamp": "2022-10-19 21:22:08.854685"}, {"businessID": "cpfBJVV-5Jo5w2KcbOBtVQ", "name": "Chez Oskar", "address": "310 Malcolm X Blvd, Brooklyn, NY 11233", "coordinates": "40.6822491,-73.9290779", "rating": 3.5, "review_count": 571, "zip_code": "11233", "cuisineType": "french", "insertedAtTimestamp": "2022-10-19 21:22:09.077616"}, {"businessID": "HJg9TbpyWvb6-AFPdb7NCA", "name": "King", "address": "18 King St, New York, NY 10014", "coordinates": "40.7275,-74.00346", "rating": 3.5, "review_count": 192, "zip_code": "10014", "cuisineType": "french", "insertedAtTimestamp": "2022-10-19 21:22:09.292818"}, {"businessID": "hpRrYBbKUqv8ewFKDjbjoA", "name": "Gersi", "address": "316 Court St, Brooklyn, NY 11231", "coordinates": "40.683438,-73.995711", "rating": 4.5, "review_count": 333, "zip_code": "11231", "cuisineType": "french", "insertedAtTimestamp": "2022-10-19 21:22:09.515858"}, {"businessID": "mnwegBAAuq1l2w6uMRt-OA", "name": "Bel-Fries", "address": "132 Ludlow St, New York, NY 10002", "coordinates": "40.720247,-73.988102", "rating": 4.5, "review_count": 83, "zip_code": "10002", "cuisineType": "french", "insertedAtTimestamp": "2022-10-19 21:22:09.711554"}, {"businessID": "zDkwJeNcNU251vmi2EeANg", "name": "Frankie", "address": "264 Grove St, Jersey City, NJ 07302", "coordinates": "40.7171775955244,-74.0442452984261", "rating": 4.0, "review_count": 310, "zip_code": "07302", "cuisineType": "french", "insertedAtTimestamp": "2022-10-19 21:22:09.927359"}, {"businessID": "tC6CzF4fxzHJQ4RFUdT30g", "name": "Maison Vivienne New York", "address": "116 E 60th St, New York, NY 10022", "coordinates": "40.76309,-73.96868", "rating": 2.0, "review_count": 15, "zip_code": "10022", "cuisineType": "french", "insertedAtTimestamp": "2022-10-19 21:22:10.132885"}, {"businessID": "WIZPPe8T4s2AtLgDcNL0KQ", "name": "Freeman's", "address": "Freeman Alley, New York, NY 10002", "coordinates": "40.72201,-73.99246", "rating": 3.5, "review_count": 5, "zip_code": "10002", "cuisineType": "french", "insertedAtTimestamp": "2022-10-19 21:22:10.356641"}, {"businessID": "g-q-kRxdn2zh2oWOY-jKTQ", "name": "Anfora", "address": "34 8th Ave, New York, NY 10014", "coordinates": "40.73789,-74.00408", "rating": 4.0, "review_count": 195, "zip_code": "10014", "cuisineType": "french", "insertedAtTimestamp": "2022-10-19 21:22:10.589369"}, {"businessID": "QaDOWy4-11982JWIxpImNQ", "name": "Little Choc Apothecary", "address": "141 Havemeyer St, Brooklyn, NY 11211", "coordinates": "40.71192,-73.95721", "rating": 4.5, "review_count": 511, "zip_code": "11211", "cuisineType": "french", "insertedAtTimestamp": "2022-10-19 21:22:11.027730"}, {"businessID": "owZRGT6cxeHrpPxFuslMVw", "name": "Cozy Royale", "address": "434 Humboldt St, Brooklyn, NY 11211", "coordinates": "40.71695,-73.942827", "rating": 4.5, "review_count": 40, "zip_code": "11211", "cuisineType": "french", "insertedAtTimestamp": "2022-10-19 21:22:11.269779"}, {"businessID": "2VDKr3954XX41KwEcbX7lg", "name": "Green Fig", "address": "570 10th Ave, Fl 4, (42nd & Tenth) YOTEL, New York, NY 10036", "coordinates": "40.759171,-73.9954561", "rating": 3.5, "review_count": 157, "zip_code": "10036", "cuisineType": "french", "insertedAtTimestamp": "2022-10-19 21:22:11.511854"}, {"businessID": "ihd2cISx6muy6bKVPhA4cg", "name": "Queensyard", "address": "20 Hudson Yards, New York, NY 10001", "coordinates": "40.7533936,-74.00174205487694", "rating": 3.5, "review_count": 388, "zip_code": "10001", "cuisineType": "french", "insertedAtTimestamp": "2022-10-19 21:22:11.709423"}, {"businessID": "lAwfazjM5ot64O4A6EAjjQ", "name": "Le Succulent", "address": "291 5th Ave, Brooklyn, NY 11215", "coordinates": "40.67356,-73.98247", "rating": 4.5, "review_count": 123, "zip_code": "11215", "cuisineType": "french", "insertedAtTimestamp": "2022-10-19 21:22:11.941415"}, {"businessID": "8ofN8cBJd2oTmdbMzlY1zA", "name": "MAiSONETTA", "address": "141 Lincoln Ave, Bronx, NY 10454", "coordinates": "40.808704,-73.929127", "rating": 5.0, "review_count": 46, "zip_code": "10454", "cuisineType": "french", "insertedAtTimestamp": "2022-10-19 21:22:12.149817"}, {"businessID": "bL_SxpTTk8Y25mRFmhap6w", "name": "Lelabar", "address": "422 Hudson St, New York, NY 10014", "coordinates": "40.730384,-74.006554", "rating": 4.0, "review_count": 385, "zip_code": "10014", "cuisineType": "french", "insertedAtTimestamp": "2022-10-19 21:22:12.447984"}, {"businessID": "UQZmhaPAMdZabid6ccvhTg", "name": "Il Punto", "address": "507 9th Ave, New York, NY 10018", "coordinates": "40.75614426678582,-73.9946186", "rating": 4.5, "review_count": 430, "zip_code": "10018", "cuisineType": "french", "insertedAtTimestamp": "2022-10-19 21:22:12.684020"}, {"businessID": "uwStYTWVMr-0BihJD7CmSQ", "name": "Choc O Pain", "address": "157 1st St, Hoboken, NJ 07030", "coordinates": "40.737588,-74.03221", "rating": 4.0, "review_count": 341, "zip_code": "07030", "cuisineType": "french", "insertedAtTimestamp": "2022-10-19 21:22:12.924952"}, {"businessID": "068CsJNwm8tV2jduC9Ionw", "name": "Claret Wine Bar", "address": "46 02 Skillman Ave, Sunnyside, NY 11104", "coordinates": "40.7464036507184,-73.9178903085465", "rating": 4.0, "review_count": 237, "zip_code": "11104", "cuisineType": "french", "insertedAtTimestamp": "2022-10-19 21:22:13.237359"}, {"businessID": "IaEe5y6khfuN1d3jvpcNEQ", "name": "Mishka Soho Restaurant", "address": "519 Broome St, MishkaSoho, New York, NY 10013", "coordinates": "40.723674,-74.003862", "rating": 4.0, "review_count": 43, "zip_code": "10013", "cuisineType": "french", "insertedAtTimestamp": "2022-10-19 21:22:13.515002"}, {"businessID": "wCj2FSi9o6iosMIMNIIZsA", "name": "Loreto Italian Kitchen & Bar", "address": "280 Ashland Pl, Brooklyn, NY 11217", "coordinates": "40.687037,-73.978577", "rating": 4.5, "review_count": 79, "zip_code": "11217", "cuisineType": "french", "insertedAtTimestamp": "2022-10-19 21:22:13.689320"}, {"businessID": "AUyKmFjpaVLwc3awfUnqgQ", "name": "Chela & Garnacha", "address": "33-09 36th Ave, Astoria, NY 11106", "coordinates": "40.7556474,-73.9274415", "rating": 4.5, "review_count": 426, "zip_code": "11106", "cuisineType": "french", "insertedAtTimestamp": "2022-10-19 21:22:14.297595"}, {"businessID": "Tias1_QRB5L-gzoSNNhOMA", "name": "Petrarca Cucina E Vino", "address": "34 White St, New York, NY 10013", "coordinates": "40.7189,-74.00458", "rating": 4.0, "review_count": 201, "zip_code": "10013", "cuisineType": "french", "insertedAtTimestamp": "2022-10-19 21:22:14.659591"}, {"businessID": "EviCtput3aPEbHEVS4Ahuw", "name": "Felice Montague", "address": "84 Montague St, Brooklyn, NY 11201", "coordinates": "40.69517,-73.9961", "rating": 4.0, "review_count": 36, "zip_code": "11201", "cuisineType": "french", "insertedAtTimestamp": "2022-10-19 21:22:14.873024"}, {"businessID": "dkEJt6iKn8gtzR6dC63v1w", "name": "Tartinery", "address": "89 E 42nd St, New York, NY 10017", "coordinates": "40.75287,-73.97768", "rating": 3.5, "review_count": 57, "zip_code": "10017", "cuisineType": "french", "insertedAtTimestamp": "2022-10-19 21:22:15.105081"}, {"businessID": "UQGwXsOt9u0uZX0bY6j1kw", "name": "Kirsh Bakery & Kitchen", "address": "551 Amsterdam Ave, New York, NY 10024", "coordinates": "40.7879297,-73.9746239", "rating": 4.0, "review_count": 306, "zip_code": "10024", "cuisineType": "french", "insertedAtTimestamp": "2022-10-19 21:22:15.309036"}, {"businessID": "-OplSkpDk33uikS5fO-JQw", "name": "Addictive Wine and Tapas Bar", "address": "87-01 Northern Blvd, Jackson Heights, NY 11372", "coordinates": "40.75632,-73.8806", "rating": 4.5, "review_count": 240, "zip_code": "11372", "cuisineType": "french", "insertedAtTimestamp": "2022-10-19 21:22:15.474961"}, {"businessID": "zOTRYxeyHl1vRMyDkzGqog", "name": "Gaby Brasserie Francaise", "address": "44 W 45th St, New York, NY 10036", "coordinates": "40.75613,-73.98154", "rating": 3.0, "review_count": 103, "zip_code": "10036", "cuisineType": "french", "insertedAtTimestamp": "2022-10-19 21:22:16.597635"}, {"businessID": "wm_tAP0ZoL877jWfOwM29Q", "name": "JoJi", "address": "1 Vanderbilt Ave, New York, NY 10017", "coordinates": "40.753022,-73.978485", "rating": 4.5, "review_count": 2, "zip_code": "10017", "cuisineType": "french", "insertedAtTimestamp": "2022-10-19 21:22:16.811087"}, {"businessID": "qixCJxFFrsthp8mgCy1_Zg", "name": "Keuka Kafe a Wine Bar", "address": "112-04 Queens Blvd, Forest Hills, NY 11375", "coordinates": "40.7178485060601,-73.8368028981476", "rating": 4.5, "review_count": 342, "zip_code": "11375", "cuisineType": "french", "insertedAtTimestamp": "2022-10-19 21:22:17.136910"}, {"businessID": "Fd6_gi9cKnZuVfIx9KjJfA", "name": "D\u00eener en Blanc 2013", "address": "Bryant Park, New York, NY 10018", "coordinates": "40.7537472085141,-73.9835858345032", "rating": 5.0, "review_count": 1, "zip_code": "10018", "cuisineType": "french", "insertedAtTimestamp": "2022-10-19 21:22:17.320850"}, {"businessID": "eaV_aUOFJPsG7wRbzr6M9Q", "name": "Hudson Hall", "address": "364 Marin Blvd, Jersey City, NJ 07302", "coordinates": "40.72127,-74.04082", "rating": 4.0, "review_count": 287, "zip_code": "07302", "cuisineType": "french", "insertedAtTimestamp": "2022-10-19 21:22:17.517459"}, {"businessID": "pgtgGAAuHMT0KTm3CDPQsA", "name": "Sorellina", "address": "1036 Washington St, Hoboken, NJ 07030", "coordinates": "40.74977,-74.02746", "rating": 3.5, "review_count": 342, "zip_code": "07030", "cuisineType": "french", "insertedAtTimestamp": "2022-10-19 21:22:17.713766"}, {"businessID": "OAjh4nXExPlr5lQQ3OZqmg", "name": "La Casa D'la Pasta", "address": "1792 Amsterdam Ave, New York, NY 10031", "coordinates": "40.827677608969616,-73.94605957544873", "rating": 4.5, "review_count": 10, "zip_code": "10031", "cuisineType": "french", "insertedAtTimestamp": "2022-10-19 21:22:17.916803"}, {"businessID": "Hnj8w5j6eaIt2NiSQc7TGg", "name": "Indochine", "address": "430 Lafayette St, New York, NY 10003", "coordinates": "40.72917,-73.99227", "rating": 3.5, "review_count": 436, "zip_code": "10003", "cuisineType": "french", "insertedAtTimestamp": "2022-10-19 21:22:18.159258"}, {"businessID": "yMl8P4RIUWeGDaKZu9iEzA", "name": "Brasserie 1605", "address": "1605 Broadway, New York, NY 10019", "coordinates": "40.76056,-73.98481", "rating": 2.5, "review_count": 31, "zip_code": "10019", "cuisineType": "french", "insertedAtTimestamp": "2022-10-19 21:22:18.607645"}, {"businessID": "GVGhfMMEw2TrDh-GGVTUmA", "name": "Le French Tart Deli", "address": "306 Court St, New York, NY 11231", "coordinates": "40.683691,-73.995502", "rating": 4.5, "review_count": 40, "zip_code": "11231", "cuisineType": "french", "insertedAtTimestamp": "2022-10-19 21:22:18.809833"}, {"businessID": "yDStP6k9r9CS0bcwSNbIyw", "name": "Couleur Caf\u00e9", "address": "435 7th Ave, Brooklyn, NY 11215", "coordinates": "40.6633799,-73.98433", "rating": 4.0, "review_count": 226, "zip_code": "11215", "cuisineType": "french", "insertedAtTimestamp": "2022-10-19 21:22:19.032250"}, {"businessID": "rHYuRaSdcXjKTlOmW91nnQ", "name": "Solaro", "address": "13 Carmine St, New York, NY 10014", "coordinates": "40.730588,-74.00238", "rating": 4.5, "review_count": 52, "zip_code": "10014", "cuisineType": "french", "insertedAtTimestamp": "2022-10-19 21:22:19.219463"}, {"businessID": "_sipbeIM-EtR4cIzleEUhg", "name": "Cafe Rue Dix", "address": "1451 Bedford Ave, Brooklyn, NY 11216", "coordinates": "40.6740232907878,-73.9538387930572", "rating": 4.0, "review_count": 416, "zip_code": "11216", "cuisineType": "french", "insertedAtTimestamp": "2022-10-19 21:22:19.441043"}, {"businessID": "JhSdD5iLmGcDCy_LHmyMgg", "name": "The Champagne Bar", "address": "Fifth Avenue At Central Park S, Plaza Hotel, New York, NY 10019", "coordinates": "40.7642344498463,-73.9742517471313", "rating": 3.5, "review_count": 78, "zip_code": "10019", "cuisineType": "french", "insertedAtTimestamp": "2022-10-19 21:22:19.677395"}, {"businessID": "eV_lsSEAjRWAxdlX44Omcw", "name": "Quaint", "address": "46-10 Skillman Ave, Sunnyside, NY 11104", "coordinates": "40.746276,-73.917633", "rating": 4.0, "review_count": 248, "zip_code": "11104", "cuisineType": "french", "insertedAtTimestamp": "2022-10-19 21:22:19.891869"}, {"businessID": "zYWPLNh9lx5QTk5J6fIB_A", "name": "Morty\u2019s Wine & Beer Bar", "address": "15 West End Ave, New York, NY 10023", "coordinates": "40.772126175212655,-73.9904943310242", "rating": 4.5, "review_count": 17, "zip_code": "10023", "cuisineType": "french", "insertedAtTimestamp": "2022-10-19 21:22:20.094764"}, {"businessID": "wZMBvQohVF5qelFRGAo5xw", "name": "Mon Amour Coffee & Wine", "address": "234 W 238th St, Bronx, NY 10463", "coordinates": "40.8847906,-73.9001434", "rating": 4.5, "review_count": 262, "zip_code": "10463", "cuisineType": "french", "insertedAtTimestamp": "2022-10-19 21:22:20.292496"}, {"businessID": "3R-S958SenPaaveuPzSN9g", "name": "Le Paddock", "address": "1235 Prospect Ave, Brooklyn, NY 11218", "coordinates": "40.65295,-73.97588", "rating": 4.0, "review_count": 337, "zip_code": "11218", "cuisineType": "french", "insertedAtTimestamp": "2022-10-19 21:22:20.561795"}, {"businessID": "Z6WOPnG83sgn65SmeyGqAw", "name": "L'Artista Italian Kitchen & Bar", "address": "142 Hamilton Pl, New York, NY 10031", "coordinates": "40.824373,-73.948669", "rating": 4.0, "review_count": 37, "zip_code": "10031", "cuisineType": "french", "insertedAtTimestamp": "2022-10-19 21:22:20.776010"}, {"businessID": "wzAMmlC32y2YMEu0u0bnsQ", "name": "In\u00e8s", "address": "419 E 74th ST, New York, NY 10021", "coordinates": "40.768889,-73.954077", "rating": 4.5, "review_count": 114, "zip_code": "10021", "cuisineType": "french", "insertedAtTimestamp": "2022-10-19 21:22:20.976058"}, {"businessID": "w1-p8N_2suONGoEHFcEQng", "name": "Crepes Truck", "address": "New York, NY 10010", "coordinates": "40.73929,-73.984952", "rating": 4.5, "review_count": 31, "zip_code": "10010", "cuisineType": "french", "insertedAtTimestamp": "2022-10-19 21:22:21.231425"}, {"businessID": "yk-urU0Zz41LiTS2ZBZf1Q", "name": "Romanian Garden", "address": "43-06 43rd Ave, Sunnyside, NY 11104", "coordinates": "40.7449088452058,-73.921469294812", "rating": 3.5, "review_count": 142, "zip_code": "11104", "cuisineType": "french", "insertedAtTimestamp": "2022-10-19 21:22:21.421966"}, {"businessID": "usv3WPmx_IbHJPzvFkuOJA", "name": "House of Crepes", "address": "47 Park Ave, Rutherford, NJ 07070", "coordinates": "40.82737583225158,-74.10360161215067", "rating": 4.5, "review_count": 22, "zip_code": "07070", "cuisineType": "french", "insertedAtTimestamp": "2022-10-19 21:22:21.619981"}, {"businessID": "HhOu55Tw7IuUL3h65GF25A", "name": "Bonjour Crepes & Wine", "address": "1442 Lexington Ave, New York, NY 10128", "coordinates": "40.78456,-73.95219", "rating": 3.5, "review_count": 168, "zip_code": "10128", "cuisineType": "french", "insertedAtTimestamp": "2022-10-19 21:22:21.870677"}, {"businessID": "Njr_f1J5Pve35OyPdBljVA", "name": "Convivium Osteria", "address": "68 5th Ave, Brooklyn, NY 11217", "coordinates": "40.68105,-73.97748", "rating": 4.0, "review_count": 529, "zip_code": "11217", "cuisineType": "french", "insertedAtTimestamp": "2022-10-19 21:22:22.082378"}, {"businessID": "wT_-RVwMoiPAL9L191Zjvg", "name": "Botte Bar", "address": "25-07 Broadway, Astoria, NY 11106", "coordinates": "40.7633418050593,-73.9281750915024", "rating": 4.5, "review_count": 144, "zip_code": "11106", "cuisineType": "french", "insertedAtTimestamp": "2022-10-19 21:22:22.257038"}, {"businessID": "AsCEdN4DlJsfIvA3H_jrAw", "name": "Tenho Ramen", "address": "542 3rd Ave, New York, NY 10016", "coordinates": "40.74717,-73.97728", "rating": 4.0, "review_count": 156, "zip_code": "10016", "cuisineType": "french", "insertedAtTimestamp": "2022-10-19 21:22:22.460467"}, {"businessID": "megxpLA5KciBJbW-jNm2RQ", "name": "Arno Ristorante", "address": "141 W 38th St, New York, NY 10018", "coordinates": "40.7534599,-73.98842", "rating": 3.5, "review_count": 251, "zip_code": "10018", "cuisineType": "french", "insertedAtTimestamp": "2022-10-19 21:22:22.828225"}, {"businessID": "qx-xsyo2pTtrr0KY-GNcYA", "name": "La Tropezienne Bakery", "address": "2131 1st Ave, New York, NY 10029", "coordinates": "40.792079,-73.938629", "rating": 4.5, "review_count": 130, "zip_code": "10029", "cuisineType": "french", "insertedAtTimestamp": "2022-10-19 21:22:23.088685"}, {"businessID": "TI6FvYqVxU2ZEg4PLa8lsA", "name": "Angelina Cafe", "address": "37 Ave A, New York, NY 10009", "coordinates": "40.723511,-73.9856494", "rating": 3.5, "review_count": 152, "zip_code": "10009", "cuisineType": "french", "insertedAtTimestamp": "2022-10-19 21:22:23.299902"}, {"businessID": "NFaLwGDXQxJmexrU6U__vA", "name": "Lea Wine Bar", "address": "230 Park Ave, East Helmsley Walkway, New York, NY 10169", "coordinates": "40.7542460300303,-73.9756283400967", "rating": 3.5, "review_count": 142, "zip_code": "10169", "cuisineType": "french", "insertedAtTimestamp": "2022-10-19 21:22:23.537810"}, {"businessID": "5M5tLSpe4qyvqRAUUAf8gQ", "name": "Nubleu Restaurant", "address": "315 5th Ave, Brooklyn, NY 11215", "coordinates": "40.67287362863534,-73.9830296822084", "rating": 3.5, "review_count": 55, "zip_code": "11215", "cuisineType": "french", "insertedAtTimestamp": "2022-10-19 21:22:23.774029"}, {"businessID": "1cJsIcgLMQ_XsrKZYFhkzA", "name": "Haizea", "address": "142 Sullivan St, New York, NY 10012", "coordinates": "40.72705166724979,-74.0020627560054", "rating": 3.5, "review_count": 79, "zip_code": "10012", "cuisineType": "french", "insertedAtTimestamp": "2022-10-19 21:22:23.986565"}, {"businessID": "j8nnY0ySne_OPxsIWh3pNw", "name": "Fiona's French Toast", "address": "New York, NY 10011", "coordinates": "40.743525,-74.0032074", "rating": 1.5, "review_count": 3, "zip_code": "10011", "cuisineType": "french", "insertedAtTimestamp": "2022-10-19 21:22:24.196150"}, {"businessID": "3LZhWUqvEMaoc1vnAkmAlQ", "name": "Socarrat Paella Bar - Midtown East", "address": "953 2nd Ave, New York, NY 10022", "coordinates": "40.755293,-73.968462", "rating": 3.5, "review_count": 577, "zip_code": "10022", "cuisineType": "french", "insertedAtTimestamp": "2022-10-19 21:22:24.414101"}, {"businessID": "UyCxVKmA59zVCECmpDRn1Q", "name": "Cafe Madelaine", "address": "34 Coles St, Jersey City, NJ 07302", "coordinates": "40.72265,-74.04737", "rating": 4.0, "review_count": 94, "zip_code": "07302", "cuisineType": "french", "insertedAtTimestamp": "2022-10-19 21:22:24.639460"}, {"businessID": "FebvtuoXRQ8h8CZMe8NeYw", "name": "B'artusi", "address": "520 Hudson St, New York, NY 10014", "coordinates": "40.73401,-74.00607", "rating": 4.5, "review_count": 22, "zip_code": "10014", "cuisineType": "french", "insertedAtTimestamp": "2022-10-19 21:22:24.840233"}, {"businessID": "iDO6_sr0PdZFTflijyic0g", "name": "Winemak'Her Bar", "address": "492 5 Th Ave, Brooklyn, NY 11215", "coordinates": "40.66767858461958,-73.98776422023931", "rating": 5.0, "review_count": 22, "zip_code": "11215", "cuisineType": "french", "insertedAtTimestamp": "2022-10-19 21:22:25.038520"}, {"businessID": "fjGTnLTvt64N8sk0_MZcGA", "name": "8th Street Winecellar", "address": "28 W 8th St, New York, NY 10011", "coordinates": "40.7327981,-73.9978351", "rating": 4.0, "review_count": 368, "zip_code": "10011", "cuisineType": "french", "insertedAtTimestamp": "2022-10-19 21:22:25.376436"}, {"businessID": "eCb2VMBFGDgfKCMB4DUPvQ", "name": "La Cantine", "address": "60 St Nicholas Ave, Brooklyn, NY 11237", "coordinates": "40.70664,-73.9206", "rating": 4.5, "review_count": 42, "zip_code": "11237", "cuisineType": "french", "insertedAtTimestamp": "2022-10-19 21:22:25.627904"}, {"businessID": "1Ik8VQxUa0aDbc1KzrxLRg", "name": "Caffe Aronne", "address": "112 Greenwich Ave, New York, NY 10011", "coordinates": "40.738394,-74.002048", "rating": 5.0, "review_count": 19, "zip_code": "10011", "cuisineType": "french", "insertedAtTimestamp": "2022-10-19 21:22:25.854916"}, {"businessID": "U60GbyJIMzwKZaP5IRgnBg", "name": "Bar Veloce", "address": "176 7th Ave, New York, NY 10011", "coordinates": "40.74257,-73.99699", "rating": 3.5, "review_count": 192, "zip_code": "10011", "cuisineType": "french", "insertedAtTimestamp": "2022-10-19 21:22:26.063782"}, {"businessID": "dblEevwbNXl56I4L6TULGg", "name": "Lola's", "address": "153 14th St, Hoboken, NJ 07030", "coordinates": "40.753263,-74.027242", "rating": 3.5, "review_count": 225, "zip_code": "07030", "cuisineType": "french", "insertedAtTimestamp": "2022-10-19 21:22:26.278247"}, {"businessID": "bEec28P1CziowM9LrNkNsg", "name": "Cafe Amrita", "address": "301 W 110th St, New York, NY 10025", "coordinates": "40.8011054761062,-73.9588342646992", "rating": 3.5, "review_count": 299, "zip_code": "10025", "cuisineType": "french", "insertedAtTimestamp": "2022-10-19 21:22:26.476844"}, {"businessID": "5jPaUdIjz_5u3N1gpUbwmA", "name": "Pinkerton Wine Bar", "address": "263 N 6th St, Brooklyn, NY 11211", "coordinates": "40.714912,-73.954229", "rating": 4.0, "review_count": 126, "zip_code": "11211", "cuisineType": "french", "insertedAtTimestamp": "2022-10-19 21:22:26.673980"}]