[{"businessID": "rp8S7scxOkVVeG7dNneMGQ", "name": "L'Artusi", "address": "228 W 10th St, New York, NY 10014", "coordinates": "40.73372,-74.00513", "rating": 4.5, "review_count": 2151, "zip_code": "10014", "cuisineType": "italian", "insertedAtTimestamp": "2022-10-19 21:22:56.133128"}, {"businessID": "VmdyRRMtUXOWV7F7w0ImwQ", "name": "Piccola Cucina Uptown", "address": "106 E 60th St, New York, NY 10022", "coordinates": "40.763174,-73.969046", "rating": 4.5, "review_count": 233, "zip_code": "10022", "cuisineType": "italian", "insertedAtTimestamp": "2022-10-19 21:22:56.328417"}, {"businessID": "WG639VkTjmK5dzydd1BBJA", "name": "Rubirosa", "address": "235 Mulberry St, New York, NY 10012", "coordinates": "40.722766,-73.996233", "rating": 4.5, "review_count": 2787, "zip_code": "10012", "cuisineType": "italian", "insertedAtTimestamp": "2022-10-19 21:22:56.529919"}, {"businessID": "22nKUyCIbpnzR6R3_g1ptQ", "name": "Carmine's Italian Restaurant - Times Square", "address": "200 W 44th St, New York, NY 10036", "coordinates": "40.75749848725768,-73.98665333142026", "rating": 4.0, "review_count": 4254, "zip_code": "10036", "cuisineType": "italian", "insertedAtTimestamp": "2022-10-19 21:22:56.714503"}, {"businessID": "DoSU8IPq-Py_YV3kYmXPfQ", "name": "Trattoria Trecolori", "address": "254 West 47th St, New York, NY 10036", "coordinates": "40.759876,-73.986767", "rating": 4.0, "review_count": 2556, "zip_code": "10036", "cuisineType": "italian", "insertedAtTimestamp": "2022-10-19 21:22:56.918368"}, {"businessID": "OWNmOq-TAsHjGcYdCVclSw", "name": "Osteria La Baia", "address": "129 W 52nd St, New York, NY 10019", "coordinates": "40.76189587672743,-73.9806749", "rating": 4.5, "review_count": 43, "zip_code": "10019", "cuisineType": "italian", "insertedAtTimestamp": "2022-10-19 21:22:57.295284"}, {"businessID": "vjubSxmdG_HoBBgd39geBw", "name": "Nino's 46", "address": "39 W 46th St, New York, NY 10036", "coordinates": "40.7569046125342,-73.980516", "rating": 4.0, "review_count": 1299, "zip_code": "10036", "cuisineType": "italian", "insertedAtTimestamp": "2022-10-19 21:22:57.480196"}, {"businessID": "qBGKigOGn_flCx1apxPzlA", "name": "Piccola Cucina Osteria", "address": "196 Spring St, New York City, NY 10012", "coordinates": "40.72506,-74.00322", "rating": 4.5, "review_count": 702, "zip_code": "10012", "cuisineType": "italian", "insertedAtTimestamp": "2022-10-19 21:22:57.698983"}, {"businessID": "AUifp6IDKzmorCM6vY2fug", "name": "Pepe Giallo", "address": "195 10th Ave, New York, NY 10011", "coordinates": "40.7468940064083,-74.0049896784992", "rating": 4.0, "review_count": 735, "zip_code": "10011", "cuisineType": "italian", "insertedAtTimestamp": "2022-10-19 21:22:57.910065"}, {"businessID": "OCTiJwvjoK81WoDwsTkFvA", "name": "Paesano of Mulberry Street", "address": "136 Mulberry St, New York, NY 10013", "coordinates": "40.718554,-73.997447", "rating": 4.0, "review_count": 1252, "zip_code": "10013", "cuisineType": "italian", "insertedAtTimestamp": "2022-10-19 21:22:58.091152"}, {"businessID": "HiNUBUR1hFwScd_OvVLQAg", "name": "La Pecora Bianca", "address": "1133 Broadway, New York, NY 10010", "coordinates": "40.74358,-73.9892", "rating": 4.0, "review_count": 924, "zip_code": "10010", "cuisineType": "italian", "insertedAtTimestamp": "2022-10-19 21:22:58.255280"}, {"businessID": "LXdblKc5g1Dp17xiV-Am1w", "name": "Trattoria Dell'Arte", "address": "900 7th Ave, New York, NY 10019", "coordinates": "40.76545990643915,-73.98053136970677", "rating": 4.0, "review_count": 1121, "zip_code": "10019", "cuisineType": "italian", "insertedAtTimestamp": "2022-10-19 21:22:58.456772"}, {"businessID": "26emJlm1YMFyOCezfgVk4g", "name": "Da Raffaele", "address": "883 First Ave, New York, NY 10022", "coordinates": "40.7535386913133,-73.9666010811925", "rating": 4.5, "review_count": 209, "zip_code": "10022", "cuisineType": "italian", "insertedAtTimestamp": "2022-10-19 21:22:58.632963"}, {"businessID": "GjEE8vvjqb7eeHA3BGNxAw", "name": "Barolo East", "address": "214 E 49th St, New York, NY 10017", "coordinates": "40.75481,-73.97059", "rating": 4.5, "review_count": 238, "zip_code": "10017", "cuisineType": "italian", "insertedAtTimestamp": "2022-10-19 21:22:58.852853"}, {"businessID": "6eqrk1wCQMww_ejze5gvsg", "name": "Forsythia", "address": "9 Stanton St, New York, NY 10002", "coordinates": "40.7225353,-73.992492", "rating": 4.5, "review_count": 119, "zip_code": "10002", "cuisineType": "italian", "insertedAtTimestamp": "2022-10-19 21:22:59.059794"}, {"businessID": "8oO6j7AlnAbMSJs9Oj9GIw", "name": "Osteria Delbianco", "address": "22 East 49th St, New York, NY 10017", "coordinates": "40.7573689002,-73.9764462233", "rating": 4.5, "review_count": 146, "zip_code": "10017", "cuisineType": "italian", "insertedAtTimestamp": "2022-10-19 21:22:59.275096"}, {"businessID": "lwfCl81r5a0mjxDNxNGC9w", "name": "Il Buco", "address": "47 Bond St, New York, NY 10012", "coordinates": "40.72583,-73.99299", "rating": 4.0, "review_count": 763, "zip_code": "10012", "cuisineType": "italian", "insertedAtTimestamp": "2022-10-19 21:22:59.493760"}, {"businessID": "yB4ziqFM_7V8JxJas7CHfA", "name": "Ulivo", "address": "4 W 28th St, New York, NY 10001", "coordinates": "40.7447371960713,-73.9880339428782", "rating": 4.0, "review_count": 353, "zip_code": "10001", "cuisineType": "italian", "insertedAtTimestamp": "2022-10-19 21:22:59.700158"}, {"businessID": "fFIQ8Rx4x1Z34kFJcmlVzQ", "name": "Cacio E Pepe", "address": "1479 York Ave, New York, NY 10075", "coordinates": "40.77090864674996,-73.95098168604862", "rating": 4.5, "review_count": 47, "zip_code": "10075", "cuisineType": "italian", "insertedAtTimestamp": "2022-10-19 21:22:59.935156"}, {"businessID": "TqNd-LKHuoYo1_mYwqiBFQ", "name": "Nonna Dora\u2019s", "address": "606 2nd Ave, New York, NY 10016", "coordinates": "40.74440176159688,-73.97634764480043", "rating": 4.5, "review_count": 44, "zip_code": "10016", "cuisineType": "italian", "insertedAtTimestamp": "2022-10-19 21:23:00.135170"}, {"businessID": "mTWlEiCUEBlxBAkIikkB1A", "name": "Carmine's Italian Restaurant - Upper West Side", "address": "2450 Broadway, New York, NY 10024", "coordinates": "40.791077,-73.973763", "rating": 4.0, "review_count": 1637, "zip_code": "10024", "cuisineType": "italian", "insertedAtTimestamp": "2022-10-19 21:23:00.321358"}, {"businessID": "TWH4MjLtN1fKlF-7n6YXHg", "name": "Lil Frankie's", "address": "19 1st Ave, New York, NY 10003", "coordinates": "40.723625,-73.988555", "rating": 4.0, "review_count": 1379, "zip_code": "10003", "cuisineType": "italian", "insertedAtTimestamp": "2022-10-19 21:23:00.540771"}, {"businessID": "SCQ9B9jxqNHvJKQ-RagxaA", "name": "SPES", "address": "413 E 12th St, New York, NY 10009", "coordinates": "40.72979,-73.98274", "rating": 4.5, "review_count": 20, "zip_code": "10009", "cuisineType": "italian", "insertedAtTimestamp": "2022-10-19 21:23:00.738846"}, {"businessID": "yZJbealagfujEkgesAl2hA", "name": "Lupa", "address": "170 Thompson St, New York, NY 10012", "coordinates": "40.7276,-74.000045", "rating": 4.0, "review_count": 1691, "zip_code": "10012", "cuisineType": "italian", "insertedAtTimestamp": "2022-10-19 21:23:00.975984"}, {"businessID": "q3_FgDWWuXcVGiNuo_OPBQ", "name": "Fiaschetteria Pistoia", "address": "647 E 11th St, New York, NY 10009", "coordinates": "40.72666,-73.9773", "rating": 4.0, "review_count": 220, "zip_code": "10009", "cuisineType": "italian", "insertedAtTimestamp": "2022-10-19 21:23:01.169316"}, {"businessID": "Rc1Ay4C2BgLBouuM92SAtQ", "name": "Ferdi", "address": "15 7th Ave S, New York, NY 10014", "coordinates": "40.72995,-74.00449", "rating": 5.0, "review_count": 11, "zip_code": "10014", "cuisineType": "italian", "insertedAtTimestamp": "2022-10-19 21:23:01.396283"}, {"businessID": "Fit_iIDn__NPVZpVlKFBFQ", "name": "Osteria 106", "address": "53 W 106 St, New York, NY 10025", "coordinates": "40.79894,-73.96174", "rating": 4.5, "review_count": 189, "zip_code": "10025", "cuisineType": "italian", "insertedAtTimestamp": "2022-10-19 21:23:01.650991"}, {"businessID": "zwOAiVT4pAmpNGXzj-t5MA", "name": "Lilia", "address": "567 Union Ave, Brooklyn, NY 11211", "coordinates": "40.71757,-73.95236", "rating": 4.0, "review_count": 1051, "zip_code": "11211", "cuisineType": "italian", "insertedAtTimestamp": "2022-10-19 21:23:01.866135"}, {"businessID": "V-FCEicobl5Su-R7EVJQNA", "name": "La Lanterna Di Vittorio", "address": "129 MacDougal St, New York, NY 10012", "coordinates": "40.73069,-74.00015", "rating": 4.0, "review_count": 1605, "zip_code": "10012", "cuisineType": "italian", "insertedAtTimestamp": "2022-10-19 21:23:02.395191"}, {"businessID": "7_hGsGEkHrjgAiYVjrCFnw", "name": "Carbone", "address": "181 Thompson St, New York, NY 10012", "coordinates": "40.728,-74.0001497", "rating": 4.0, "review_count": 1474, "zip_code": "10012", "cuisineType": "italian", "insertedAtTimestamp": "2022-10-19 21:23:03.528534"}, {"businessID": "TzVVPWK_4dhdSEpNqZwIhQ", "name": "Toscana 49", "address": "143 East 49 St, New York, NY 10017", "coordinates": "40.7556957079225,-73.9717184007168", "rating": 4.0, "review_count": 311, "zip_code": "10017", "cuisineType": "italian", "insertedAtTimestamp": "2022-10-19 21:23:03.742679"}, {"businessID": "jnHbdsqlTKlPcmJ8BCP9-g", "name": "Via Carota", "address": "51 Grove St, New York, NY 10014", "coordinates": "40.733148231901204,-74.00366777251583", "rating": 4.0, "review_count": 790, "zip_code": "10014", "cuisineType": "italian", "insertedAtTimestamp": "2022-10-19 21:23:03.967209"}, {"businessID": "MphfKkYFEe0BDQ6hZ0A5fA", "name": "Gelso & Grand", "address": "186 Grand St, New York, NY 10013", "coordinates": "40.71958,-73.99734", "rating": 4.5, "review_count": 1289, "zip_code": "10013", "cuisineType": "italian", "insertedAtTimestamp": "2022-10-19 21:23:04.195287"}, {"businessID": "J0OeDwmh5JBhid0A5GvltA", "name": "Il Corallo Trattoria", "address": "176 Prince St, New York, NY 10012", "coordinates": "40.7262073,-74.0018919", "rating": 4.0, "review_count": 1104, "zip_code": "10012", "cuisineType": "italian", "insertedAtTimestamp": "2022-10-19 21:23:04.395786"}, {"businessID": "wzHyRI6iW0rIY8rMb3KClA", "name": "Felice", "address": "240 Columbus Ave, New York, NY 10023", "coordinates": "40.77697,-73.97933", "rating": 4.0, "review_count": 88, "zip_code": "10023", "cuisineType": "italian", "insertedAtTimestamp": "2022-10-19 21:23:04.595775"}, {"businessID": "IErfGS0DASSJfYU73m0Sqg", "name": "Malatesta Trattoria", "address": "649 Washington St, New York, NY 10014", "coordinates": "40.73285,-74.00847", "rating": 4.0, "review_count": 1326, "zip_code": "10014", "cuisineType": "italian", "insertedAtTimestamp": "2022-10-19 21:23:04.786243"}, {"businessID": "dIyKvfhjtm3NuKrMVVt0TA", "name": "Lucciola Italian Restaurant", "address": "621 Amsterdam Ave, New York, NY 10024", "coordinates": "40.790362,-73.972629", "rating": 4.5, "review_count": 74, "zip_code": "10024", "cuisineType": "italian", "insertedAtTimestamp": "2022-10-19 21:23:04.978462"}, {"businessID": "15k7iqFbhf4h8L01yggLqg", "name": "Song E Napule", "address": "146 W Houston St, New York, NY 10012", "coordinates": "40.72813,-74.00188", "rating": 4.5, "review_count": 637, "zip_code": "10012", "cuisineType": "italian", "insertedAtTimestamp": "2022-10-19 21:23:05.192105"}, {"businessID": "Zp-K3ztVTzR-LrWwl_CBgA", "name": "La Pecora Bianca", "address": "20 W 40th St, New York, NY 10018", "coordinates": "40.7525275894982,-73.9829860255122", "rating": 4.0, "review_count": 129, "zip_code": "10018", "cuisineType": "italian", "insertedAtTimestamp": "2022-10-19 21:23:05.449053"}, {"businessID": "EDucGBSfQ0YIbxdHS-KnCg", "name": "Sagaponack", "address": "4 W 22nd St, New York, NY 10010", "coordinates": "40.740937,-73.99081", "rating": 5.0, "review_count": 195, "zip_code": "10010", "cuisineType": "italian", "insertedAtTimestamp": "2022-10-19 21:23:05.670171"}, {"businessID": "gyWc5qJRvu26LVQIShdR4Q", "name": "Babbalucci", "address": "331 Lenox Ave, New York, NY 10027", "coordinates": "40.80894,-73.94496", "rating": 4.0, "review_count": 460, "zip_code": "10027", "cuisineType": "italian", "insertedAtTimestamp": "2022-10-19 21:23:05.890078"}, {"businessID": "xKIv_b2L2pUHmsoJ-xOepg", "name": "Gran Morsi", "address": "22 Warren St, New York, NY 10007", "coordinates": "40.7142052394856,-74.0077535494539", "rating": 4.5, "review_count": 446, "zip_code": "10007", "cuisineType": "italian", "insertedAtTimestamp": "2022-10-19 21:23:06.062872"}, {"businessID": "zg9Jrtx9rqTXeaqufSOxHQ", "name": "Masseria dei Vini", "address": "887 9th Ave, New York, NY 10019", "coordinates": "40.7684,-73.98558", "rating": 4.0, "review_count": 507, "zip_code": "10019", "cuisineType": "italian", "insertedAtTimestamp": "2022-10-19 21:23:06.279127"}, {"businessID": "-Gc5sTFxoXM3Tiv_dkSJZg", "name": "Cecconi's Dumbo", "address": "55 Water St, Brooklyn, NY 11201", "coordinates": "40.7033063330116,-73.9916549604523", "rating": 3.5, "review_count": 986, "zip_code": "11201", "cuisineType": "italian", "insertedAtTimestamp": "2022-10-19 21:23:06.505328"}, {"businessID": "Sp-vnk-waTvKblG_88M4TA", "name": "Trapizzino", "address": "144 Orchard St, New York, NY 10002", "coordinates": "40.72043,-73.98894", "rating": 4.5, "review_count": 276, "zip_code": "10002", "cuisineType": "italian", "insertedAtTimestamp": "2022-10-19 21:23:06.677641"}, {"businessID": "5EQOEAkH2Qh3Rv1TcnE7yA", "name": "Fiaschetteria Pistoia", "address": "114 Christopher St, New York, NY 10014", "coordinates": "40.73316,-74.00537", "rating": 4.0, "review_count": 98, "zip_code": "10014", "cuisineType": "italian", "insertedAtTimestamp": "2022-10-19 21:23:06.901782"}, {"businessID": "Be1Y-vAEMgo7lqL5alXgDA", "name": "Taverna Di Bacco", "address": "175 Ludlow St, New York, NY 10002", "coordinates": "40.72191,-73.98768", "rating": 4.5, "review_count": 324, "zip_code": "10002", "cuisineType": "italian", "insertedAtTimestamp": "2022-10-19 21:23:07.095348"}, {"businessID": "JwCnSW-RQ7_DxvbzWNO1hA", "name": "Coletta", "address": "365 3rd Ave, New York, NY 10016", "coordinates": "40.74094,-73.98139", "rating": 4.5, "review_count": 115, "zip_code": "10016", "cuisineType": "italian", "insertedAtTimestamp": "2022-10-19 21:23:07.283546"}, {"businessID": "RXCCofQw1EjTcSN0ZeXfRA", "name": "Risotteria Melotti NYC", "address": "309 E 5th St, New York, NY 10003", "coordinates": "40.726673363853,-73.9880919456482", "rating": 4.5, "review_count": 370, "zip_code": "10003", "cuisineType": "italian", "insertedAtTimestamp": "2022-10-19 21:23:07.501745"}, {"businessID": "xsQTIeq-WLkp4ParkTQpMQ", "name": "PizzArte", "address": "69 W 55th St, New York, NY 10019", "coordinates": "40.7629335072372,-73.9776668697596", "rating": 4.0, "review_count": 1219, "zip_code": "10019", "cuisineType": "italian", "insertedAtTimestamp": "2022-10-19 21:23:07.766201"}, {"businessID": "faukkggAc_tuJ4THYlf4fg", "name": "La Masseria", "address": "235 W 48th St, New York, NY 10036", "coordinates": "40.760868632784,-73.986348802868", "rating": 4.0, "review_count": 660, "zip_code": "10036", "cuisineType": "italian", "insertedAtTimestamp": "2022-10-19 21:23:07.988882"}, {"businessID": "XHhRAKq6DArQXYhkgvwaow", "name": "Spaghetti Incident", "address": "231 Eldridge St, New York, NY 10002", "coordinates": "40.7223153441439,-73.9899454318763", "rating": 4.0, "review_count": 634, "zip_code": "10002", "cuisineType": "italian", "insertedAtTimestamp": "2022-10-19 21:23:08.225766"}, {"businessID": "vVVmHacu2YAxKfpIjhfd1g", "name": "Norma", "address": "438 3rd Ave, New York, NY 10016", "coordinates": "40.743553,-73.980026", "rating": 4.5, "review_count": 562, "zip_code": "10016", "cuisineType": "italian", "insertedAtTimestamp": "2022-10-19 21:23:08.386000"}, {"businessID": "FRp1NwIyp6tkDU986cJkXQ", "name": "Piccola Cucina Estiatorio", "address": "75 Thompson St, New York, NY 10012", "coordinates": "40.7246,-74.0029799", "rating": 4.5, "review_count": 226, "zip_code": "10012", "cuisineType": "italian", "insertedAtTimestamp": "2022-10-19 21:23:08.707039"}, {"businessID": "6Z5OWpaeGGazJHR4LfThsw", "name": "Palma", "address": "28 Cornelia St, New York, NY 10014", "coordinates": "40.73115,-74.00233", "rating": 4.0, "review_count": 806, "zip_code": "10014", "cuisineType": "italian", "insertedAtTimestamp": "2022-10-19 21:23:09.128544"}, {"businessID": "IAbOg5Kd5AynOcbI8vGTwQ", "name": "Aperitivo", "address": "14 E 60th St, New York, NY 10022", "coordinates": "40.76431314475945,-73.9717568", "rating": 4.5, "review_count": 47, "zip_code": "10022", "cuisineType": "italian", "insertedAtTimestamp": "2022-10-19 21:23:09.329579"}, {"businessID": "0axnkZlDiQcJVc06DDXxGQ", "name": "Ristorante Il Melograno", "address": "501 W 51st St, New York, NY 10019", "coordinates": "40.7654289685161,-73.9914178848267", "rating": 4.0, "review_count": 365, "zip_code": "10019", "cuisineType": "italian", "insertedAtTimestamp": "2022-10-19 21:23:09.553866"}, {"businessID": "yQ7K4uFnxXxpBVbnOSR8kA", "name": "Polpette 71", "address": "71 West 71st St, New York, NY 10023", "coordinates": "40.77668,-73.97888", "rating": 4.0, "review_count": 224, "zip_code": "10023", "cuisineType": "italian", "insertedAtTimestamp": "2022-10-19 21:23:09.825465"}, {"businessID": "q8myw-sQtrmn0w-tKSC5cA", "name": "Cucina Alba", "address": "515 W 18th St, New York, NY 10011", "coordinates": "40.74498,-74.00692", "rating": 4.0, "review_count": 13, "zip_code": "10011", "cuisineType": "italian", "insertedAtTimestamp": "2022-10-19 21:23:10.044508"}, {"businessID": "7cjT33LfYSk7vrRdEaSr4w", "name": "Angeletto Restaurant", "address": "890 2nd Ave, New York, NY 10017", "coordinates": "40.753188,-73.969365", "rating": 4.5, "review_count": 280, "zip_code": "10017", "cuisineType": "italian", "insertedAtTimestamp": "2022-10-19 21:23:10.235705"}, {"businessID": "RPP_wHhM8yZYIP5W-YHk6Q", "name": "Fumo", "address": "2791 Broadway, New York, NY 10025", "coordinates": "40.80284,-73.968119", "rating": 4.0, "review_count": 190, "zip_code": "10025", "cuisineType": "italian", "insertedAtTimestamp": "2022-10-19 21:23:10.436517"}, {"businessID": "32VbG_XgkZIuye0PV-BxaA", "name": "Zero Otto Nove", "address": "15 W 21st St, New York, NY 10010", "coordinates": "40.7407551035259,-73.9914887388588", "rating": 4.0, "review_count": 511, "zip_code": "10010", "cuisineType": "italian", "insertedAtTimestamp": "2022-10-19 21:23:10.615910"}, {"businessID": "QObHX0yR6zd0WfksRDbJTA", "name": "Becco", "address": "355 W 46th St, New York, NY 10036", "coordinates": "40.76083,-73.98981", "rating": 3.5, "review_count": 3024, "zip_code": "10036", "cuisineType": "italian", "insertedAtTimestamp": "2022-10-19 21:23:10.866473"}, {"businessID": "nSk_zCJESMKGLHyJTPPlZA", "name": "Bottino", "address": "246 10th Ave, New York, NY 10001", "coordinates": "40.74848569625031,-74.00331301292165", "rating": 4.0, "review_count": 371, "zip_code": "10001", "cuisineType": "italian", "insertedAtTimestamp": "2022-10-19 21:23:11.141404"}, {"businessID": "NAlOPUbFQVE0bUu8_wmBLQ", "name": "Rezd\u00f4ra", "address": "27 E 20th St, New York, NY 10003", "coordinates": "40.73901,-73.9891", "rating": 4.0, "review_count": 501, "zip_code": "10003", "cuisineType": "italian", "insertedAtTimestamp": "2022-10-19 21:23:11.406270"}, {"businessID": "4RhrQpbhjDmOyXT3qz7v2g", "name": "Osteria Carlina", "address": "455 Hudson St, New York, NY 10014", "coordinates": "40.731409,-74.006984", "rating": 4.5, "review_count": 67, "zip_code": "10014", "cuisineType": "italian", "insertedAtTimestamp": "2022-10-19 21:23:12.430763"}, {"businessID": "RbiXVG4tzpC3zuILadyPIQ", "name": "La Pecora Bianca", "address": "359 Columbus Ave, New York, NY 10024", "coordinates": "40.78049101969648,-73.9763467", "rating": 4.5, "review_count": 10, "zip_code": "10024", "cuisineType": "italian", "insertedAtTimestamp": "2022-10-19 21:23:12.642618"}, {"businessID": "ZVa3-O6LMxZXSpKG0J1h-w", "name": "Piccolo Angolo Restaurant", "address": "621 Hudson St, New York, NY 10014", "coordinates": "40.7378601855952,-74.0058052539825", "rating": 4.0, "review_count": 600, "zip_code": "10014", "cuisineType": "italian", "insertedAtTimestamp": "2022-10-19 21:23:12.890710"}, {"businessID": "Z-QmxQZAJEy5GXqA82Bemw", "name": "Da Toscano", "address": "24 Minetta Ln, New York, NY 10012", "coordinates": "40.730508,-74.001238", "rating": 4.5, "review_count": 80, "zip_code": "10012", "cuisineType": "italian", "insertedAtTimestamp": "2022-10-19 21:23:13.189758"}, {"businessID": "-hUvO0C0A-pGZdiSKvjoFw", "name": "Babbo", "address": "110 Waverly Pl, New York, NY 10011", "coordinates": "40.732283,-73.999284", "rating": 4.0, "review_count": 2550, "zip_code": "10011", "cuisineType": "italian", "insertedAtTimestamp": "2022-10-19 21:23:13.416227"}, {"businessID": "aJJlY5xvqS180wtRIHEWqA", "name": "Cotenna", "address": "21 Bedford St, New York, NY 10014", "coordinates": "40.72903,-74.00357", "rating": 4.0, "review_count": 450, "zip_code": "10014", "cuisineType": "italian", "insertedAtTimestamp": "2022-10-19 21:23:13.623182"}, {"businessID": "M4pCWzdBCkp2g_d834a7Hw", "name": "Sauce", "address": "78 Rivington St, New York, NY 10002", "coordinates": "40.7204716,-73.9893263", "rating": 4.0, "review_count": 905, "zip_code": "10002", "cuisineType": "italian", "insertedAtTimestamp": "2022-10-19 21:23:13.840915"}, {"businessID": "a0IET3_yCFcO36OqGSsisg", "name": "Eataly NYC Flatiron", "address": "200 5th Ave, New York, NY 10010", "coordinates": "40.74200824886595,-73.98993910744127", "rating": 4.0, "review_count": 5950, "zip_code": "10010", "cuisineType": "italian", "insertedAtTimestamp": "2022-10-19 21:23:14.141653"}, {"businessID": "H5bhfR5sL0I2w1csjI1uMA", "name": "Piatto", "address": "1-50 50th Ave, Corner of Center Blvd & 50th Avenue, Long Island City, NY 11101", "coordinates": "40.7435117,-73.9590968", "rating": 4.0, "review_count": 226, "zip_code": "11101", "cuisineType": "italian", "insertedAtTimestamp": "2022-10-19 21:23:14.492565"}, {"businessID": "gAMETn5mltwjn2QLt6bWjw", "name": "Isabella", "address": "110 St Marks Pl, New York, NY 10009", "coordinates": "40.726966,-73.984334", "rating": 4.5, "review_count": 11, "zip_code": "10009", "cuisineType": "italian", "insertedAtTimestamp": "2022-10-19 21:23:14.660995"}, {"businessID": "5Akss-swwfyoSVeIsDBbvw", "name": "Basta Pasta", "address": "37 W 17th St, New York, NY 10011", "coordinates": "40.73881,-73.99407", "rating": 4.0, "review_count": 1502, "zip_code": "10011", "cuisineType": "italian", "insertedAtTimestamp": "2022-10-19 21:23:14.919899"}, {"businessID": "rJJiGJx3kfMAxtD7P7okHQ", "name": "Celeste Restaurant", "address": "502 Amsterdam Ave, New York, NY 10024", "coordinates": "40.78666,-73.97599", "rating": 3.5, "review_count": 956, "zip_code": "10024", "cuisineType": "italian", "insertedAtTimestamp": "2022-10-19 21:23:15.121243"}, {"businessID": "MeUq9lombxM9alxs64tejQ", "name": "Pepolino Restaurant", "address": "281 W Broadway, New York, NY 10013", "coordinates": "40.720756,-74.004885", "rating": 4.0, "review_count": 604, "zip_code": "10013", "cuisineType": "italian", "insertedAtTimestamp": "2022-10-19 21:23:15.340133"}, {"businessID": "dh5r9-SbN8xJ76XvnayWLQ", "name": "Giano Restaurant", "address": "126 E 7th St, New York, NY 10009", "coordinates": "40.7262256596862,-73.9840574049125", "rating": 4.5, "review_count": 675, "zip_code": "10009", "cuisineType": "italian", "insertedAtTimestamp": "2022-10-19 21:23:15.576675"}, {"businessID": "d5ya04K-2A_hI3Xzqe1HeA", "name": "Caffe Buon Gusto", "address": "236 E 77th St, New York, NY 10075", "coordinates": "40.77249,-73.95713", "rating": 4.0, "review_count": 632, "zip_code": "10075", "cuisineType": "italian", "insertedAtTimestamp": "2022-10-19 21:23:15.780480"}, {"businessID": "C8Ctyq7pXOPESK8cz_X2CA", "name": "Pomodoro Rosso", "address": "229 Columbus Ave, New York, NY 10023", "coordinates": "40.776398,-73.979288", "rating": 4.0, "review_count": 367, "zip_code": "10023", "cuisineType": "italian", "insertedAtTimestamp": "2022-10-19 21:23:15.997555"}, {"businessID": "VmgvCsAP6vZ3DL1mw8ugWQ", "name": "Osteria Del Porto", "address": "212 Front St, New York, NY 10038", "coordinates": "40.70737443140159,-74.00270427364536", "rating": 4.5, "review_count": 49, "zip_code": "10038", "cuisineType": "italian", "insertedAtTimestamp": "2022-10-19 21:23:16.242647"}, {"businessID": "NGyFpNCrzqEG3B0Z0drKfw", "name": "Amarone Scarlatto", "address": "686 Ninth Ave West 47 Street, New York, NY 10036", "coordinates": "40.76171494384402,-73.9899636", "rating": 4.0, "review_count": 42, "zip_code": "10036", "cuisineType": "italian", "insertedAtTimestamp": "2022-10-19 21:23:16.551762"}, {"businessID": "JyXn_GCGM2DsNYIzgzQrDw", "name": "Da Gennaro", "address": "129 Mulberry St, New York, NY 10013", "coordinates": "40.71832,-73.99794", "rating": 4.0, "review_count": 1205, "zip_code": "10013", "cuisineType": "italian", "insertedAtTimestamp": "2022-10-19 21:23:16.749459"}, {"businessID": "tJxAlyeT5PRbUIyJ2wsv-A", "name": "Bamonte's", "address": "32 Withers St, Brooklyn, NY 11211", "coordinates": "40.71666591260819,-73.95125357171182", "rating": 4.0, "review_count": 406, "zip_code": "11211", "cuisineType": "italian", "insertedAtTimestamp": "2022-10-19 21:23:16.985209"}, {"businessID": "vXYFa2qzppkGiOiVPrLwDQ", "name": "Don Peppe", "address": "135-58 Lefferts Blvd, South Ozone Park, NY 11420", "coordinates": "40.6689814908178,-73.8216334221041", "rating": 4.0, "review_count": 648, "zip_code": "11420", "cuisineType": "italian", "insertedAtTimestamp": "2022-10-19 21:23:17.202772"}, {"businessID": "H_TGP2AgX3IUmzq8Aml79Q", "name": "L' Angolo Tribeca", "address": "190-A Duane St, New York, NY 10013", "coordinates": "40.71734,-74.01044", "rating": 3.5, "review_count": 174, "zip_code": "10013", "cuisineType": "italian", "insertedAtTimestamp": "2022-10-19 21:23:17.390599"}, {"businessID": "JliAIBARXi9uISzNG26DVw", "name": "Elio's", "address": "1621 2nd Ave, New York, NY 10028", "coordinates": "40.7767632368091,-73.9526632086427", "rating": 3.5, "review_count": 292, "zip_code": "10028", "cuisineType": "italian", "insertedAtTimestamp": "2022-10-19 21:23:17.590911"}, {"businessID": "abZ-mEvF6Tj4hfyIg0lKwQ", "name": "Vite Vinosteria", "address": "31-05 34th St, Astoria, NY 11106", "coordinates": "40.7629734277725,-73.92119564116", "rating": 4.5, "review_count": 667, "zip_code": "11106", "cuisineType": "italian", "insertedAtTimestamp": "2022-10-19 21:23:17.894272"}, {"businessID": "K9Ur20N51Li3sAvaV9-6Ng", "name": "Casa Limone", "address": "20 East 49th St, New York, NY 10017", "coordinates": "40.7573268,-73.97666174194207", "rating": 4.5, "review_count": 73, "zip_code": "10017", "cuisineType": "italian", "insertedAtTimestamp": "2022-10-19 21:23:18.233139"}, {"businessID": "LTi4_wcCVmqQeJ_jgTEbOQ", "name": "Emporio", "address": "231 Mott St, New York, NY 10012", "coordinates": "40.722647,-73.995246", "rating": 4.0, "review_count": 850, "zip_code": "10012", "cuisineType": "italian", "insertedAtTimestamp": "2022-10-19 21:23:18.546307"}, {"businessID": "NlmP5x_Ykznd55Dc85ChUg", "name": "Nittis", "address": "523 9th Ave, New York, NY 10018", "coordinates": "40.7567,-73.99411", "rating": 4.5, "review_count": 283, "zip_code": "10018", "cuisineType": "italian", "insertedAtTimestamp": "2022-10-19 21:23:18.796935"}, {"businessID": "zo4JHfD2nWPUiqgsgDOaHQ", "name": "Rao's", "address": "455 E 114th St, New York, NY 10029", "coordinates": "40.79392,-73.93427", "rating": 4.5, "review_count": 204, "zip_code": "10029", "cuisineType": "italian", "insertedAtTimestamp": "2022-10-19 21:23:19.016554"}, {"businessID": "eMSTTuOUlKEnSOr8lPp3Xg", "name": "Ammazzacaff\u00e8", "address": "702 Grand St, Brooklyn, NY 11211", "coordinates": "40.7113172,-73.9446243", "rating": 4.5, "review_count": 266, "zip_code": "11211", "cuisineType": "italian", "insertedAtTimestamp": "2022-10-19 21:23:19.207513"}, {"businessID": "rZ9OFoSqy8u4WECfh--ylg", "name": "Marta", "address": "29 E 29th St, New York, NY 10016", "coordinates": "40.7445882,-73.9847936", "rating": 4.0, "review_count": 959, "zip_code": "10016", "cuisineType": "italian", "insertedAtTimestamp": "2022-10-19 21:23:19.466914"}, {"businessID": "f_1BjTChf6bobreSRpqhsw", "name": "Arco Cafe", "address": "886 Amsterdam Ave, New York, NY 10025", "coordinates": "40.7988462,-73.967065", "rating": 4.5, "review_count": 325, "zip_code": "10025", "cuisineType": "italian", "insertedAtTimestamp": "2022-10-19 21:23:19.646811"}, {"businessID": "vZ5-JXlJS75k8wmPNS5U5w", "name": "Max Soha Restaurant", "address": "1274 Amsterdam Ave, New York, NY 10027", "coordinates": "40.811324216443104,-73.9581736", "rating": 4.0, "review_count": 427, "zip_code": "10027", "cuisineType": "italian", "insertedAtTimestamp": "2022-10-19 21:23:20.125002"}, {"businessID": "3uyBZNbDk2vRFBBWZOdIUA", "name": "Dominick's Restaurant", "address": "2335 Arthur Ave, Bronx, NY 10458", "coordinates": "40.85434,-73.889", "rating": 4.0, "review_count": 409, "zip_code": "10458", "cuisineType": "italian", "insertedAtTimestamp": "2022-10-19 21:23:20.346100"}, {"businessID": "WmK7GXwOnLSTRN1ocyUThg", "name": "Puglia Ristorante", "address": "189 Hester St, New York, NY 10013", "coordinates": "40.7181606872639,-73.9976975651144", "rating": 4.0, "review_count": 603, "zip_code": "10013", "cuisineType": "italian", "insertedAtTimestamp": "2022-10-19 21:23:20.530568"}, {"businessID": "cl97uG2_QtiMBah-_s9w7g", "name": "Il Divo", "address": "1347 2nd Ave At E 71st St, New York, NY 10021", "coordinates": "40.76816,-73.959204", "rating": 4.5, "review_count": 93, "zip_code": "10021", "cuisineType": "italian", "insertedAtTimestamp": "2022-10-19 21:23:20.737276"}, {"businessID": "h4VCnZ2aZ33mdenS_ZI7jQ", "name": "Mama Mia 44 SW", "address": "621 9th Ave, New York, NY 10036", "coordinates": "40.759761,-73.992065", "rating": 4.0, "review_count": 789, "zip_code": "10036", "cuisineType": "italian", "insertedAtTimestamp": "2022-10-19 21:23:20.905074"}, {"businessID": "b6jOwyX4iaagw8YjXqq1sA", "name": "Antonio's Trattoria", "address": "2370 Belmont Ave, Bronx, NY 10458", "coordinates": "40.854131,-73.886601", "rating": 4.5, "review_count": 963, "zip_code": "10458", "cuisineType": "italian", "insertedAtTimestamp": "2022-10-19 21:23:21.148834"}, {"businessID": "hzPBADaUBQEL30MGrvKsww", "name": "Il Tinello Ristorante Italiano", "address": "16 W 56th St, New York, NY 10019", "coordinates": "40.76256,-73.97566", "rating": 4.5, "review_count": 306, "zip_code": "10019", "cuisineType": "italian", "insertedAtTimestamp": "2022-10-19 21:23:21.351807"}, {"businessID": "xeC9vn3dxVVzAMR_aFwfXg", "name": "IL Brigante", "address": "214 Front St, New York, NY 10038", "coordinates": "40.707492,-74.002571", "rating": 4.0, "review_count": 476, "zip_code": "10038", "cuisineType": "italian", "insertedAtTimestamp": "2022-10-19 21:23:21.600853"}, {"businessID": "S8OKQ5S40oZ1Rr5RbC0jdg", "name": "Motorino", "address": "349 E 12th St, New York, NY 10003", "coordinates": "40.73039,-73.98381", "rating": 4.0, "review_count": 1110, "zip_code": "10003", "cuisineType": "italian", "insertedAtTimestamp": "2022-10-19 21:23:21.838375"}, {"businessID": "Z67mgMkN3RfdPEX5mXsyYA", "name": "Piacere", "address": "351 Broome St, New York, NY 10013", "coordinates": "40.7196979,-73.9951175", "rating": 4.0, "review_count": 700, "zip_code": "10013", "cuisineType": "italian", "insertedAtTimestamp": "2022-10-19 21:23:23.035141"}, {"businessID": "vbGqzhH_exG5HOG1I23kvg", "name": "Park Side Restaurant", "address": "107-01 Corona Ave, Corona, NY 11368", "coordinates": "40.743843,-73.856118", "rating": 4.0, "review_count": 854, "zip_code": "11368", "cuisineType": "italian", "insertedAtTimestamp": "2022-10-19 21:23:24.262062"}, {"businessID": "d15lwNLOlLSeaAYqPadntw", "name": "Sam's Place", "address": "132 E 39th St, New York, NY 10016", "coordinates": "40.749270880468,-73.977082744053", "rating": 4.0, "review_count": 281, "zip_code": "10016", "cuisineType": "italian", "insertedAtTimestamp": "2022-10-19 21:23:24.444850"}, {"businessID": "ub5pgpFyrcp_zz4gYMTspA", "name": "Tino\u2019s Artisan Pizza - Chelsea", "address": "12 W 18th St, New York, NY 10011", "coordinates": "40.73891,-73.99298", "rating": 5.0, "review_count": 2, "zip_code": "10011", "cuisineType": "italian", "insertedAtTimestamp": "2022-10-19 21:23:24.654801"}, {"businessID": "tRIHhPKryUZ56SfIz6mLiA", "name": "Angelo's Coal Oven Pizzeria", "address": "117 W 57th St, New York, NY 10019", "coordinates": "40.76492,-73.97794", "rating": 4.0, "review_count": 1056, "zip_code": "10019", "cuisineType": "italian", "insertedAtTimestamp": "2022-10-19 21:23:24.869985"}, {"businessID": "ZamvzoxEKiJEboO0ZUdogw", "name": "Amici Ristorante", "address": "165 Mulberry St, New York, NY 10013", "coordinates": "40.71981,-73.99722", "rating": 4.5, "review_count": 148, "zip_code": "10013", "cuisineType": "italian", "insertedAtTimestamp": "2022-10-19 21:23:25.057796"}, {"businessID": "2Nwmd7-1d1rI6lb9QSSYYA", "name": "A Pasta Bar", "address": "330 W Broadway, New York, NY 10013", "coordinates": "40.72229,-74.00403", "rating": 4.0, "review_count": 438, "zip_code": "10013", "cuisineType": "italian", "insertedAtTimestamp": "2022-10-19 21:23:25.257555"}, {"businessID": "UVQ1GxmhlDVDM2acLexJ7A", "name": "Roberto's II Ristorante", "address": "936 River Rd, Edgewater, NJ 07020", "coordinates": "40.826943,-73.973692", "rating": 4.0, "review_count": 107, "zip_code": "07020", "cuisineType": "italian", "insertedAtTimestamp": "2022-10-19 21:23:25.467112"}, {"businessID": "ZmxEeE9m0CdpvM3wVRvonQ", "name": "Sicily Osteria", "address": "330 W 46th St, New York, NY 10036", "coordinates": "40.76019,-73.98918", "rating": 4.0, "review_count": 47, "zip_code": "10036", "cuisineType": "italian", "insertedAtTimestamp": "2022-10-19 21:23:25.675202"}, {"businessID": "wLzJbddDixAEZrF7VT6_hw", "name": "Bono Trattoria", "address": "3658 Broadway, New York, NY 10031", "coordinates": "40.8301996389829,-73.9473449424522", "rating": 4.5, "review_count": 350, "zip_code": "10031", "cuisineType": "italian", "insertedAtTimestamp": "2022-10-19 21:23:25.918718"}, {"businessID": "PQd4M3cuSgdweWgLgZIslQ", "name": "Inatteso Pizzabar", "address": "28 West St, New York, NY 10004", "coordinates": "40.7056571,-74.0172056", "rating": 4.0, "review_count": 339, "zip_code": "10004", "cuisineType": "italian", "insertedAtTimestamp": "2022-10-19 21:23:26.158921"}, {"businessID": "5k_jwjhdFMPUNWhouGNzuA", "name": "Misi", "address": "329 Kent Ave, Brooklyn, NY 11249", "coordinates": "40.71341,-73.96662", "rating": 4.0, "review_count": 514, "zip_code": "11249", "cuisineType": "italian", "insertedAtTimestamp": "2022-10-19 21:23:26.392433"}, {"businessID": "5pRxCYQppSq0czjFDN9X3Q", "name": "Campagnola Restaurant", "address": "1382 1st Ave, New York, NY 10021", "coordinates": "40.768817,-73.954833", "rating": 4.0, "review_count": 304, "zip_code": "10021", "cuisineType": "italian", "insertedAtTimestamp": "2022-10-19 21:23:26.594935"}, {"businessID": "RG5atiZtuNtpDu6GrNUQGw", "name": "NORMA Gastronomia Siciliana", "address": "801 9th Ave, New York, NY 10019", "coordinates": "40.76563298237293,-73.98769143895947", "rating": 4.0, "review_count": 70, "zip_code": "10019", "cuisineType": "italian", "insertedAtTimestamp": "2022-10-19 21:23:26.861382"}, {"businessID": "zYaYXpmlo6QdnaPwuxWHhQ", "name": "L'Osteria", "address": "1219 Lexington Ave, New York, NY 10028", "coordinates": "40.77704,-73.95721", "rating": 4.5, "review_count": 11, "zip_code": "10028", "cuisineType": "italian", "insertedAtTimestamp": "2022-10-19 21:23:27.064171"}, {"businessID": "bW3mY-voyav37nU0uaLmNQ", "name": "Dante", "address": "79-81 Macdougal St, New York, NY 10012", "coordinates": "40.72879,-74.00165", "rating": 4.0, "review_count": 539, "zip_code": "10012", "cuisineType": "italian", "insertedAtTimestamp": "2022-10-19 21:23:27.260315"}, {"businessID": "XfOa_KyrV7JSFJMOKckGMg", "name": "Monte's Trattoria", "address": "97 Macdougal St, New York, NY 10012", "coordinates": "40.72959,-74.0011", "rating": 4.0, "review_count": 407, "zip_code": "10012", "cuisineType": "italian", "insertedAtTimestamp": "2022-10-19 21:23:27.475757"}, {"businessID": "riykDqJw_NPGssLgqCeD-Q", "name": "Aunt Jake's", "address": "1555 2nd Ave, New York, NY 10028", "coordinates": "40.774587,-73.954513", "rating": 4.5, "review_count": 153, "zip_code": "10028", "cuisineType": "italian", "insertedAtTimestamp": "2022-10-19 21:23:27.698731"}, {"businessID": "IxwuIDcpRa7EpQs7V481Ww", "name": "Il Gattopardo", "address": "13-15 W 54th St, New York, NY 10019", "coordinates": "40.7614994602915,-73.976308999227", "rating": 4.0, "review_count": 212, "zip_code": "10019", "cuisineType": "italian", "insertedAtTimestamp": "2022-10-19 21:23:27.914074"}, {"businessID": "o5mMVFk4Hcpk2FuKfgTgdg", "name": "Malaparte", "address": "753 Washington St, New York, NY 10014", "coordinates": "40.73687,-74.00812", "rating": 4.0, "review_count": 384, "zip_code": "10014", "cuisineType": "italian", "insertedAtTimestamp": "2022-10-19 21:23:28.196699"}, {"businessID": "l7OsDvMOO3ji3fg0nT0QzA", "name": "Tony's Di Napoli", "address": "1081 3rd Ave, New York, NY 10065", "coordinates": "40.764385574147596,-73.96426247506157", "rating": 4.0, "review_count": 800, "zip_code": "10065", "cuisineType": "italian", "insertedAtTimestamp": "2022-10-19 21:23:28.436350"}, {"businessID": "kIm0oeOaVfC9-2flLPVklA", "name": "Patrizia's Pizza and Pasta", "address": "462-466 2nd Ave, New York, NY 10016", "coordinates": "40.7398415,-73.9792862", "rating": 4.0, "review_count": 733, "zip_code": "10016", "cuisineType": "italian", "insertedAtTimestamp": "2022-10-19 21:23:28.650177"}, {"businessID": "o2SAcKbfOMkA71xUfyee6Q", "name": "Rossini's", "address": "108 E 38th St, New York, NY 10016", "coordinates": "40.74921,-73.97883", "rating": 4.0, "review_count": 251, "zip_code": "10016", "cuisineType": "italian", "insertedAtTimestamp": "2022-10-19 21:23:28.858530"}, {"businessID": "v8G2Tik6eXhS63Es_4sveA", "name": "Bac\u00e0n", "address": "79 Grand St, Brooklyn, NY 11249", "coordinates": "40.715855693840986,-73.96414879999999", "rating": 4.0, "review_count": 25, "zip_code": "11249", "cuisineType": "italian", "insertedAtTimestamp": "2022-10-19 21:23:29.063284"}, {"businessID": "E1RvMNZ4re4TnKarjx14Zw", "name": "Cacio E Pepe", "address": "182 2nd Ave, New York, NY 10003", "coordinates": "40.73065490170433,-73.98593714531415", "rating": 3.5, "review_count": 691, "zip_code": "10003", "cuisineType": "italian", "insertedAtTimestamp": "2022-10-19 21:23:29.338974"}, {"businessID": "J38XGzriEkMsDfCMt6et_g", "name": "VEZZO NYCThinCrust Pizza", "address": "178 Lexington Ave, New York, NY 10016", "coordinates": "40.744435447210506,-73.9814189", "rating": 4.0, "review_count": 1362, "zip_code": "10016", "cuisineType": "italian", "insertedAtTimestamp": "2022-10-19 21:23:29.547481"}, {"businessID": "zj8Lq1T8KIC5zwFief15jg", "name": "Prince Street Pizza", "address": "27 Prince St, New York, NY 10012", "coordinates": "40.72308755605564,-73.99453001177575", "rating": 4.5, "review_count": 4551, "zip_code": "10012", "cuisineType": "italian", "insertedAtTimestamp": "2022-10-19 21:23:29.797080"}, {"businessID": "hDj_0pbi4mFR5p1H1w6igw", "name": "Misirizzi", "address": "36 E 4th St, New York, NY 10003", "coordinates": "40.7272,-73.99228", "rating": 4.5, "review_count": 176, "zip_code": "10003", "cuisineType": "italian", "insertedAtTimestamp": "2022-10-19 21:23:30.014550"}, {"businessID": "9K0run3oObR0YT4jaOEvWg", "name": "L'Angeletto", "address": "327 2nd Ave, New York, NY 10003", "coordinates": "40.73541417,-73.982956", "rating": 4.5, "review_count": 75, "zip_code": "10003", "cuisineType": "italian", "insertedAtTimestamp": "2022-10-19 21:23:30.213872"}, {"businessID": "3P8hb1ZOCA8IjEGfqpSpxg", "name": "Sfoglia Restaurant", "address": "1402 Lexington Ave, New York, NY 10128", "coordinates": "40.783535,-73.952719", "rating": 4.0, "review_count": 311, "zip_code": "10128", "cuisineType": "italian", "insertedAtTimestamp": "2022-10-19 21:23:30.426547"}, {"businessID": "06tnwnEQM2j9A6dC3HC_TQ", "name": "Capizzi", "address": "547 9th Ave, New York, NY 10018", "coordinates": "40.75744,-73.99357", "rating": 4.0, "review_count": 861, "zip_code": "10018", "cuisineType": "italian", "insertedAtTimestamp": "2022-10-19 21:23:30.660318"}, {"businessID": "9iC39Z1YjZKbrrCANgzBXg", "name": "Sergimmo Salumeria", "address": "456 9th Ave, New York, NY 10018", "coordinates": "40.754296,-73.995498", "rating": 4.0, "review_count": 713, "zip_code": "10018", "cuisineType": "italian", "insertedAtTimestamp": "2022-10-19 21:23:30.881840"}, {"businessID": "cyLw0vW5MrsF35-A6Dy03w", "name": "Saggio", "address": "829 W 181st St, New York, NY 10033", "coordinates": "40.8514099281625,-73.9395604556239", "rating": 4.0, "review_count": 659, "zip_code": "10033", "cuisineType": "italian", "insertedAtTimestamp": "2022-10-19 21:23:31.090502"}, {"businessID": "idxD3X7WfLFPZMoFnCRIQQ", "name": "Il Cantinori", "address": "32 E 10th St, New York, NY 10003", "coordinates": "40.7322779619352,-73.9929321762328", "rating": 4.0, "review_count": 278, "zip_code": "10003", "cuisineType": "italian", "insertedAtTimestamp": "2022-10-19 21:23:31.395608"}, {"businessID": "WYhRkUATHRyXZrE55MArbA", "name": "Scalini Fedeli", "address": "165 Duane St, New York, NY 10013", "coordinates": "40.71741473500126,-74.00943235989747", "rating": 4.5, "review_count": 338, "zip_code": "10013", "cuisineType": "italian", "insertedAtTimestamp": "2022-10-19 21:23:32.624408"}, {"businessID": "hyBM_Xk9Hzp38acTHAHlBQ", "name": "dell'anima", "address": "600 11th Ave, New York, NY 10036", "coordinates": "40.7661790467228,-73.99445587334046", "rating": 4.0, "review_count": 676, "zip_code": "10036", "cuisineType": "italian", "insertedAtTimestamp": "2022-10-19 21:23:32.844542"}, {"businessID": "TZto7AjdA337XIw66AOpUw", "name": "Scalinatella Restaurant", "address": "201 E 61st St, New York, NY 10065", "coordinates": "40.7627823203802,-73.9654829353094", "rating": 4.0, "review_count": 309, "zip_code": "10065", "cuisineType": "italian", "insertedAtTimestamp": "2022-10-19 21:23:33.034193"}, {"businessID": "JSexQM-wn8HvWmfxu_m5ZA", "name": "Gnocco", "address": "337 E 10th St, New York, NY 10009", "coordinates": "40.72713,-73.9802799", "rating": 4.0, "review_count": 550, "zip_code": "10009", "cuisineType": "italian", "insertedAtTimestamp": "2022-10-19 21:23:33.278625"}, {"businessID": "s5nPO911cYB2chdwqSqT9g", "name": "La Nonna Ristorante & Bar", "address": "184 Kent Ave, Brooklyn, NY 11249", "coordinates": "40.718468787527,-73.9639185527139", "rating": 4.0, "review_count": 389, "zip_code": "11249", "cuisineType": "italian", "insertedAtTimestamp": "2022-10-19 21:23:33.646149"}, {"businessID": "6n7D4amt9vEruR73tt3S9w", "name": "Cafe Fiorello", "address": "1900 Broadway, New York, NY 10023", "coordinates": "40.77134,-73.9819051", "rating": 3.5, "review_count": 887, "zip_code": "10023", "cuisineType": "italian", "insertedAtTimestamp": "2022-10-19 21:23:33.881978"}, {"businessID": "vhqFa_0SG9M7Ra1OTmfB9A", "name": "LaRina Pastificio & Vino", "address": "387 Myrtle Ave, Brooklyn, NY 11205", "coordinates": "40.6933631896973,-73.9704132080078", "rating": 4.0, "review_count": 204, "zip_code": "11205", "cuisineType": "italian", "insertedAtTimestamp": "2022-10-19 21:23:34.100705"}, {"businessID": "Ry9w-jFALWYhazi6jjyIKw", "name": "Rucola", "address": "190 Dean St, Brooklyn, NY 11217", "coordinates": "40.68562,-73.98587", "rating": 4.0, "review_count": 542, "zip_code": "11217", "cuisineType": "italian", "insertedAtTimestamp": "2022-10-19 21:23:34.315858"}, {"businessID": "iXV4FMZPru7BB_nwN_8mVw", "name": "Maiella", "address": "4610 Center Blvd, Long Island City, NY 11109", "coordinates": "40.7471944,-73.9566640197964", "rating": 4.0, "review_count": 1069, "zip_code": "11109", "cuisineType": "italian", "insertedAtTimestamp": "2022-10-19 21:23:34.519305"}, {"businessID": "r2nIYBSyXny1-7XvsL2PVg", "name": "Lena's Italian Kitchen", "address": "551 2nd Ave, New York, NY 10016", "coordinates": "40.742664,-73.977783", "rating": 4.5, "review_count": 306, "zip_code": "10016", "cuisineType": "italian", "insertedAtTimestamp": "2022-10-19 21:23:34.732351"}, {"businessID": "FQ_9HzcX6_vLFnNIJ30jiA", "name": "Sant Ambroeus Brookfield", "address": "200 Vesey St, New York, NY 10281", "coordinates": "40.713713,-74.014797", "rating": 4.0, "review_count": 68, "zip_code": "10281", "cuisineType": "italian", "insertedAtTimestamp": "2022-10-19 21:23:35.103055"}, {"businessID": "I07F7efWXUTSpi3WgITeFQ", "name": "Beppe Trattoria", "address": "234 W 56th St, New York, NY 10019", "coordinates": "40.76561,-73.98259", "rating": 5.0, "review_count": 19, "zip_code": "10019", "cuisineType": "italian", "insertedAtTimestamp": "2022-10-19 21:23:35.476213"}, {"businessID": "C3E8CVVwzKtOv_sRR1WuRQ", "name": "Salumeria Rosi", "address": "283 Amsterdam Ave, New York, NY 10023", "coordinates": "40.77932,-73.9809", "rating": 4.0, "review_count": 550, "zip_code": "10023", "cuisineType": "italian", "insertedAtTimestamp": "2022-10-19 21:23:35.694261"}, {"businessID": "lgFApPVpbXnsIFw1CRJORw", "name": "Cellini Restaurant", "address": "65 E 54th St, New York, NY 10022", "coordinates": "40.760115,-73.972686", "rating": 4.0, "review_count": 168, "zip_code": "10022", "cuisineType": "italian", "insertedAtTimestamp": "2022-10-19 21:23:35.916318"}, {"businessID": "WIhm0W9197f_rRtDziq5qQ", "name": "Lombardi's Pizza", "address": "32 Spring St, New York, NY 10012", "coordinates": "40.7215934960083,-73.9955956044561", "rating": 4.0, "review_count": 6441, "zip_code": "10012", "cuisineType": "italian", "insertedAtTimestamp": "2022-10-19 21:23:36.152961"}, {"businessID": "xbrQ2dHuQoFJmNxAuOky4A", "name": "Vic's", "address": "31 Great Jones St, New York, NY 10012", "coordinates": "40.72693,-73.99319", "rating": 4.0, "review_count": 543, "zip_code": "10012", "cuisineType": "italian", "insertedAtTimestamp": "2022-10-19 21:23:36.335024"}, {"businessID": "QgClXDNikG0wRpIZ-Rcm7A", "name": "La Devozione", "address": "75 9th Ave, New York, NY 10011", "coordinates": "40.742463072401314,-74.0059581", "rating": 4.0, "review_count": 35, "zip_code": "10011", "cuisineType": "italian", "insertedAtTimestamp": "2022-10-19 21:23:36.527920"}, {"businessID": "MTQpqHo-cCAPK7c9fd6zHw", "name": "Il Mattone", "address": "49 Beach St, New York, NY 10013", "coordinates": "40.720799,-74.0091255", "rating": 4.5, "review_count": 100, "zip_code": "10013", "cuisineType": "italian", "insertedAtTimestamp": "2022-10-19 21:23:36.719994"}, {"businessID": "DJSLGbSqCJ1W8ma3LFlMuw", "name": "Patzeria Perfect Pizza", "address": "231 W 46th St, New York, NY 10036", "coordinates": "40.759494511551836,-73.98673451962638", "rating": 4.0, "review_count": 1758, "zip_code": "10036", "cuisineType": "italian", "insertedAtTimestamp": "2022-10-19 21:23:36.965281"}, {"businessID": "v1M1HIQBVwYatEF_iOmedw", "name": "ViceVersa", "address": "325 W 51st St, New York, NY 10019", "coordinates": "40.7635858415079,-73.9866799425418", "rating": 4.0, "review_count": 286, "zip_code": "10019", "cuisineType": "italian", "insertedAtTimestamp": "2022-10-19 21:23:37.217109"}, {"businessID": "ifIfq2EwEohCgoKnG68_LA", "name": "Villa Berulia", "address": "107 E 34th St, New York, NY 10016", "coordinates": "40.7467827,-73.9806507", "rating": 4.5, "review_count": 186, "zip_code": "10016", "cuisineType": "italian", "insertedAtTimestamp": "2022-10-19 21:23:37.447644"}, {"businessID": "Yubu48l7he-qrNDSeAngbQ", "name": "Via Vai", "address": "31-09 23rd Ave, Astoria, NY 11105", "coordinates": "40.7741502,-73.9123089", "rating": 4.0, "review_count": 238, "zip_code": "11105", "cuisineType": "italian", "insertedAtTimestamp": "2022-10-19 21:23:37.683534"}, {"businessID": "uPe0efNw-uwPybeqccZ1zQ", "name": "Osteria Al Doge", "address": "142 W 44th St, New York, NY 10036", "coordinates": "40.75662,-73.9849", "rating": 4.0, "review_count": 485, "zip_code": "10036", "cuisineType": "italian", "insertedAtTimestamp": "2022-10-19 21:23:37.880810"}, {"businessID": "l7Z0p-PkSwIDPLPY1TRl8A", "name": "Emilio's Ballato", "address": "55 E Houston St, New York, NY 10012", "coordinates": "40.7244923,-73.9944022", "rating": 4.0, "review_count": 454, "zip_code": "10012", "cuisineType": "italian", "insertedAtTimestamp": "2022-10-19 21:23:38.134263"}, {"businessID": "vjj3MMPkULJUCv8xf3XRiA", "name": "San Matteo Takeaway", "address": "1731 2nd Ave, New York, NY 10128", "coordinates": "40.7801684,-73.9502899", "rating": 4.0, "review_count": 164, "zip_code": "10128", "cuisineType": "italian", "insertedAtTimestamp": "2022-10-19 21:23:38.352384"}, {"businessID": "eQdjZQaLnjItmn9suEEeIA", "name": "Patricia's", "address": "1082 Morris Park Ave, Bronx, NY 10461", "coordinates": "40.84912,-73.8533099", "rating": 4.0, "review_count": 588, "zip_code": "10461", "cuisineType": "italian", "insertedAtTimestamp": "2022-10-19 21:23:38.540258"}, {"businessID": "hVqZ4vihjL1gFTD-KdX-Tw", "name": "Gennaro", "address": "665 Amsterdam Ave, New York, NY 10025", "coordinates": "40.79178,-73.9718", "rating": 3.5, "review_count": 416, "zip_code": "10025", "cuisineType": "italian", "insertedAtTimestamp": "2022-10-19 21:23:38.761318"}, {"businessID": "tLZfepIfSf0a80zHQTbTGQ", "name": "Trattoria Zero Otto Nove", "address": "2357 Arthur Ave, Bronx, NY 10458", "coordinates": "40.854779,-73.888474", "rating": 4.0, "review_count": 841, "zip_code": "10458", "cuisineType": "italian", "insertedAtTimestamp": "2022-10-19 21:23:39.179113"}, {"businessID": "R3gSQGB3aEmVpwbKIgOPqg", "name": "Fabio Cucina Italiana", "address": "214 E 52nd St, New York, NY 10022", "coordinates": "40.7565655024,-73.9693792051", "rating": 4.5, "review_count": 363, "zip_code": "10022", "cuisineType": "italian", "insertedAtTimestamp": "2022-10-19 21:23:39.394265"}, {"businessID": "XQKUqU1vPvgnapxmmBI55Q", "name": "Maestro Pasta", "address": "102 MacDougal St, New York, NY 10012", "coordinates": "40.72934,-74.00093", "rating": 4.5, "review_count": 18, "zip_code": "10012", "cuisineType": "italian", "insertedAtTimestamp": "2022-10-19 21:23:39.616658"}, {"businessID": "JBthOvTegHbrLDiVaCAy5Q", "name": "Bigoi Venezia", "address": "1415 2nd Ave, New York, NY 10021", "coordinates": "40.770036,-73.9577755", "rating": 4.5, "review_count": 317, "zip_code": "10021", "cuisineType": "italian", "insertedAtTimestamp": "2022-10-19 21:23:39.819272"}, {"businessID": "rJ9V5bMbP_e9ABaTkPjAbA", "name": "Coco Pazzeria", "address": "1078 First Ave., New York, NY 10022", "coordinates": "40.7557292,-73.9645808", "rating": 4.0, "review_count": 59, "zip_code": "10022", "cuisineType": "italian", "insertedAtTimestamp": "2022-10-19 21:23:40.003531"}, {"businessID": "muX5xoh3aOleCrSja_T_FA", "name": "IL Tavolo di\u2019 Palmisano", "address": "700 Clinton St, Hoboken, NJ 07030", "coordinates": "40.74571,-74.03346", "rating": 4.5, "review_count": 195, "zip_code": "07030", "cuisineType": "italian", "insertedAtTimestamp": "2022-10-19 21:23:40.193198"}, {"businessID": "4ixWiPyYysS2i8LAg4qzrQ", "name": "La Villetta", "address": "398 E 52nd St, New York, NY 10022", "coordinates": "40.7549171,-73.9650879", "rating": 4.0, "review_count": 101, "zip_code": "10022", "cuisineType": "italian", "insertedAtTimestamp": "2022-10-19 21:23:40.444847"}, {"businessID": "pP4oS09iOB6qMaX3GkKSuQ", "name": "Avena UES", "address": "22 E 66th St, New York, NY 10065", "coordinates": "40.767957,-73.968759", "rating": 4.0, "review_count": 37, "zip_code": "10065", "cuisineType": "italian", "insertedAtTimestamp": "2022-10-19 21:23:40.661696"}, {"businessID": "oUVX94JtKyLPXozC2hemCg", "name": "Manetta's Ristorante", "address": "1076 Jackson Ave, Long Island City, NY 11101", "coordinates": "40.7427,-73.95184", "rating": 4.0, "review_count": 433, "zip_code": "11101", "cuisineType": "italian", "insertedAtTimestamp": "2022-10-19 21:23:41.864716"}, {"businessID": "pC_QwLpeL2Enk4hBgDcRqQ", "name": "Da Marino", "address": "220 W 49th St, New York, NY 10019", "coordinates": "40.76102,-73.98526", "rating": 4.0, "review_count": 624, "zip_code": "10019", "cuisineType": "italian", "insertedAtTimestamp": "2022-10-19 21:23:42.051105"}, {"businessID": "uPWyvfh5qSrVbujhjsDiiw", "name": "Oregano", "address": "102 Berry St, Brooklyn, NY 11249", "coordinates": "40.7190165,-73.9586248", "rating": 4.0, "review_count": 478, "zip_code": "11249", "cuisineType": "italian", "insertedAtTimestamp": "2022-10-19 21:23:42.266508"}, {"businessID": "H5L18XZRHh_13HaeeHH_sQ", "name": "Casa Di Napoli", "address": "703 32nd St, Union City, NJ 07087", "coordinates": "40.773718,-74.0306062996387", "rating": 4.5, "review_count": 145, "zip_code": "07087", "cuisineType": "italian", "insertedAtTimestamp": "2022-10-19 21:23:42.452728"}, {"businessID": "9mawr6QwVHm5q8JRXPFjPA", "name": "San Marino Ristorante", "address": "66 Charlton St, New York, NY 10014", "coordinates": "40.72697,-74.00611", "rating": 4.5, "review_count": 189, "zip_code": "10014", "cuisineType": "italian", "insertedAtTimestamp": "2022-10-19 21:23:42.743537"}, {"businessID": "MH08_pIRKsUSwfkVYxUE7w", "name": "Vinater\u00eda", "address": "2211 Frederick Douglass Blvd, Harlem, NY 10026", "coordinates": "40.80668,-73.95395", "rating": 4.0, "review_count": 581, "zip_code": "10026", "cuisineType": "italian", "insertedAtTimestamp": "2022-10-19 21:23:42.968116"}, {"businessID": "HodL0fXoF08C3Ir-kLeTtw", "name": "Forma Pasta Factory", "address": "14 Bedford Ave, Brooklyn, NY 11222", "coordinates": "40.72371,-73.95157", "rating": 4.5, "review_count": 448, "zip_code": "11222", "cuisineType": "italian", "insertedAtTimestamp": "2022-10-19 21:23:43.220155"}, {"businessID": "YFvF4r2D-wJOgJAOvanaZQ", "name": "Gnoccheria By Luzzo's", "address": "234 E 4th St, New York, NY 10009", "coordinates": "40.723315,-73.983139", "rating": 4.0, "review_count": 500, "zip_code": "10009", "cuisineType": "italian", "insertedAtTimestamp": "2022-10-19 21:23:43.421859"}, {"businessID": "Dng_LID2JNnc6M6A1FB19Q", "name": "Come Prima Ristorante", "address": "903 Madison Ave, New York, NY 10021", "coordinates": "40.7721165011105,-73.965037390213", "rating": 4.5, "review_count": 99, "zip_code": "10021", "cuisineType": "italian", "insertedAtTimestamp": "2022-10-19 21:23:43.751663"}, {"businessID": "YoLxK5EG8UgnueKAe7hj0g", "name": "I Sodi", "address": "105 Christopher St, New York, NY 10014", "coordinates": "40.7334747314453,-74.005012512207", "rating": 3.5, "review_count": 447, "zip_code": "10014", "cuisineType": "italian", "insertedAtTimestamp": "2022-10-19 21:23:43.960275"}, {"businessID": "LfRiA6RORToZUSJUHkZBVA", "name": "Frankies 457 Spuntino", "address": "457 Court St, Brooklyn, NY 11231", "coordinates": "40.677328,-73.997972", "rating": 4.0, "review_count": 875, "zip_code": "11231", "cuisineType": "italian", "insertedAtTimestamp": "2022-10-19 21:23:44.159593"}, {"businessID": "1AL6P_EC6Z3UPxqhfGFb3Q", "name": "Pasta by Hudson", "address": "180 7th Ave, New York, NY 10011", "coordinates": "40.7427486,-73.9969892", "rating": 4.5, "review_count": 96, "zip_code": "10011", "cuisineType": "italian", "insertedAtTimestamp": "2022-10-19 21:23:44.374815"}, {"businessID": "qYDoWRdntIApGW6fEUHWIQ", "name": "biricchino", "address": "260 W 29th St, New York, NY 10001", "coordinates": "40.7488743961,-73.9954839431414", "rating": 4.0, "review_count": 150, "zip_code": "10001", "cuisineType": "italian", "insertedAtTimestamp": "2022-10-19 21:23:44.575843"}, {"businessID": "gqTikTCIS01E2m20PzHoDQ", "name": "Tarallucci e Vino - East Village", "address": "163 1st Ave, New York, NY 10003", "coordinates": "40.72901,-73.98469", "rating": 4.0, "review_count": 301, "zip_code": "10003", "cuisineType": "italian", "insertedAtTimestamp": "2022-10-19 21:23:44.791033"}, {"businessID": "TsYrzVVtkKO4Asrk_L9stw", "name": "Parm - New York", "address": "235 Columbus Ave, New York, NY 10023", "coordinates": "40.7764333,-73.9794019", "rating": 3.5, "review_count": 664, "zip_code": "10023", "cuisineType": "italian", "insertedAtTimestamp": "2022-10-19 21:23:44.998631"}, {"businessID": "15d_Y6TVOQFD2KRVkxuAjw", "name": "Baci & Abbracci", "address": "204 Grand St, Brooklyn, NY 11211", "coordinates": "40.7139015197754,-73.96044921875", "rating": 4.0, "review_count": 345, "zip_code": "11211", "cuisineType": "italian", "insertedAtTimestamp": "2022-10-19 21:23:45.220111"}, {"businessID": "5CuYWr0-cE01HxlBu5Ka6g", "name": "Carne Mare", "address": "89 South St, Pier 17, New York, NY 10038", "coordinates": "40.70568649199326,-74.00218961453646", "rating": 4.5, "review_count": 124, "zip_code": "10038", "cuisineType": "italian", "insertedAtTimestamp": "2022-10-19 21:23:45.480939"}, {"businessID": "5zcZZJhriNQ2R92r9drxug", "name": "Il Postino", "address": "133 E 61st St, New York, NY 10065", "coordinates": "40.76374,-73.96763", "rating": 3.5, "review_count": 140, "zip_code": "10065", "cuisineType": "italian", "insertedAtTimestamp": "2022-10-19 21:23:45.684882"}, {"businessID": "TcSy5I5xHKDK0Uf5_cLOew", "name": "Cotto", "address": "112 W 25th St, New York, NY 10001", "coordinates": "40.74434072498067,-73.9926957", "rating": 3.5, "review_count": 16, "zip_code": "10001", "cuisineType": "italian", "insertedAtTimestamp": "2022-10-19 21:23:46.058827"}, {"businessID": "_N92SH1Zi-Hbxn_bNHFz0Q", "name": "Noodle Pudding", "address": "38 Henry St, Brooklyn, NY 11201", "coordinates": "40.69979,-73.99203", "rating": 4.0, "review_count": 603, "zip_code": "11201", "cuisineType": "italian", "insertedAtTimestamp": "2022-10-19 21:23:46.269567"}, {"businessID": "4WDHrSodF1Xidv9ezS6Sgg", "name": "Tuscany Steakhouse", "address": "117 W 58th St, New York, NY 10019", "coordinates": "40.76546,-73.97724", "rating": 4.5, "review_count": 192, "zip_code": "10019", "cuisineType": "italian", "insertedAtTimestamp": "2022-10-19 21:23:46.462278"}, {"businessID": "e6ic-qLMcaQLrAnHn2jgTw", "name": "La Pecora Bianca", "address": "54 Prince St, New York, NY 10012", "coordinates": "40.72346,-73.9963118", "rating": 4.0, "review_count": 163, "zip_code": "10012", "cuisineType": "italian", "insertedAtTimestamp": "2022-10-19 21:23:46.659068"}, {"businessID": "cGqMEMQFtkB3hIGfLy2R3A", "name": "Bar Pitti", "address": "268 Ave Of The Americas, New York, NY 10014", "coordinates": "40.729047,-74.002153", "rating": 3.5, "review_count": 1187, "zip_code": "10014", "cuisineType": "italian", "insertedAtTimestamp": "2022-10-19 21:23:46.845800"}, {"businessID": "1ZKbUeFAs0ltSnAYq4ELKw", "name": "Trattoria L'incontro", "address": "21-76 31st St, Astoria, NY 11105", "coordinates": "40.77648209257472,-73.91059675544598", "rating": 4.5, "review_count": 1062, "zip_code": "11105", "cuisineType": "italian", "insertedAtTimestamp": "2022-10-19 21:23:47.052284"}, {"businessID": "kvWSD8qHKugLcmDsNBMdfQ", "name": "Paola's Osteria", "address": "1246 Madison Ave, New York, NY 10128", "coordinates": "40.78318,-73.9573", "rating": 4.0, "review_count": 65, "zip_code": "10128", "cuisineType": "italian", "insertedAtTimestamp": "2022-10-19 21:23:47.247847"}, {"businessID": "25npnVAlhRjguunYS8zy8w", "name": "Piccola Strada", "address": "77 E 4th St, New York, NY 10003", "coordinates": "40.72662,-73.99019", "rating": 4.5, "review_count": 221, "zip_code": "10003", "cuisineType": "italian", "insertedAtTimestamp": "2022-10-19 21:23:47.454619"}, {"businessID": "jku9Fg8JsUbv_LQzg6PK4g", "name": "Lavagna", "address": "545 E 5th St, New York, NY 10009", "coordinates": "40.72406,-73.98226", "rating": 4.0, "review_count": 419, "zip_code": "10009", "cuisineType": "italian", "insertedAtTimestamp": "2022-10-19 21:23:47.641795"}, {"businessID": "Jnniww9fw6-hM1M7xHOISw", "name": "Fiaschetteria Pistoia", "address": "167 7th Ave S, New York, NY 10014", "coordinates": "40.7357217052629,-74.001515265385", "rating": 4.5, "review_count": 29, "zip_code": "10014", "cuisineType": "italian", "insertedAtTimestamp": "2022-10-19 21:23:47.849968"}, {"businessID": "ry0nAQiUn8bpNAruY_5wfw", "name": "Scalino", "address": "659 Manhattan Ave, Brooklyn, NY 11222", "coordinates": "40.7244699,-73.95151", "rating": 4.5, "review_count": 290, "zip_code": "11222", "cuisineType": "italian", "insertedAtTimestamp": "2022-10-19 21:23:48.055540"}, {"businessID": "C3OlQ_y5LcgboyaKlpETYA", "name": "Trattoria Casa Di Isacco", "address": "536 9th Ave, New York, NY 10018", "coordinates": "40.75686,-73.99356", "rating": 4.0, "review_count": 359, "zip_code": "10018", "cuisineType": "italian", "insertedAtTimestamp": "2022-10-19 21:23:48.274897"}, {"businessID": "X8Hl9OezX-Yr9Jir3fsF7g", "name": "POSTO NYCThinCrust Pizza", "address": "310 2nd Ave, New York, NY 10003", "coordinates": "40.73483,-73.98282", "rating": 4.0, "review_count": 655, "zip_code": "10003", "cuisineType": "italian", "insertedAtTimestamp": "2022-10-19 21:23:48.468804"}, {"businessID": "-Td-YEPTOUq2H3LRWgRxUw", "name": "Non Solo Piada", "address": "302 W 37th St, New York, NY 10018", "coordinates": "40.75414,-73.99245", "rating": 4.5, "review_count": 393, "zip_code": "10018", "cuisineType": "italian", "insertedAtTimestamp": "2022-10-19 21:23:48.698940"}, {"businessID": "6zxulornYzrZtafE6EgqUQ", "name": "Osteria Accademia", "address": "646 Amsterdam Ave, New York, NY 10025", "coordinates": "40.791287,-73.972777", "rating": 4.0, "review_count": 2, "zip_code": "10025", "cuisineType": "italian", "insertedAtTimestamp": "2022-10-19 21:23:48.927652"}, {"businessID": "e4L0hsq6Q96mV2nKQ9CgNQ", "name": "Tramonti Fifth Ave", "address": "2 W 28th St, New York, NY 10001", "coordinates": "40.74475,-73.98772", "rating": 4.5, "review_count": 53, "zip_code": "10001", "cuisineType": "italian", "insertedAtTimestamp": "2022-10-19 21:23:49.098405"}, {"businessID": "F89nDDlYZ7wbRe8EpLCqBw", "name": "Avra 48th Street", "address": "141 E 48th St, New York, NY 10017", "coordinates": "40.755048569901554,-73.97243859999999", "rating": 4.0, "review_count": 976, "zip_code": "10017", "cuisineType": "italian", "insertedAtTimestamp": "2022-10-19 21:23:49.322067"}, {"businessID": "7Tu5l9UfWVi_v3m4TwJAxQ", "name": "Caffe dei Fiori", "address": "973 Lexington Ave, New York, NY 10021", "coordinates": "40.76935,-73.9627", "rating": 4.5, "review_count": 84, "zip_code": "10021", "cuisineType": "italian", "insertedAtTimestamp": "2022-10-19 21:23:49.542996"}, {"businessID": "kLJfizeHMQqesp1K9mfUtg", "name": "Via Quadronno", "address": "25 E 73rd St, New York, NY 10021", "coordinates": "40.77277,-73.96514", "rating": 4.0, "review_count": 596, "zip_code": "10021", "cuisineType": "italian", "insertedAtTimestamp": "2022-10-19 21:23:49.770888"}, {"businessID": "LRgB2kEKtBxqIxNksTO_PQ", "name": "Patrizia's - Williamsburg", "address": "35 Broadway, Brooklyn, NY 11249", "coordinates": "40.7109154314181,-73.9673637711639", "rating": 4.0, "review_count": 768, "zip_code": "11249", "cuisineType": "italian", "insertedAtTimestamp": "2022-10-19 21:23:49.968716"}, {"businessID": "Ei5qjq0qmfNLkdVoO-S5Tw", "name": "Raffetto's", "address": "144 W Houston St, New York, NY 10012", "coordinates": "40.72816,-74.00172", "rating": 4.5, "review_count": 245, "zip_code": "10012", "cuisineType": "italian", "insertedAtTimestamp": "2022-10-19 21:23:50.159546"}, {"businessID": "00V7oJIc_wZKM2cjGrL1HQ", "name": "Bar Cicchetti by Fabio Viviani", "address": "113 W 24th St, New York, NY 10011", "coordinates": "40.743973307837564,-73.99300677914937", "rating": 4.0, "review_count": 29, "zip_code": "10011", "cuisineType": "italian", "insertedAtTimestamp": "2022-10-19 21:23:50.381097"}, {"businessID": "ntQ7O1YPMIOrQkynhXRBVg", "name": "Manducatis", "address": "13-27 Jackson Ave, Long Island City, NY 11101", "coordinates": "40.7445948529884,-73.9490695847509", "rating": 4.0, "review_count": 157, "zip_code": "11101", "cuisineType": "italian", "insertedAtTimestamp": "2022-10-19 21:23:50.576927"}, {"businessID": "yi6jIxzHo-nbAOG4KWuqcw", "name": "Maialino", "address": "30 E 30th St, The Redbury New York, New York, NY 10016", "coordinates": "40.7448869,-73.984231", "rating": 4.0, "review_count": 1401, "zip_code": "10016", "cuisineType": "italian", "insertedAtTimestamp": "2022-10-19 21:23:50.847749"}, {"businessID": "fH8DkdRerw5LJ7fZZHRfeA", "name": "Leuca", "address": "111 N 12th St, The William Vale Hotel, Brooklyn, NY 11249", "coordinates": "40.722121,-73.956678", "rating": 4.0, "review_count": 398, "zip_code": "11249", "cuisineType": "italian", "insertedAtTimestamp": "2022-10-19 21:23:51.085529"}, {"businessID": "qLYloGaI-4OmLbNnr_wrGA", "name": "Castell Rooftop Lounge", "address": "260 W 40th St, Fl 21, New York, NY 10018", "coordinates": "40.75558,-73.99012", "rating": 4.0, "review_count": 211, "zip_code": "10018", "cuisineType": "italian", "insertedAtTimestamp": "2022-10-19 21:23:51.255587"}, {"businessID": "aSprnLY-6GkMk1cuv0TMeA", "name": "Al Di La Trattoria", "address": "248 5th Ave, Brooklyn, NY 11215", "coordinates": "40.675332643247,-73.981340475038", "rating": 4.0, "review_count": 939, "zip_code": "11215", "cuisineType": "italian", "insertedAtTimestamp": "2022-10-19 21:23:52.569028"}, {"businessID": "foRWizWrQ32g6Vv4g9UTnA", "name": "Nocciola Ristorante", "address": "237 E 116th St, New York, NY 10029", "coordinates": "40.797525,-73.938393", "rating": 4.0, "review_count": 256, "zip_code": "10029", "cuisineType": "italian", "insertedAtTimestamp": "2022-10-19 21:23:52.804770"}, {"businessID": "b42PcC1nCP602fiXF0a9Xg", "name": "Barbalu Restaurant", "address": "225-227 Front St, New York, NY 10038", "coordinates": "40.7074747,-74.0020404", "rating": 4.0, "review_count": 335, "zip_code": "10038", "cuisineType": "italian", "insertedAtTimestamp": "2022-10-19 21:23:53.216822"}, {"businessID": "hot1lIebdQNau05onRum7w", "name": "Otto Strada", "address": "743 Park Ave, Hoboken, NJ 07030", "coordinates": "40.7466038915745,-74.0311605558891", "rating": 4.0, "review_count": 397, "zip_code": "07030", "cuisineType": "italian", "insertedAtTimestamp": "2022-10-19 21:23:53.417352"}, {"businessID": "7AknGS1qVEyq_pHfmjkZtg", "name": "Wolf at Nordstrom NYC", "address": "225 W 57th St, New York, NY 10019", "coordinates": "40.7661522,-73.9811393", "rating": 4.5, "review_count": 100, "zip_code": "10019", "cuisineType": "italian", "insertedAtTimestamp": "2022-10-19 21:23:53.631709"}, {"businessID": "HSKcCmRFqzqG542Hy_eftw", "name": "Siena Cafe", "address": "1580 3rd Ave, New York, NY 10128", "coordinates": "40.78073,-73.953", "rating": 3.5, "review_count": 275, "zip_code": "10128", "cuisineType": "italian", "insertedAtTimestamp": "2022-10-19 21:23:53.852197"}, {"businessID": "WNOUPEZ6J8SZVSaK6Q3e-A", "name": "Porto By Antonio", "address": "8921 Old River Rd, North Bergen, NJ 07047", "coordinates": "40.8048834508642,-73.9934416639218", "rating": 4.5, "review_count": 881, "zip_code": "07047", "cuisineType": "italian", "insertedAtTimestamp": "2022-10-19 21:23:54.072413"}, {"businessID": "mlm40NxsVJUPnh3LTayaaw", "name": "Kimika", "address": "40 Kenmare St, New York, NY 10012", "coordinates": "40.720572,-73.995206", "rating": 4.0, "review_count": 303, "zip_code": "10012", "cuisineType": "italian", "insertedAtTimestamp": "2022-10-19 21:23:54.658461"}, {"businessID": "J0SZjwe0Rc-H6mzl0oByxQ", "name": "Mimi's Italian Restaurant & Piano Bar", "address": "984 2nd Ave, New York, NY 10022", "coordinates": "40.75611,-73.96728", "rating": 3.5, "review_count": 352, "zip_code": "10022", "cuisineType": "italian", "insertedAtTimestamp": "2022-10-19 21:23:55.042372"}, {"businessID": "nM2AdRp2iSJHi4MgvIrEBg", "name": "Oak Tuscan Truffle Lounge", "address": "28 Greenwich Ave, New York, NY 10011", "coordinates": "40.735042,-74.00002", "rating": 4.5, "review_count": 136, "zip_code": "10011", "cuisineType": "italian", "insertedAtTimestamp": "2022-10-19 21:23:55.384653"}, {"businessID": "mPHPVJ2-8mOR-lFHafrc6w", "name": "Evelina", "address": "211 Dekalb Ave, Brooklyn, NY 11205", "coordinates": "40.689722,-73.971003", "rating": 4.5, "review_count": 291, "zip_code": "11205", "cuisineType": "italian", "insertedAtTimestamp": "2022-10-19 21:23:55.585467"}, {"businessID": "X-0X9nR9tnCTW3bXJzA09Q", "name": "Bice Cucina SoHo", "address": "15 Watts St, New York, NY 10013", "coordinates": "40.72331516224319,-74.00369232044905", "rating": 4.5, "review_count": 20, "zip_code": "10013", "cuisineType": "italian", "insertedAtTimestamp": "2022-10-19 21:23:55.832400"}, {"businessID": "UjzSeETESWzramhdOdWKKQ", "name": "Tartina", "address": "1034 Amsterdam Ave, New York, NY 10025", "coordinates": "40.8035073,-73.9636591", "rating": 4.0, "review_count": 309, "zip_code": "10025", "cuisineType": "italian", "insertedAtTimestamp": "2022-10-19 21:23:56.052538"}, {"businessID": "B2X53VuOuLyXe0OsGY-ZzA", "name": "La Pecora Bianca", "address": "817 Washington St, New York, NY 10014", "coordinates": "40.73959,-74.00775", "rating": 4.5, "review_count": 21, "zip_code": "10014", "cuisineType": "italian", "insertedAtTimestamp": "2022-10-19 21:23:56.509610"}, {"businessID": "na-2_gQCY7ccS2ZkLJDumQ", "name": "Waldy's Wood Fired Pizza & Penne", "address": "800 6th Ave, New York, NY 10001", "coordinates": "40.7457666039821,-73.9906402533629", "rating": 4.0, "review_count": 860, "zip_code": "10001", "cuisineType": "italian", "insertedAtTimestamp": "2022-10-19 21:23:56.720684"}, {"businessID": "iutTifH0Xy0UkN86vEvV2Q", "name": "Aria Wine Bar", "address": "14 Bedford St, West Village, New York, NY 10014", "coordinates": "40.7290058570751,-74.0033128150578", "rating": 4.5, "review_count": 38, "zip_code": "10014", "cuisineType": "italian", "insertedAtTimestamp": "2022-10-19 21:23:56.963556"}, {"businessID": "clOFor0bFSjse7EUfdRacg", "name": "Faro", "address": "436 Jefferson St, Brooklyn, NY 11237", "coordinates": "40.707407,-73.922839", "rating": 4.0, "review_count": 316, "zip_code": "11237", "cuisineType": "italian", "insertedAtTimestamp": "2022-10-19 21:23:57.215690"}, {"businessID": "pP92FmGKpH5nQfaPXMfQAg", "name": "Mollusca", "address": "1 Little W 12th St, New York, NY 10014", "coordinates": "40.7396062,-74.005997", "rating": 4.0, "review_count": 47, "zip_code": "10014", "cuisineType": "italian", "insertedAtTimestamp": "2022-10-19 21:23:57.423612"}, {"businessID": "QhRQE6nOMLd00kV2k-IsbQ", "name": "Augustino's", "address": "1104 Washington St, Hoboken, NJ 07030", "coordinates": "40.75024,-74.02732", "rating": 4.0, "review_count": 355, "zip_code": "07030", "cuisineType": "italian", "insertedAtTimestamp": "2022-10-19 21:23:57.616840"}, {"businessID": "WEhkGLKlj-5X1pq_07Syaw", "name": "Vesta", "address": "21-02 30th Ave, Astoria, NY 11102", "coordinates": "40.76961,-73.92776", "rating": 4.5, "review_count": 740, "zip_code": "11102", "cuisineType": "italian", "insertedAtTimestamp": "2022-10-19 21:23:58.076892"}, {"businessID": "gTEoEsssfbjl76Opf5bP9g", "name": "L'Amico NYC", "address": "849 6th Ave, Eventi Hotel, New York, NY 10001", "coordinates": "40.7471761,-73.9898915", "rating": 3.5, "review_count": 523, "zip_code": "10001", "cuisineType": "italian", "insertedAtTimestamp": "2022-10-19 21:23:58.325506"}, {"businessID": "vFsjObMTImsnM_DzVo4N3g", "name": "Bocca Cucina and Bar", "address": "39 E 19th St, New York, NY 10003", "coordinates": "40.73826,-73.98886", "rating": 4.0, "review_count": 436, "zip_code": "10003", "cuisineType": "italian", "insertedAtTimestamp": "2022-10-19 21:23:58.557057"}, {"businessID": "3FJjOq78eeqakDCsJHqJug", "name": "Sotto La Luna", "address": "34-39 31st St, Astoria, NY 11106", "coordinates": "40.75821891908545,-73.92818819919232", "rating": 4.5, "review_count": 53, "zip_code": "11106", "cuisineType": "italian", "insertedAtTimestamp": "2022-10-19 21:23:58.744741"}, {"businessID": "DtnlLLvcqeEUIyZTypHnzw", "name": "Il Mulino New York - Downtown", "address": "86 W 3rd St, New York, NY 10012", "coordinates": "40.729807,-73.999159", "rating": 4.0, "review_count": 602, "zip_code": "10012", "cuisineType": "italian", "insertedAtTimestamp": "2022-10-19 21:23:58.992936"}, {"businessID": "wOq-Jt26jnFf_rhF4r5D6w", "name": "Scampi", "address": "30 W 18th St, New York, NY 10011", "coordinates": "40.73902,-73.99358", "rating": 4.0, "review_count": 320, "zip_code": "10011", "cuisineType": "italian", "insertedAtTimestamp": "2022-10-19 21:23:59.147646"}, {"businessID": "IEb99GmOvg585gmwmm4iNA", "name": "Azalea Ristorante", "address": "224 W 51st St, New York, NY 10019", "coordinates": "40.76284953588084,-73.98522287224887", "rating": 4.0, "review_count": 315, "zip_code": "10019", "cuisineType": "italian", "insertedAtTimestamp": "2022-10-19 21:23:59.361154"}, {"businessID": "-KrQ1gOiyXCbffsWyc5SNQ", "name": "The Leopard at des Artistes", "address": "1 W 67th St, New York, NY 10023", "coordinates": "40.773515,-73.978841", "rating": 4.0, "review_count": 265, "zip_code": "10023", "cuisineType": "italian", "insertedAtTimestamp": "2022-10-19 21:23:59.560708"}, {"businessID": "iEUXrUUqGfUhpgYYSr5Zig", "name": "Da Nico Ristorante", "address": "164 Mulberry St, New York, NY 10013", "coordinates": "40.71963,-73.99691", "rating": 4.0, "review_count": 950, "zip_code": "10013", "cuisineType": "italian", "insertedAtTimestamp": "2022-10-19 21:23:59.762153"}, {"businessID": "aLM9irVFlNoVlS9dGuW_Lg", "name": "Amata", "address": "209 E 56th St, New York, NY 10022", "coordinates": "40.759426,-73.967063", "rating": 4.0, "review_count": 91, "zip_code": "10022", "cuisineType": "italian", "insertedAtTimestamp": "2022-10-19 21:24:00.024140"}, {"businessID": "blaTQKod-nz94F3Fm_ZoYQ", "name": "Osteria Laura", "address": "1890 Adam Clayton Powell Jr Blvd, New York, NY 10026", "coordinates": "40.80251,-73.95355", "rating": 4.5, "review_count": 48, "zip_code": "10026", "cuisineType": "italian", "insertedAtTimestamp": "2022-10-19 21:24:00.227212"}, {"businessID": "PajKY49h4SpvSr-TW3lwCQ", "name": "Rafele Ristorante", "address": "29 7th Ave S, New York, NY 10014", "coordinates": "40.7309471231405,-74.0041171779098", "rating": 4.0, "review_count": 511, "zip_code": "10014", "cuisineType": "italian", "insertedAtTimestamp": "2022-10-19 21:24:01.531666"}, {"businessID": "MPblH3J1kpbNGL4C4U7RAQ", "name": "IL Carino Restaurant", "address": "1710 2nd Ave, New York, NY 10128", "coordinates": "40.77945,-73.95019", "rating": 4.0, "review_count": 108, "zip_code": "10128", "cuisineType": "italian", "insertedAtTimestamp": "2022-10-19 21:24:01.747278"}, {"businessID": "rJfGgBleDYCVq2rkBr_w-Q", "name": "Barano", "address": "26 Broadway, Brooklyn, NY 11249", "coordinates": "40.710372,-73.96794", "rating": 4.5, "review_count": 305, "zip_code": "11249", "cuisineType": "italian", "insertedAtTimestamp": "2022-10-19 21:24:01.983203"}, {"businessID": "Tp3MF3DNXuW41A10PQ2nFw", "name": "Amali NYC", "address": "115 E 60th St, New York, NY 10022", "coordinates": "40.7633557384716,-73.9686296877489", "rating": 4.0, "review_count": 484, "zip_code": "10022", "cuisineType": "italian", "insertedAtTimestamp": "2022-10-19 21:24:02.147584"}, {"businessID": "5ZEFbq_AQV5VQFG2JKYzlA", "name": "Giorgio's of Gramercy", "address": "27 E 21st St, New York, NY 10010", "coordinates": "40.7394209879325,-73.9885425567627", "rating": 4.0, "review_count": 803, "zip_code": "10010", "cuisineType": "italian", "insertedAtTimestamp": "2022-10-19 21:24:02.552284"}, {"businessID": "FhXjAc6nKLf414KxYujUHw", "name": "Roberta's", "address": "261 Moore St, Brooklyn, NY 11206", "coordinates": "40.70493,-73.93399", "rating": 4.0, "review_count": 3188, "zip_code": "11206", "cuisineType": "italian", "insertedAtTimestamp": "2022-10-19 21:24:02.816170"}, {"businessID": "-8_vEcBA2Lqd8786S-Ss-g", "name": "Novita Restaurant", "address": "102 E 22nd St, New York, NY 10010", "coordinates": "40.73918,-73.98629", "rating": 4.0, "review_count": 411, "zip_code": "10010", "cuisineType": "italian", "insertedAtTimestamp": "2022-10-19 21:24:03.030386"}, {"businessID": "CAGAWbPE8uPr2VVvEnv0ZA", "name": "Ribalta Pizza", "address": "48 E 12th St, New York, NY 10003", "coordinates": "40.7334346,-73.9916923", "rating": 4.0, "review_count": 707, "zip_code": "10003", "cuisineType": "italian", "insertedAtTimestamp": "2022-10-19 21:24:03.255218"}, {"businessID": "6AWiJUeP4FINQF48az-bkQ", "name": "Pasta Eater", "address": "9 E 17th St, New York, NY 10003", "coordinates": "40.73765,-73.99134", "rating": 4.0, "review_count": 183, "zip_code": "10003", "cuisineType": "italian", "insertedAtTimestamp": "2022-10-19 21:24:03.455736"}, {"businessID": "zuB6VRXwj3QzTh9x-nQIRQ", "name": "Il Fiorista", "address": "17 W 26th St, New York, NY 10010", "coordinates": "40.744174968132405,-73.9895829", "rating": 4.0, "review_count": 91, "zip_code": "10010", "cuisineType": "italian", "insertedAtTimestamp": "2022-10-19 21:24:03.656123"}, {"businessID": "HY9Ij1zQGS5R3xU1OlFENA", "name": "Piemonte Home Made Ravioli", "address": "190 Grand St, New York, NY 10013", "coordinates": "40.71947,-73.997001", "rating": 4.5, "review_count": 86, "zip_code": "10013", "cuisineType": "italian", "insertedAtTimestamp": "2022-10-19 21:24:03.837963"}, {"businessID": "OWAfPuMnSqn7Ru1_RNH8fw", "name": "Aria Hell's Kitchen", "address": "369 51st St, New York, NY 10019", "coordinates": "40.76413,-73.98826", "rating": 3.5, "review_count": 463, "zip_code": "10019", "cuisineType": "italian", "insertedAtTimestamp": "2022-10-19 21:24:04.077197"}, {"businessID": "lhLk3IWpFtEkziTLnGkvVA", "name": "Ainslie", "address": "199 Bowery, New York, NY 10002", "coordinates": "40.72104,-73.99326", "rating": 4.5, "review_count": 4, "zip_code": "10002", "cuisineType": "italian", "insertedAtTimestamp": "2022-10-19 21:24:04.295466"}, {"businessID": "LSOpxBBa217HxnJ7VnY2WQ", "name": "Il Violino", "address": "180 Columbus Ave, New York, NY 10023", "coordinates": "40.775012,-73.980736", "rating": 3.5, "review_count": 318, "zip_code": "10023", "cuisineType": "italian", "insertedAtTimestamp": "2022-10-19 21:24:04.483836"}, {"businessID": "m3PS0tIaa0ChcP8Y5S-DrQ", "name": "MAMA'S TOO!", "address": "2750 Broadway, New York, NY 10025", "coordinates": "40.80084,-73.96766", "rating": 3.5, "review_count": 575, "zip_code": "10025", "cuisineType": "italian", "insertedAtTimestamp": "2022-10-19 21:24:04.721726"}, {"businessID": "OLa3-KQO9rHjswo55E3Jgg", "name": "Trattoria La Sorrentina", "address": "7831 Bergenline Ave, North Bergen, NJ 07047", "coordinates": "40.80174,-74.00698", "rating": 4.5, "review_count": 631, "zip_code": "07047", "cuisineType": "italian", "insertedAtTimestamp": "2022-10-19 21:24:04.938003"}, {"businessID": "4K0doiBddco60kl0W04a3Q", "name": "Il Forno Hell's Kitchen", "address": "709  8th Ave, New York, NY 10036", "coordinates": "40.7591217147251,-73.988647715231", "rating": 3.5, "review_count": 288, "zip_code": "10036", "cuisineType": "italian", "insertedAtTimestamp": "2022-10-19 21:24:05.171726"}, {"businessID": "EBK0OkVMBg_n_KxAU_4DZg", "name": "Double Zero", "address": "65 2nd Ave, New York, NY 10003", "coordinates": "40.7261288,-73.9896645", "rating": 4.5, "review_count": 593, "zip_code": "10003", "cuisineType": "italian", "insertedAtTimestamp": "2022-10-19 21:24:05.392780"}, {"businessID": "ysqgdbSrezXgVwER2kQWKA", "name": "Juliana's", "address": "19 Old Fulton St, Brooklyn, NY 11201", "coordinates": "40.70274718768062,-73.99343490196397", "rating": 4.5, "review_count": 2537, "zip_code": "11201", "cuisineType": "italian", "insertedAtTimestamp": "2022-10-19 21:24:05.735163"}, {"businessID": "VCaE8QSCAIThGbMq80nFYg", "name": "Harry's Table", "address": "235 Freedom Pl S, Waterline Sq, New York, NY 10019", "coordinates": "40.7730207,-73.9910077", "rating": 3.0, "review_count": 35, "zip_code": "10019", "cuisineType": "italian", "insertedAtTimestamp": "2022-10-19 21:24:05.958621"}, {"businessID": "rupPZLhd0oRSAmVDaeYaGA", "name": "Bocca di Bacco Hell's Kitchen", "address": "836 9th Ave, New York, NY 10019", "coordinates": "40.7662168,-73.9867943", "rating": 3.5, "review_count": 678, "zip_code": "10019", "cuisineType": "italian", "insertedAtTimestamp": "2022-10-19 21:24:06.152886"}, {"businessID": "6aVgixwks8EgirE1JtyDAQ", "name": "John's of 12th Street", "address": "302 E 12th St, New York, NY 10003", "coordinates": "40.730685,-73.985502", "rating": 4.0, "review_count": 820, "zip_code": "10003", "cuisineType": "italian", "insertedAtTimestamp": "2022-10-19 21:24:06.379768"}, {"businessID": "fmdEiai0e4agyTEqFUWJmw", "name": "Amarone NY", "address": "686 9th Ave, Ste 1, New York, NY 10036", "coordinates": "40.7617199,-73.99002", "rating": 4.0, "review_count": 343, "zip_code": "10036", "cuisineType": "italian", "insertedAtTimestamp": "2022-10-19 21:24:06.568507"}, {"businessID": "GnaeBuilZb_fU01v3wNhZw", "name": "Grimaldi's", "address": "411 Washington St, Hoboken, NJ 07030", "coordinates": "40.74131,-74.02953", "rating": 4.0, "review_count": 449, "zip_code": "07030", "cuisineType": "italian", "insertedAtTimestamp": "2022-10-19 21:24:06.759888"}, {"businessID": "wZkZmjZEJDraLJgAalnHvA", "name": "Pisticci", "address": "125 La Salle St, New York, NY 10027", "coordinates": "40.8141624,-73.960288", "rating": 4.0, "review_count": 980, "zip_code": "10027", "cuisineType": "italian", "insertedAtTimestamp": "2022-10-19 21:24:06.964735"}, {"businessID": "4bHtiA1md69LDag55kv8lg", "name": "Isabelle's Osteria", "address": "245 Park Ave S, New York, NY 10003", "coordinates": "40.737985,-73.987703", "rating": 4.0, "review_count": 129, "zip_code": "10003", "cuisineType": "italian", "insertedAtTimestamp": "2022-10-19 21:24:07.192776"}, {"businessID": "fyC2cBsQ0FsMJmv0jSworg", "name": "Donna Margherita", "address": "1304 2nd Ave, Ste A, New York, NY 10065", "coordinates": "40.76652,-73.9598", "rating": 4.5, "review_count": 150, "zip_code": "10065", "cuisineType": "italian", "insertedAtTimestamp": "2022-10-19 21:24:07.465018"}, {"businessID": "uUHLcZJPl6swgnopI2C8tw", "name": "Milas", "address": "81 Ludlow St, New York, NY 10002", "coordinates": "40.718115,-73.989501", "rating": 4.5, "review_count": 12, "zip_code": "10002", "cuisineType": "italian", "insertedAtTimestamp": "2022-10-19 21:24:07.825950"}, {"businessID": "k1zrPPGGMQdlHopP3MnxrQ", "name": "Storico", "address": "170 Ctr Park W, New York Historical Society, New York, NY 10024", "coordinates": "40.779469,-73.973975", "rating": 4.0, "review_count": 212, "zip_code": "10024", "cuisineType": "italian", "insertedAtTimestamp": "2022-10-19 21:24:08.045487"}, {"businessID": "St8a2de1vfyCxwIySBUWbA", "name": "Graziella's", "address": "232 Vanderbilt Ave, Brooklyn, NY 11205", "coordinates": "40.6904563903809,-73.9696273803711", "rating": 4.0, "review_count": 481, "zip_code": "11205", "cuisineType": "italian", "insertedAtTimestamp": "2022-10-19 21:24:08.364210"}, {"businessID": "YT5Ywu9y190B4IGIlBetzA", "name": "Morandi", "address": "211 Waverly Pl, New York, NY 10014", "coordinates": "40.73534,-74.00151", "rating": 3.5, "review_count": 764, "zip_code": "10014", "cuisineType": "italian", "insertedAtTimestamp": "2022-10-19 21:24:08.577212"}, {"businessID": "1nQZbtmjODUgPm-QQdKrhA", "name": "Milk and Roses", "address": "35 Box Sta, Brooklyn, NY 11222", "coordinates": "40.73749,-73.95474", "rating": 3.5, "review_count": 432, "zip_code": "11222", "cuisineType": "italian", "insertedAtTimestamp": "2022-10-19 21:24:08.877473"}, {"businessID": "KMiRIUS2gdukQRihHkPLmw", "name": "Viva cucina", "address": "85 2nd Ave, New York, NY 10003", "coordinates": "40.72676,-73.98923", "rating": 4.5, "review_count": 24, "zip_code": "10003", "cuisineType": "italian", "insertedAtTimestamp": "2022-10-19 21:24:09.089144"}, {"businessID": "hq09sqXaYiEogbTrrJ9X5g", "name": "Da Capo Columbus", "address": "322 Columbus Ave, New York, NY 10023", "coordinates": "40.77972,-73.97752", "rating": 4.0, "review_count": 152, "zip_code": "10023", "cuisineType": "italian", "insertedAtTimestamp": "2022-10-19 21:24:09.329473"}, {"businessID": "T_vLaKsuyJPDpsrSZuc7WA", "name": "Battello", "address": "502 Washington Blvd, Jersey City, NJ 07310", "coordinates": "40.725357,-74.032278", "rating": 3.5, "review_count": 695, "zip_code": "07310", "cuisineType": "italian", "insertedAtTimestamp": "2022-10-19 21:24:09.593229"}, {"businessID": "MdFV5IBcX-Ni6I4Zy1EqIw", "name": "Marlow Bistro", "address": "1018 Amsterdam Ave, New York, NY 10025", "coordinates": "40.8028109023738,-73.9641991912535", "rating": 4.0, "review_count": 334, "zip_code": "10025", "cuisineType": "italian", "insertedAtTimestamp": "2022-10-19 21:24:09.790786"}, {"businessID": "DI_FoHY84hfzTWwlzF76aw", "name": "Benito One", "address": "174 Mulberry St, New York, NY 10013", "coordinates": "40.7200188460948,-73.9969412164592", "rating": 4.0, "review_count": 792, "zip_code": "10013", "cuisineType": "italian", "insertedAtTimestamp": "2022-10-19 21:24:10.062314"}, {"businessID": "UpnHg_984LLZ28-kBB5MSQ", "name": "Bella Luna Restaurant", "address": "574 Columbus Ave, New York, NY 10024", "coordinates": "40.787762,-73.971458", "rating": 3.5, "review_count": 332, "zip_code": "10024", "cuisineType": "italian", "insertedAtTimestamp": "2022-10-19 21:24:10.277274"}, {"businessID": "XvEz60Y0NbLxooK9AmRU8g", "name": "Piccoli Trattoria", "address": "522 6th Ave, Brooklyn, NY 11215", "coordinates": "40.66518210863434,-73.98653954110445", "rating": 4.5, "review_count": 552, "zip_code": "11215", "cuisineType": "italian", "insertedAtTimestamp": "2022-10-19 21:24:10.547144"}, {"businessID": "3n96VKiKG5Tte8z-U-TaLg", "name": "SoleLuna Restaurant", "address": "40-01 Queens Blvd, Sunnyside, NY 11104", "coordinates": "40.7439934462309,-73.9240421354771", "rating": 4.5, "review_count": 472, "zip_code": "11104", "cuisineType": "italian", "insertedAtTimestamp": "2022-10-19 21:24:10.742967"}, {"businessID": "F-eRrDik2KK0sNjpGiNbAg", "name": "Trattoria iL Gusto Wine Bar", "address": "625 Columbus Ave, New York, NY 10024", "coordinates": "40.78923,-73.9698499", "rating": 3.5, "review_count": 73, "zip_code": "10024", "cuisineType": "italian", "insertedAtTimestamp": "2022-10-19 21:24:12.112851"}, {"businessID": "6NqCJcJvYEdvjI2e0mH0Yw", "name": "Corto", "address": "507 Palisade Ave, Jersey City, NJ 07307", "coordinates": "40.74597,-74.04337", "rating": 4.0, "review_count": 240, "zip_code": "07307", "cuisineType": "italian", "insertedAtTimestamp": "2022-10-19 21:24:12.303657"}, {"businessID": "XyICIfSun7HWtBEUFux2PQ", "name": "Bocca Di Bacco", "address": "169 9th Ave, New York, NY 10011", "coordinates": "40.7445631,-74.0030779", "rating": 3.5, "review_count": 228, "zip_code": "10011", "cuisineType": "italian", "insertedAtTimestamp": "2022-10-19 21:24:12.566123"}, {"businessID": "q6ux26c-SfK-679y9lvVbw", "name": "Settepani", "address": "196 Lenox Ave, New York, NY 10026", "coordinates": "40.80435,-73.94766", "rating": 3.5, "review_count": 273, "zip_code": "10026", "cuisineType": "italian", "insertedAtTimestamp": "2022-10-19 21:24:12.789806"}, {"businessID": "cp5k0PKl236X0xaNDYR5Zw", "name": "Feroce Ristorante", "address": "105 W 28th St, New York, NY 10001", "coordinates": "40.746403834819894,-73.9909495791506", "rating": 4.0, "review_count": 82, "zip_code": "10001", "cuisineType": "italian", "insertedAtTimestamp": "2022-10-19 21:24:12.975938"}, {"businessID": "4j_n7nPaZrp6_lEInZaA8Q", "name": "Aita", "address": "132 Greene Ave, Brooklyn, NY 11238", "coordinates": "40.686412,-73.966629", "rating": 4.0, "review_count": 315, "zip_code": "11238", "cuisineType": "italian", "insertedAtTimestamp": "2022-10-19 21:24:13.171921"}, {"businessID": "ZQ8E37pWd4KBgtdcWKx5IA", "name": "Anton's", "address": "570 Hudson St, New York, NY 10014", "coordinates": "40.735702,-74.005761", "rating": 4.0, "review_count": 130, "zip_code": "10014", "cuisineType": "italian", "insertedAtTimestamp": "2022-10-19 21:24:13.378992"}, {"businessID": "yH6t1JWcwkdWG4CS5KPvow", "name": "Adrienne's Pizzabar", "address": "54 Stone St, New York, NY 10004", "coordinates": "40.7043362,-74.0101733", "rating": 4.0, "review_count": 1797, "zip_code": "10004", "cuisineType": "italian", "insertedAtTimestamp": "2022-10-19 21:24:13.609556"}, {"businessID": "DF7PV0DE9z0LM4ae6XYeYg", "name": "Harry's Italian", "address": "2 Gold St, New York, NY 10038", "coordinates": "40.707555318913,-74.006898168681", "rating": 3.5, "review_count": 623, "zip_code": "10038", "cuisineType": "italian", "insertedAtTimestamp": "2022-10-19 21:24:13.804339"}, {"businessID": "qKfD10PsDKP_9B7O1_7oJQ", "name": "All'Antico Vinaio", "address": "729 8th Ave, New York, NY 10036", "coordinates": "40.7597,-73.98823", "rating": 4.5, "review_count": 132, "zip_code": "10036", "cuisineType": "italian", "insertedAtTimestamp": "2022-10-19 21:24:14.013991"}, {"businessID": "53ZNJNrT91VgvrI0LFjLNQ", "name": "Locanda Vini e Olii", "address": "129 Gates Ave, Brooklyn, NY 11238", "coordinates": "40.685007,-73.962943", "rating": 4.0, "review_count": 334, "zip_code": "11238", "cuisineType": "italian", "insertedAtTimestamp": "2022-10-19 21:24:14.225684"}, {"businessID": "j6fSechU9HxzbnK-kjQx1Q", "name": "San Matteo Pizza and Espresso Bar", "address": "1739 2nd Ave, New York, NY 10128", "coordinates": "40.7804,-73.95012", "rating": 4.0, "review_count": 548, "zip_code": "10128", "cuisineType": "italian", "insertedAtTimestamp": "2022-10-19 21:24:14.613779"}, {"businessID": "X9f5HH4x3Mi7lo4ph9efvQ", "name": "Terre", "address": "341 5th Ave, Brooklyn, NY 11215", "coordinates": "40.671949831792,-73.9837719490146", "rating": 4.5, "review_count": 143, "zip_code": "11215", "cuisineType": "italian", "insertedAtTimestamp": "2022-10-19 21:24:14.802325"}, {"businessID": "E48WbksxAk19a8vjJRVIVQ", "name": "Ramerino Italian Prime", "address": "16 E 39th St, New York, NY 10016", "coordinates": "40.75107,-73.98135", "rating": 5.0, "review_count": 3, "zip_code": "10016", "cuisineType": "italian", "insertedAtTimestamp": "2022-10-19 21:24:14.991349"}, {"businessID": "q0HBfS9eJ9AeuaWQ3Ronqw", "name": "Joe G Pizza & Restaurant", "address": "244 W 56th St, New York, NY 10019", "coordinates": "40.76564,-73.9830099", "rating": 4.0, "review_count": 161, "zip_code": "10019", "cuisineType": "italian", "insertedAtTimestamp": "2022-10-19 21:24:15.201846"}, {"businessID": "iQo5aJwTL_ZrXCdPFKq-RA", "name": "Isle of Capri", "address": "1028 3rd Ave, New York, NY 10065", "coordinates": "40.76283,-73.96602", "rating": 4.0, "review_count": 272, "zip_code": "10065", "cuisineType": "italian", "insertedAtTimestamp": "2022-10-19 21:24:15.474662"}, {"businessID": "2F-7XCoPS1mbdy9ioqWuqw", "name": "Serafina", "address": "2737 Broadway, New York, NY 10025", "coordinates": "40.80043,-73.96828", "rating": 3.5, "review_count": 119, "zip_code": "10025", "cuisineType": "italian", "insertedAtTimestamp": "2022-10-19 21:24:15.685534"}, {"businessID": "vAMKgIUWCrYxjfhceCCNAQ", "name": "Sandro's", "address": "322 East 86th St, New York, NY 10028", "coordinates": "40.77740421779163,-73.9537163", "rating": 4.0, "review_count": 97, "zip_code": "10028", "cuisineType": "italian", "insertedAtTimestamp": "2022-10-19 21:24:15.970645"}, {"businessID": "86StyWnuGaTuY6X2e3irOg", "name": "Alice Restaurant", "address": "126 W 13th St, New York, NY 10011", "coordinates": "40.73710696813969,-73.99863114881475", "rating": 4.5, "review_count": 91, "zip_code": "10011", "cuisineType": "italian", "insertedAtTimestamp": "2022-10-19 21:24:16.203342"}, {"businessID": "f8TZ_ctcSwxwW8S69YKnwg", "name": "Il Bambino", "address": "34-08 31st Ave, Astoria, NY 11106", "coordinates": "40.76281,-73.92089", "rating": 4.5, "review_count": 1292, "zip_code": "11106", "cuisineType": "italian", "insertedAtTimestamp": "2022-10-19 21:24:16.465418"}, {"businessID": "syu8oCU9h3X9hfAE_lpADw", "name": "Terra Wine Bar", "address": "222 W Broadway, New York, NY 10013", "coordinates": "40.71928,-74.00647", "rating": 3.5, "review_count": 412, "zip_code": "10013", "cuisineType": "italian", "insertedAtTimestamp": "2022-10-19 21:24:16.691953"}, {"businessID": "Lesv5BG0_0-8bB49cAjMkg", "name": "Roberto's", "address": "603 Crescent Ave, Bronx, NY 10458", "coordinates": "40.85372,-73.88834", "rating": 4.0, "review_count": 283, "zip_code": "10458", "cuisineType": "italian", "insertedAtTimestamp": "2022-10-19 21:24:16.892559"}, {"businessID": "bwL8SICzHuu8PSZ6ZDppCQ", "name": "Little Meatball", "address": "40-05 Skillman Ave, Queens, NY 11104", "coordinates": "40.747467,-73.92322", "rating": 5.0, "review_count": 1, "zip_code": "11104", "cuisineType": "italian", "insertedAtTimestamp": "2022-10-19 21:24:17.275826"}, {"businessID": "0Tvwk0hvgaY0QVIsZGTZKQ", "name": "Antica Ristorante", "address": "8 Stone St, New York, NY 10004", "coordinates": "40.7039355145338,-74.0121731758117", "rating": 4.5, "review_count": 531, "zip_code": "10004", "cuisineType": "italian", "insertedAtTimestamp": "2022-10-19 21:24:17.524318"}, {"businessID": "qoc8jyoCBW4tw9zspA2K6Q", "name": "Jeannie's", "address": "225 W 57th St, New York, NY 10019", "coordinates": "40.7662427,-73.98124349999999", "rating": 4.5, "review_count": 20, "zip_code": "10019", "cuisineType": "italian", "insertedAtTimestamp": "2022-10-19 21:24:17.682442"}, {"businessID": "oRdM7n-AfBPBGAlH4Q0Sag", "name": "My Pie Pizzeria Romana", "address": "690 Lexington Ave, New York, NY 10022", "coordinates": "40.7608512,-73.9694809", "rating": 4.5, "review_count": 869, "zip_code": "10022", "cuisineType": "italian", "insertedAtTimestamp": "2022-10-19 21:24:17.897471"}, {"businessID": "Cnqy9w1BFXZFEaChfox0ow", "name": "Rosemary's", "address": "18 Greenwich Ave, New York, NY 10011", "coordinates": "40.734863,-73.99974", "rating": 3.5, "review_count": 1164, "zip_code": "10011", "cuisineType": "italian", "insertedAtTimestamp": "2022-10-19 21:24:18.139128"}, {"businessID": "7oNuDMESKejMgJFlkQwxmQ", "name": "Avena Downtown", "address": "260 6th Ave, New York, NY 10014", "coordinates": "40.7289,-74.00216", "rating": 4.5, "review_count": 105, "zip_code": "10014", "cuisineType": "italian", "insertedAtTimestamp": "2022-10-19 21:24:18.345688"}, {"businessID": "nHMDOIX32dGbfpuNUwsLNQ", "name": "AlMar", "address": "111 Front St, Brooklyn, NY 11201", "coordinates": "40.702662,-73.989177", "rating": 4.0, "review_count": 479, "zip_code": "11201", "cuisineType": "italian", "insertedAtTimestamp": "2022-10-19 21:24:18.589689"}, {"businessID": "CfYxlqO3W3PCE7hVhYJNyA", "name": "Il Gradino", "address": "808 Lexington Ave, New York, NY 10065", "coordinates": "40.76436,-73.96681", "rating": 4.0, "review_count": 14, "zip_code": "10065", "cuisineType": "italian", "insertedAtTimestamp": "2022-10-19 21:24:18.803562"}, {"businessID": "pTWFuMYed409y99N0zY05Q", "name": "Barbaresco Restaurant", "address": "843 Lexington Ave, New York, NY 10065", "coordinates": "40.76539,-73.96556", "rating": 4.0, "review_count": 102, "zip_code": "10065", "cuisineType": "italian", "insertedAtTimestamp": "2022-10-19 21:24:18.998204"}, {"businessID": "01eI6pT0doZiu0nm-Gl7RA", "name": "Trattoria 35", "address": "213-15 35th Ave, Bayside, NY 11361", "coordinates": "40.76902,-73.77417", "rating": 4.0, "review_count": 517, "zip_code": "11361", "cuisineType": "italian", "insertedAtTimestamp": "2022-10-19 21:24:19.208022"}, {"businessID": "sRH-6ZY0gDbS4DhfUZU6zw", "name": "Soda Club", "address": "155 Avenue B, New York, NY 10009", "coordinates": "40.726654,-73.979875", "rating": 4.5, "review_count": 44, "zip_code": "10009", "cuisineType": "italian", "insertedAtTimestamp": "2022-10-19 21:24:19.420515"}, {"businessID": "u5zbsITgkFbAlRq0j-XE-g", "name": "Serafina Broadway", "address": "210 W 55th St, New York, NY 10019", "coordinates": "40.7645,-73.9819", "rating": 3.0, "review_count": 684, "zip_code": "10019", "cuisineType": "italian", "insertedAtTimestamp": "2022-10-19 21:24:19.588666"}, {"businessID": "jol3Ay0RMCdJd0eSZdKOEQ", "name": "Beneci's", "address": "500 Harbor Blvd, Weehawken, NJ 07086", "coordinates": "40.758870842563404,-74.02360969020963", "rating": 4.5, "review_count": 8, "zip_code": "07086", "cuisineType": "italian", "insertedAtTimestamp": "2022-10-19 21:24:19.805692"}, {"businessID": "sB8-R8-FYj-kJrSzTlbmgw", "name": "Coppola's West", "address": "206 W 79th St, New York, NY 10024", "coordinates": "40.7831637424309,-73.9789159423279", "rating": 3.5, "review_count": 338, "zip_code": "10024", "cuisineType": "italian", "insertedAtTimestamp": "2022-10-19 21:24:20.087092"}, {"businessID": "Ge3-8Np5Ot5Mt7EARrk6HA", "name": "Bar Pasquale", "address": "98 Kenmare St, New York, NY 10012", "coordinates": "40.7211874,-73.9970682", "rating": 3.5, "review_count": 10, "zip_code": "10012", "cuisineType": "italian", "insertedAtTimestamp": "2022-10-19 21:24:20.278429"}, {"businessID": "xqi3FnczZhm6nS7X7VjICA", "name": "The Living Room", "address": "153 West 57th St, Park Hyatt New York, New York, NY 10019", "coordinates": "40.76538,-73.97895", "rating": 4.5, "review_count": 51, "zip_code": "10019", "cuisineType": "italian", "insertedAtTimestamp": "2022-10-19 21:24:21.869780"}, {"businessID": "2_3W7NFFN3m4U_8ffgEuyQ", "name": "Cafe Spaghetti", "address": "126 Union St, Brooklyn, NY 11231", "coordinates": "40.68412,-74.0024", "rating": 4.5, "review_count": 42, "zip_code": "11231", "cuisineType": "italian", "insertedAtTimestamp": "2022-10-19 21:24:22.091082"}, {"businessID": "Uo7z3QSxLCxj8U44wtj2bA", "name": "Felice On Hudson", "address": "615 Hudson St, New York, NY 10014", "coordinates": "40.73784,-74.00582", "rating": 5.0, "review_count": 3, "zip_code": "10014", "cuisineType": "italian", "insertedAtTimestamp": "2022-10-19 21:24:22.294048"}, {"businessID": "ft2OPgLsquG9d7XrBLULng", "name": "ALIDORO", "address": "18 E 39th St, New York, NY 10016", "coordinates": "40.75097,-73.98108", "rating": 4.0, "review_count": 257, "zip_code": "10016", "cuisineType": "italian", "insertedAtTimestamp": "2022-10-19 21:24:22.473135"}, {"businessID": "KpBfFpjzsGvvqAzCasVW0g", "name": "Extra Virgin", "address": "259 W 4th St, New York, NY 10014", "coordinates": "40.7353962496717,-74.0031888223197", "rating": 3.5, "review_count": 1356, "zip_code": "10014", "cuisineType": "italian", "insertedAtTimestamp": "2022-10-19 21:24:22.791058"}, {"businessID": "CygcAgexrpJGY8iWp7QqnA", "name": "Antonucci Cafe", "address": "170 E 81st St, New York, NY 10028", "coordinates": "40.77574,-73.95689", "rating": 4.0, "review_count": 172, "zip_code": "10028", "cuisineType": "italian", "insertedAtTimestamp": "2022-10-19 21:24:22.988776"}, {"businessID": "Kh0-HmlgmVUkRxR55_Vn1g", "name": "Patsy's Pizzeria", "address": "2287 1st Ave, New York, NY 10035", "coordinates": "40.797157,-73.93488", "rating": 4.0, "review_count": 908, "zip_code": "10035", "cuisineType": "italian", "insertedAtTimestamp": "2022-10-19 21:24:23.255153"}, {"businessID": "NG-vmMrBZlxAZrxgoiromg", "name": "TAPPO NYCThinCrust Pizza", "address": "49 W 24th St, New York, NY 10010", "coordinates": "40.74337,-73.99153", "rating": 4.0, "review_count": 553, "zip_code": "10010", "cuisineType": "italian", "insertedAtTimestamp": "2022-10-19 21:24:23.546341"}, {"businessID": "-0fjWWC2SY6kNxGfD8PKGg", "name": "Palermo Restaurant & Bar", "address": "2392 21st St, Astoria, NY 11105", "coordinates": "40.7769088448014,-73.9212289547099", "rating": 4.5, "review_count": 284, "zip_code": "11105", "cuisineType": "italian", "insertedAtTimestamp": "2022-10-19 21:24:23.776244"}, {"businessID": "-58--bg-KKUNArp18U4llA", "name": "da Umberto", "address": "107 W 17th St, New York, NY 10011", "coordinates": "40.7396659851074,-73.9958267211914", "rating": 4.0, "review_count": 211, "zip_code": "10011", "cuisineType": "italian", "insertedAtTimestamp": "2022-10-19 21:24:23.993136"}, {"businessID": "Jwb556DrGTEZryeV7XgZmQ", "name": "Bar Primi", "address": "325 Bowery, New York, NY 10003", "coordinates": "40.725639,-73.991714", "rating": 3.5, "review_count": 737, "zip_code": "10003", "cuisineType": "italian", "insertedAtTimestamp": "2022-10-19 21:24:24.225881"}, {"businessID": "BgGz5IdV53bGb4o7opR5zg", "name": "Arturo's", "address": "106 W Houston St, New York, NY 10012", "coordinates": "40.7273563342024,-74.0004944801331", "rating": 4.0, "review_count": 750, "zip_code": "10012", "cuisineType": "italian", "insertedAtTimestamp": "2022-10-19 21:24:24.442250"}, {"businessID": "CFR-HzVHKWRMpMAR3LAhzg", "name": "Montesacro Pinseria Brooklyn", "address": "432 Union Ave, Brooklyn, NY 11211", "coordinates": "40.71338,-73.95136", "rating": 4.5, "review_count": 208, "zip_code": "11211", "cuisineType": "italian", "insertedAtTimestamp": "2022-10-19 21:24:24.657056"}, {"businessID": "FpgzHQMSNTTjagrKXxOw5A", "name": "San Matteo Pizzeria e Cucina", "address": "1559 2nd Ave, New York, NY 10028", "coordinates": "40.7746799,-73.95443", "rating": 3.5, "review_count": 373, "zip_code": "10028", "cuisineType": "italian", "insertedAtTimestamp": "2022-10-19 21:24:24.895396"}, {"businessID": "jzvHGkDUIQkcz8CZM_Je_g", "name": "Lupo Rosso", "address": "43-69 11th St, Long Island City, NY 11101", "coordinates": "40.7503484,-73.9488625", "rating": 4.5, "review_count": 14, "zip_code": "11101", "cuisineType": "italian", "insertedAtTimestamp": "2022-10-19 21:24:25.107988"}, {"businessID": "LdWyeeV8DuYINKVTghFwrg", "name": "Canaletto Restaurant", "address": "208 E 60th St, New York, NY 10022", "coordinates": "40.76174,-73.96569", "rating": 4.0, "review_count": 75, "zip_code": "10022", "cuisineType": "italian", "insertedAtTimestamp": "2022-10-19 21:24:25.332600"}, {"businessID": "V0zC3awsklyxC0GFzmaTLg", "name": "Sfilatino Italian Gourmet", "address": "342 W 57th St, New York, NY 10019", "coordinates": "40.7675056,-73.9851073", "rating": 4.0, "review_count": 217, "zip_code": "10019", "cuisineType": "italian", "insertedAtTimestamp": "2022-10-19 21:24:25.495940"}, {"businessID": "ieoPAi6nbdEkrwv4vGVSwg", "name": "Via Trenta Osteria", "address": "3619 30th Ave, Astoria, NY 11103", "coordinates": "40.76491,-73.91654", "rating": 3.5, "review_count": 512, "zip_code": "11103", "cuisineType": "italian", "insertedAtTimestamp": "2022-10-19 21:24:25.688184"}, {"businessID": "4eGCuMwKRCCrYHOobEsFpA", "name": "Lusardi's", "address": "1494 2nd Ave, New York, NY 10075", "coordinates": "40.7724199,-73.9555", "rating": 4.0, "review_count": 249, "zip_code": "10075", "cuisineType": "italian", "insertedAtTimestamp": "2022-10-19 21:24:25.847953"}, {"businessID": "geTFpY84Tp-nVTXflnxtDA", "name": "V & T Pizzeria & Restaurant", "address": "1024 Amsterdam Ave, New York, NY 10025", "coordinates": "40.80334,-73.96383", "rating": 3.0, "review_count": 386, "zip_code": "10025", "cuisineType": "italian", "insertedAtTimestamp": "2022-10-19 21:24:26.048311"}, {"businessID": "e7jRn5TNlF84k7PuvJ1MOA", "name": "Manducatis Rustica", "address": "46-33 Vernon Blvd, Long Island City, NY 11101", "coordinates": "40.7458575124991,-73.9528775638914", "rating": 4.0, "review_count": 221, "zip_code": "11101", "cuisineType": "italian", "insertedAtTimestamp": "2022-10-19 21:24:26.281968"}, {"businessID": "nVtJOWn3XlL6MSZ-YnU6iA", "name": "Da Francesco", "address": "442 Graham Ave, Brooklyn, NY 11211", "coordinates": "40.718353,-73.944677", "rating": 4.0, "review_count": 137, "zip_code": "11211", "cuisineType": "italian", "insertedAtTimestamp": "2022-10-19 21:24:26.490162"}, {"businessID": "XzkmePjJC0ryuqZp5qd12A", "name": "Fresco By Scotto", "address": "34 E 52nd St, New York, NY 10022", "coordinates": "40.758896,-73.97444438329205", "rating": 3.5, "review_count": 469, "zip_code": "10022", "cuisineType": "italian", "insertedAtTimestamp": "2022-10-19 21:24:26.715623"}, {"businessID": "2MuvmwOuwvGOWkBimhniLA", "name": "La Bellezza", "address": "145 E 49th St, New York, NY 10017", "coordinates": "40.7557792663574,-73.9720153808594", "rating": 4.0, "review_count": 291, "zip_code": "10017", "cuisineType": "italian", "insertedAtTimestamp": "2022-10-19 21:24:26.917062"}, {"businessID": "19zArMBG2qW2k16Y0i2aBA", "name": "Obic\u00e0 Mozzarella Bar Pizza e Cucina", "address": "928 Broadway, New York, NY 10010", "coordinates": "40.7400486,-73.9893018", "rating": 3.5, "review_count": 496, "zip_code": "10010", "cuisineType": "italian", "insertedAtTimestamp": "2022-10-19 21:24:27.094600"}, {"businessID": "TUJutjq0LU6zexzM8Wia4w", "name": "Arthur & Sons NY Italian", "address": "38 8th Ave, New York, NY 10014", "coordinates": "40.73801,-74.00409", "rating": 4.0, "review_count": 55, "zip_code": "10014", "cuisineType": "italian", "insertedAtTimestamp": "2022-10-19 21:24:27.324498"}, {"businessID": "Q9F2ocrmYuGt1yn3M7MOBw", "name": "Lucali", "address": "575 Henry St, Brooklyn, NY 11231", "coordinates": "40.681840746711224,-74.0003327", "rating": 4.0, "review_count": 1876, "zip_code": "11231", "cuisineType": "italian", "insertedAtTimestamp": "2022-10-19 21:24:27.587826"}, {"businessID": "7S8g0G_Ndc3DS-kqsozq8Q", "name": "83 1/2", "address": "345 E 83rd St, New York, NY 10028", "coordinates": "40.775354,-73.951216", "rating": 4.0, "review_count": 219, "zip_code": "10028", "cuisineType": "italian", "insertedAtTimestamp": "2022-10-19 21:24:27.797640"}, {"businessID": "bxxP-1LQURlkom-geT2J8Q", "name": "Pastafina", "address": "635 2nd Ave, New York, NY 10016", "coordinates": "40.74528,-73.97574", "rating": 3.5, "review_count": 3, "zip_code": "10016", "cuisineType": "italian", "insertedAtTimestamp": "2022-10-19 21:24:27.998425"}, {"businessID": "OmB4X44Ru8gjD6qgSNlXdg", "name": "Primola Restaurant", "address": "1226 2nd Ave, New York, NY 10065", "coordinates": "40.7638675,-73.9616489", "rating": 3.5, "review_count": 152, "zip_code": "10065", "cuisineType": "italian", "insertedAtTimestamp": "2022-10-19 21:24:28.251322"}, {"businessID": "gJg_Gh2lqrCprDzR6ZP9QQ", "name": "314 Pizza Pasta & Wine Bar", "address": "3143 Broadway, New York, NY 10027", "coordinates": "40.8141969,-73.9598383", "rating": 4.5, "review_count": 116, "zip_code": "10027", "cuisineType": "italian", "insertedAtTimestamp": "2022-10-19 21:24:28.458672"}, {"businessID": "E9NMNWvV70HV5gB369N0EA", "name": "Nerai", "address": "55 E 54th St, New York, NY 10022", "coordinates": "40.760313566070415,-73.97302370552254", "rating": 4.5, "review_count": 652, "zip_code": "10022", "cuisineType": "italian", "insertedAtTimestamp": "2022-10-19 21:24:28.646289"}, {"businessID": "FogLdooqSzKbmkwMGSwDiQ", "name": "Razza Pizza Artigianale", "address": "275 Grove St, Jersey City, NJ 07302", "coordinates": "40.7177490485075,-74.0441924355125", "rating": 4.0, "review_count": 1110, "zip_code": "07302", "cuisineType": "italian", "insertedAtTimestamp": "2022-10-19 21:24:28.850266"}, {"businessID": "uDJw4dQiySoNCBoUalW1Ww", "name": "Lincoln Ristorante", "address": "142 W 65th St, New York, NY 10023", "coordinates": "40.773384318631486,-73.98373135276117", "rating": 4.0, "review_count": 587, "zip_code": "10023", "cuisineType": "italian", "insertedAtTimestamp": "2022-10-19 21:24:29.051462"}, {"businessID": "505bv6h3VnN6SekdHCr8Sw", "name": "Nocello", "address": "257 W 55th St, New York, NY 10019", "coordinates": "40.7654190063477,-73.9833374023438", "rating": 4.0, "review_count": 193, "zip_code": "10019", "cuisineType": "italian", "insertedAtTimestamp": "2022-10-19 21:24:29.249353"}, {"businessID": "ZlwjT-jygnYqM5qDE0CuLQ", "name": "Gigino Trattoria", "address": "323 Greenwich St, New York, NY 10013", "coordinates": "40.71726,-74.01055", "rating": 3.5, "review_count": 265, "zip_code": "10013", "cuisineType": "italian", "insertedAtTimestamp": "2022-10-19 21:24:29.510381"}]