[{"businessID": "BPZfuPvSxCfoppU4lPFm0Q", "name": "DOMODOMO - New York", "address": "140 W Houston St, New York, NY 10012", "coordinates": "40.7280299,-74.00167", "rating": 4.0, "review_count": 1462, "zip_code": "10012", "cuisineType": "japanese", "insertedAtTimestamp": "2022-10-19 21:36:27.349987"}, {"businessID": "kLqCgM4T7NT78bDEC2-TFw", "name": "Kaiseki Room by Yamada", "address": "145 W 53rd St, New York, NY 10019", "coordinates": "40.76268,-73.98093", "rating": 4.5, "review_count": 21, "zip_code": "10019", "cuisineType": "japanese", "insertedAtTimestamp": "2022-10-19 21:36:27.544250"}, {"businessID": "diz6_4TVSP6EdWEZCZ0Acg", "name": "Kaoru", "address": "306 E 46th St, New York, NY 10017", "coordinates": "40.75202,-73.96977", "rating": 4.5, "review_count": 461, "zip_code": "10017", "cuisineType": "japanese", "insertedAtTimestamp": "2022-10-19 21:36:27.815042"}, {"businessID": "MTtqSunPEZwdCJFMHsiHzg", "name": "Ai Ki Ya", "address": "41 W 33rd St, New York, NY 10001", "coordinates": "40.74873,-73.98705", "rating": 4.5, "review_count": 96, "zip_code": "10001", "cuisineType": "japanese", "insertedAtTimestamp": "2022-10-19 21:36:28.018655"}, {"businessID": "3QIFBLKp2Z9zA-PXlUEQlg", "name": "Okatte Tanto NY", "address": "249 E 49th St, New York, NY 10017", "coordinates": "40.75455,-73.96941", "rating": 4.5, "review_count": 5, "zip_code": "10017", "cuisineType": "japanese", "insertedAtTimestamp": "2022-10-19 21:36:28.193611"}, {"businessID": "cT48RskMO_o35Ua0tlifyQ", "name": "Heno Heno", "address": "358 W 46th St, New York, NY 10036", "coordinates": "40.7605197,-73.99011170000001", "rating": 4.5, "review_count": 37, "zip_code": "10036", "cuisineType": "japanese", "insertedAtTimestamp": "2022-10-19 21:36:28.416622"}, {"businessID": "v8y7NLCC25KY_lSbcs3UPA", "name": "Maison Kintaro", "address": "401 W 24th St, New York, NY 10011", "coordinates": "40.74746583338948,-74.00104785354299", "rating": 4.5, "review_count": 27, "zip_code": "10011", "cuisineType": "japanese", "insertedAtTimestamp": "2022-10-19 21:36:28.621615"}, {"businessID": "Ta1tudYs2rPuxo-Hcn7_NQ", "name": "Gosuke Akimitsu", "address": "235 W 35th St, New York, NY 10001", "coordinates": "40.7523,-73.99127", "rating": 4.5, "review_count": 38, "zip_code": "10001", "cuisineType": "japanese", "insertedAtTimestamp": "2022-10-19 21:36:28.817295"}, {"businessID": "KHRrlw05_pv_fd8ntvS1xw", "name": "SUGARFISH by Sushi Nozawa - Midtown West", "address": "210 W 56th St, New York, NY 10019", "coordinates": "40.764976,-73.981655", "rating": 4.5, "review_count": 196, "zip_code": "10019", "cuisineType": "japanese", "insertedAtTimestamp": "2022-10-19 21:36:29.004781"}, {"businessID": "_F29-1dkiBmDPSaKQ9_O0Q", "name": "Hakata Tonton", "address": "35 W 35th St, New York, NY 10001", "coordinates": "40.749981,-73.985719", "rating": 4.5, "review_count": 30, "zip_code": "10001", "cuisineType": "japanese", "insertedAtTimestamp": "2022-10-19 21:36:29.209966"}, {"businessID": "vmoRGfd2xIAN-Ty0kiK_lA", "name": "Ito", "address": "75 Barclay St, New York, NY 10007", "coordinates": "40.71330901722842,-74.01016682421009", "rating": 4.5, "review_count": 18, "zip_code": "10007", "cuisineType": "japanese", "insertedAtTimestamp": "2022-10-19 21:36:29.462252"}, {"businessID": "VzstANC68PM1BbyOcDXEtw", "name": "Donburiya", "address": "253 W 55th St, New York, NY 10019", "coordinates": "40.76528,-73.98326", "rating": 4.0, "review_count": 409, "zip_code": "10019", "cuisineType": "japanese", "insertedAtTimestamp": "2022-10-19 21:36:29.695059"}, {"businessID": "GrYs4dj4mseJ4ctu4KhR9Q", "name": "Ikebana Zen", "address": "401 W 53rd St, New York, NY 10019", "coordinates": "40.765627600651335,-73.98791686059982", "rating": 4.5, "review_count": 106, "zip_code": "10019", "cuisineType": "japanese", "insertedAtTimestamp": "2022-10-19 21:36:29.913132"}, {"businessID": "X83qWL5WPR-QWGXGQ8WP-Q", "name": "NR", "address": "339 E 75th St, New York, NY 10021", "coordinates": "40.770153,-73.954956", "rating": 4.5, "review_count": 244, "zip_code": "10021", "cuisineType": "japanese", "insertedAtTimestamp": "2022-10-19 21:36:30.136468"}, {"businessID": "6lUsFj0KCao678o9L7QwUw", "name": "Hatsuhana", "address": "17 E 48th St, New York, NY 10017", "coordinates": "40.75703,-73.97692", "rating": 4.0, "review_count": 1453, "zip_code": "10017", "cuisineType": "japanese", "insertedAtTimestamp": "2022-10-19 21:36:30.298038"}, {"businessID": "ax4INkzwL__-d_kGJfcA-w", "name": "Kaikagetsu NYC", "address": "162 Orchard St, New York, NY 10002", "coordinates": "40.72104,-73.98848", "rating": 4.5, "review_count": 133, "zip_code": "10002", "cuisineType": "japanese", "insertedAtTimestamp": "2022-10-19 21:36:30.501373"}, {"businessID": "JXhs2xAn5wgzf_mnWewkxQ", "name": "Kono", "address": "46 Bowery, New York, NY 10013", "coordinates": "40.71568,-73.99664", "rating": 4.5, "review_count": 14, "zip_code": "10013", "cuisineType": "japanese", "insertedAtTimestamp": "2022-10-19 21:36:30.707344"}, {"businessID": "in1CBl2LwIFkLzAr55jyLQ", "name": "Suram", "address": "21 W End Ave, New York, NY 10023", "coordinates": "40.77273337937287,-73.99026359999999", "rating": 5.0, "review_count": 38, "zip_code": "10023", "cuisineType": "japanese", "insertedAtTimestamp": "2022-10-19 21:36:30.906592"}, {"businessID": "UI6YjZ34NnLdymKx2qf53g", "name": "Sushi Ishikawa", "address": "207 W 80th St, New York, NY 10024", "coordinates": "40.784237,-73.978311", "rating": 5.0, "review_count": 39, "zip_code": "10024", "cuisineType": "japanese", "insertedAtTimestamp": "2022-10-19 21:36:31.106351"}, {"businessID": "cyOaoc0U6Trc0FZu6l14VQ", "name": "Sarashina Horii", "address": "45 E 20th St, New York, NY 10003", "coordinates": "40.73871,-73.98838", "rating": 4.0, "review_count": 100, "zip_code": "10003", "cuisineType": "japanese", "insertedAtTimestamp": "2022-10-19 21:36:32.013377"}, {"businessID": "f48yzy50jQDH7X5xFAluOw", "name": "Tsukimi", "address": "228 East 10th St, New York, NY 10003", "coordinates": "40.72908,-73.98541", "rating": 5.0, "review_count": 47, "zip_code": "10003", "cuisineType": "japanese", "insertedAtTimestamp": "2022-10-19 21:36:32.365900"}, {"businessID": "ocnHpILS80DHL--34L8xpw", "name": "Sushi Noz", "address": "181 E 78th St, New York, NY 10075", "coordinates": "40.77385,-73.95813", "rating": 4.5, "review_count": 167, "zip_code": "10075", "cuisineType": "japanese", "insertedAtTimestamp": "2022-10-19 21:36:32.568900"}, {"businessID": "pou1-d7PENs6AD4mnt9P4g", "name": "Sushi W", "address": "2673 Broadway, New York, NY 10025", "coordinates": "40.79837,-73.96941", "rating": 4.5, "review_count": 112, "zip_code": "10025", "cuisineType": "japanese", "insertedAtTimestamp": "2022-10-19 21:36:32.771268"}, {"businessID": "iGmQlzlI4g2ky8cogfDpnQ", "name": "SUGARFISH by sushi nozawa - Midtown East", "address": "152 E 53rd St, New York, NY 10022", "coordinates": "40.7579096,-73.9702782", "rating": 4.5, "review_count": 63, "zip_code": "10022", "cuisineType": "japanese", "insertedAtTimestamp": "2022-10-19 21:36:32.997995"}, {"businessID": "pqqhHTz_ZpApsaWGa_zMTA", "name": "Douska", "address": "63 Delancey St, New York, NY 10002", "coordinates": "40.7191369,-73.9908998", "rating": 4.5, "review_count": 174, "zip_code": "10002", "cuisineType": "japanese", "insertedAtTimestamp": "2022-10-19 21:36:33.206381"}, {"businessID": "FwUeXKY9oGSYYg2M3ZdMuQ", "name": "Noz 17", "address": "458 W 17th St, New York, NY 10011", "coordinates": "40.74387,-74.00658", "rating": 4.5, "review_count": 2, "zip_code": "10011", "cuisineType": "japanese", "insertedAtTimestamp": "2022-10-19 21:36:33.399537"}, {"businessID": "apVwBCTi2rQUbFRrlq0wmg", "name": "Saishin", "address": "18 Ninth Ave, New York, NY 10014", "coordinates": "40.73993,-74.00584", "rating": 4.5, "review_count": 12, "zip_code": "10014", "cuisineType": "japanese", "insertedAtTimestamp": "2022-10-19 21:36:33.651860"}, {"businessID": "dEbI8l8o9mevbRdjANzsng", "name": "Prime Meat Rokko", "address": "783 9th Ave, New York, NY 10019", "coordinates": "40.76497010727244,-73.98807987570763", "rating": 4.5, "review_count": 137, "zip_code": "10019", "cuisineType": "japanese", "insertedAtTimestamp": "2022-10-19 21:36:33.868238"}, {"businessID": "oB2cpcZNyjDklNqZN0n8hg", "name": "Sushi Ishikawa", "address": "419 E 74th St, New York, NY 10021", "coordinates": "40.768783,-73.9538981", "rating": 4.5, "review_count": 311, "zip_code": "10021", "cuisineType": "japanese", "insertedAtTimestamp": "2022-10-19 21:36:34.161638"}, {"businessID": "aTzxrI2o3vH_HQkqeFszzg", "name": "Juban", "address": "207 10th Ave, New York, NY 10011", "coordinates": "40.74731,-74.00467", "rating": 4.0, "review_count": 225, "zip_code": "10011", "cuisineType": "japanese", "insertedAtTimestamp": "2022-10-19 21:36:34.372428"}, {"businessID": "SxKvgnkMMZdhBJcxxKQnww", "name": "Nobu Fifty Seven", "address": "40 W 57th St, New York, NY 10019", "coordinates": "40.76371615273354,-73.97624989600685", "rating": 4.0, "review_count": 1388, "zip_code": "10019", "cuisineType": "japanese", "insertedAtTimestamp": "2022-10-19 21:36:34.557855"}, {"businessID": "tyyqm0ftkoKQxednWNh0Tg", "name": "UOGASHI", "address": "318 West 51st St, New York, NY 10019", "coordinates": "40.76326,-73.98671", "rating": 4.5, "review_count": 114, "zip_code": "10019", "cuisineType": "japanese", "insertedAtTimestamp": "2022-10-19 21:36:34.751571"}, {"businessID": "hUf1EpnxbxFU4gf2nL7H-Q", "name": "Raku It's Japanese", "address": "212 East 52nd St, New York, NY 10022", "coordinates": "40.756591,-73.969306", "rating": 4.5, "review_count": 166, "zip_code": "10022", "cuisineType": "japanese", "insertedAtTimestamp": "2022-10-19 21:36:34.911165"}, {"businessID": "IVDk7BYFWwFsYPRbHLd49w", "name": "Takeda", "address": "566 Amsterdam Ave, New York, NY 10024", "coordinates": "40.788749,-73.974599", "rating": 4.5, "review_count": 58, "zip_code": "10024", "cuisineType": "japanese", "insertedAtTimestamp": "2022-10-19 21:36:35.125736"}, {"businessID": "6t5xWjPLWAjJV3YFMX_oaw", "name": "Hirohisa", "address": "73 Thompson St, New York, NY 10012", "coordinates": "40.724597,-74.003174", "rating": 4.5, "review_count": 188, "zip_code": "10012", "cuisineType": "japanese", "insertedAtTimestamp": "2022-10-19 21:36:35.362997"}, {"businessID": "BaeUVrAj5f3YF1razW5bow", "name": "11 Tigers", "address": "225 Avenue B, Fl 2, New York, NY 10009", "coordinates": "40.72908,-73.97815", "rating": 4.5, "review_count": 42, "zip_code": "10009", "cuisineType": "japanese", "insertedAtTimestamp": "2022-10-19 21:36:35.577053"}, {"businessID": "pNe8ZCkGTe4cXfKdOF7kYQ", "name": "Ise Restaurant", "address": "63 Cooper Sq, New York, NY 10003", "coordinates": "40.7291024,-73.9900618", "rating": 4.5, "review_count": 591, "zip_code": "10003", "cuisineType": "japanese", "insertedAtTimestamp": "2022-10-19 21:36:35.743079"}, {"businessID": "MLBqYHtCwACXgmKxYTFq3g", "name": "KazuNori | The Original Hand Roll Bar", "address": "157 E 53rd St, Plaza Level, The Hugh, New York, NY 10022", "coordinates": "40.7580782,-73.96999889026759", "rating": 4.5, "review_count": 28, "zip_code": "10022", "cuisineType": "japanese", "insertedAtTimestamp": "2022-10-19 21:36:35.918405"}, {"businessID": "4Jp0wdJXLpmgCwWv6o6YEQ", "name": "Torishin", "address": "362 W 53rd St, New York, NY 10019", "coordinates": "40.76496,-73.98721", "rating": 4.0, "review_count": 343, "zip_code": "10019", "cuisineType": "japanese", "insertedAtTimestamp": "2022-10-19 21:36:36.117151"}, {"businessID": "pGYovGGnxm0tMmkiQJPygA", "name": "Ume Williamsburg", "address": "237 Kent Ave, Brooklyn, NY 11249", "coordinates": "40.71657,-73.96559", "rating": 4.0, "review_count": 381, "zip_code": "11249", "cuisineType": "japanese", "insertedAtTimestamp": "2022-10-19 21:36:36.391874"}, {"businessID": "ZOpnIsm7ihoO1gq2YmGdzw", "name": "Zurutto Ramen & Gyoza Bar", "address": "142 W 72nd St, New York, NY 10023", "coordinates": "40.777836,-73.980476", "rating": 4.0, "review_count": 457, "zip_code": "10023", "cuisineType": "japanese", "insertedAtTimestamp": "2022-10-19 21:36:36.628410"}, {"businessID": "dCDpb-fz6Ton9AXLoaWIhA", "name": "Momoya SoHo", "address": "47 Prince St, New York, NY 10012", "coordinates": "40.72349,-73.99579", "rating": 4.5, "review_count": 78, "zip_code": "10012", "cuisineType": "japanese", "insertedAtTimestamp": "2022-10-19 21:36:36.794457"}, {"businessID": "MmXZLVwWcYugi_TXSHmjeQ", "name": "Sushi by Bou Times Square", "address": "132 W 47th St, New York, NY 10036", "coordinates": "40.75851,-73.98322", "rating": 4.5, "review_count": 709, "zip_code": "10036", "cuisineType": "japanese", "insertedAtTimestamp": "2022-10-19 21:36:37.039459"}, {"businessID": "KcOeFHAojaRDV-DxQJkfPA", "name": "Omakase By Korami", "address": "400A W 50th St, New York, NY 10019", "coordinates": "40.763503307884655,-73.989323", "rating": 5.0, "review_count": 269, "zip_code": "10019", "cuisineType": "japanese", "insertedAtTimestamp": "2022-10-19 21:36:37.317745"}, {"businessID": "uUB8pP47svQpFfEN8lc2OA", "name": "Kamasu By Kissaki", "address": "20 Hudson Yards, Fl 2, Hudson Yards Shopping Complex, New York, NY 10001", "coordinates": "40.75340831019395,-74.00105500000001", "rating": 4.5, "review_count": 38, "zip_code": "10001", "cuisineType": "japanese", "insertedAtTimestamp": "2022-10-19 21:36:37.475718"}, {"businessID": "GMb4PDs1hf2201sLaGdsWg", "name": "Matsunori", "address": "151 Allen St, New York, NY 10002", "coordinates": "40.72088,-73.98981", "rating": 4.5, "review_count": 59, "zip_code": "10002", "cuisineType": "japanese", "insertedAtTimestamp": "2022-10-19 21:36:38.410744"}, {"businessID": "ur679FKjXosJ1VnddICDiw", "name": "Don Wagyu", "address": "600 11th Ave, Gotham West Market, New York, NY 10036", "coordinates": "40.76234,-73.996759", "rating": 4.0, "review_count": 63, "zip_code": "10036", "cuisineType": "japanese", "insertedAtTimestamp": "2022-10-19 21:36:38.627011"}, {"businessID": "AudBWxeAr3zHr1ITrTcVpg", "name": "Izakaya Fuku", "address": "71-28 Roosevelt Ave, Jackson Heights, NY 11372", "coordinates": "40.74635,-73.89383", "rating": 4.5, "review_count": 201, "zip_code": "11372", "cuisineType": "japanese", "insertedAtTimestamp": "2022-10-19 21:36:38.814466"}, {"businessID": "VdAVjghEq_Zl-DDte0mjrw", "name": "ACRE", "address": "64 Meserole Ave, Brooklyn, NY 11222", "coordinates": "40.72633,-73.95471", "rating": 4.5, "review_count": 74, "zip_code": "11222", "cuisineType": "japanese", "insertedAtTimestamp": "2022-10-19 21:36:39.034136"}, {"businessID": "9xRIcn0jTyvWNH9aBO3oAA", "name": "Kenka", "address": "25 St Marks Pl, New York, NY 10003", "coordinates": "40.72913,-73.988465", "rating": 3.5, "review_count": 1625, "zip_code": "10003", "cuisineType": "japanese", "insertedAtTimestamp": "2022-10-19 21:36:39.261336"}, {"businessID": "Pe4cQ65ZJ9qS8JQZVkJz4g", "name": "shabushabu Mayumon", "address": "115 Division St, New York, NY 10002", "coordinates": "40.71434,-73.99205", "rating": 4.5, "review_count": 72, "zip_code": "10002", "cuisineType": "japanese", "insertedAtTimestamp": "2022-10-19 21:36:39.427166"}, {"businessID": "zGAQqDu0Ak2khVYs9WdQxw", "name": "Sushi Nakazawa", "address": "23 Commerce St, New York, NY 10014", "coordinates": "40.7317465228689,-74.0045493828034", "rating": 4.5, "review_count": 1624, "zip_code": "10014", "cuisineType": "japanese", "insertedAtTimestamp": "2022-10-19 21:36:39.682739"}, {"businessID": "VaDTMmv1Yq7A4xBhd1Mb_Q", "name": "Sanyuu West", "address": "228 W 18th St, New York, NY 10011", "coordinates": "40.74156,-73.99932", "rating": 4.5, "review_count": 49, "zip_code": "10011", "cuisineType": "japanese", "insertedAtTimestamp": "2022-10-19 21:36:39.911498"}, {"businessID": "uXsYr76zioJq7jjOKRwQog", "name": "Shinbashi 72", "address": "218 W 72nd St, New York, NY 10023", "coordinates": "40.778775,-73.982884", "rating": 5.0, "review_count": 76, "zip_code": "10023", "cuisineType": "japanese", "insertedAtTimestamp": "2022-10-19 21:36:40.149673"}, {"businessID": "lSKEPxxTYxCN9oi6CXRmcQ", "name": "Kin Ramen", "address": "129 W 56th St, New York, NY 10019", "coordinates": "40.76435,-73.97904", "rating": 4.5, "review_count": 136, "zip_code": "10019", "cuisineType": "japanese", "insertedAtTimestamp": "2022-10-19 21:36:40.319836"}, {"businessID": "YoR6ouUwehLFnBQ7RAjPlw", "name": "Zawa Japanese", "address": "354 E 66th St, New York, NY 10065", "coordinates": "40.76397,-73.9592", "rating": 4.5, "review_count": 142, "zip_code": "10065", "cuisineType": "japanese", "insertedAtTimestamp": "2022-10-19 21:36:40.556318"}, {"businessID": "Vf38zUk09gMgEzg60BrACA", "name": "Dark Bullet Sake & Oyster Bar", "address": "154 W 72nd St, New York, NY 10023", "coordinates": "40.77807,-73.98079", "rating": 4.5, "review_count": 135, "zip_code": "10023", "cuisineType": "japanese", "insertedAtTimestamp": "2022-10-19 21:36:40.781194"}, {"businessID": "yj4culC4vfNKWXdj5ZxJ4Q", "name": "Kosaka", "address": "220 W 13th St, New York, NY 10011", "coordinates": "40.7381972955808,-74.0014449879527", "rating": 4.5, "review_count": 193, "zip_code": "10011", "cuisineType": "japanese", "insertedAtTimestamp": "2022-10-19 21:36:40.984253"}, {"businessID": "dOxHYQmBR14Fa2C1X8oMMQ", "name": "Sushi Lab", "address": "132 W 47th St, New York, NY 10036", "coordinates": "40.758516991160704,-73.98320969386562", "rating": 4.5, "review_count": 450, "zip_code": "10036", "cuisineType": "japanese", "insertedAtTimestamp": "2022-10-19 21:36:41.392848"}, {"businessID": "DuKEM58WxRQ2QqtuGRs5Hw", "name": "Sushi Yugen", "address": "1144 1st Ave, New York, NY 10065", "coordinates": "40.76196,-73.96005", "rating": 4.5, "review_count": 19, "zip_code": "10065", "cuisineType": "japanese", "insertedAtTimestamp": "2022-10-19 21:36:41.637177"}, {"businessID": "pTMnHb_W3sKqS8oCzjHdVA", "name": "SenYa", "address": "109 1st Ave, New York, NY 10003", "coordinates": "40.7269015463545,-73.986101118587", "rating": 4.0, "review_count": 311, "zip_code": "10003", "cuisineType": "japanese", "insertedAtTimestamp": "2022-10-19 21:36:41.835770"}, {"businessID": "xP-c8eSGQpmegsPooqdi5w", "name": "Bonsaii", "address": "127 E 55th St, New York, NY 10022", "coordinates": "40.75989,-73.97046", "rating": 5.0, "review_count": 6, "zip_code": "10022", "cuisineType": "japanese", "insertedAtTimestamp": "2022-10-19 21:36:42.032256"}, {"businessID": "PTYUAAJbEmvIv4EsyRrcnA", "name": "Momoya", "address": "427 Amsterdam Ave, New York, NY 10024", "coordinates": "40.784043,-73.977391", "rating": 4.0, "review_count": 526, "zip_code": "10024", "cuisineType": "japanese", "insertedAtTimestamp": "2022-10-19 21:36:42.252126"}, {"businessID": "0LRQqNFqK78TcLnPONrGHg", "name": "Yoshino", "address": "342 Bowery, New York, NY 10012", "coordinates": "40.726243,-73.992195", "rating": 4.5, "review_count": 23, "zip_code": "10012", "cuisineType": "japanese", "insertedAtTimestamp": "2022-10-19 21:36:42.467453"}, {"businessID": "n1xpGOPa7XRq4or7QLjzHw", "name": "DokoDemo", "address": "89 E 4th St, New York, NY 10003", "coordinates": "40.72638,-73.98964", "rating": 4.5, "review_count": 368, "zip_code": "10003", "cuisineType": "japanese", "insertedAtTimestamp": "2022-10-19 21:36:42.664672"}, {"businessID": "wSGZA3DOFSUvALZRKCM_Sw", "name": "Tanoshi Sushi Sake Bar", "address": "1372 York Ave, New York, NY 10021", "coordinates": "40.767568,-73.952815", "rating": 4.5, "review_count": 789, "zip_code": "10021", "cuisineType": "japanese", "insertedAtTimestamp": "2022-10-19 21:36:43.162870"}, {"businessID": "u85kBa9tEF6-PU2zHDzrCw", "name": "Nite Nite", "address": "128 Meserole St, Brooklyn, NY 11206", "coordinates": "40.70785,-73.94476", "rating": 4.5, "review_count": 24, "zip_code": "11206", "cuisineType": "japanese", "insertedAtTimestamp": "2022-10-19 21:36:43.448115"}, {"businessID": "fePu8xy0ir_ikZcS_vVSBA", "name": "Asuka Sushi", "address": "300 W 23rd St, New York, NY 10011", "coordinates": "40.74529,-73.99888", "rating": 4.0, "review_count": 1066, "zip_code": "10011", "cuisineType": "japanese", "insertedAtTimestamp": "2022-10-19 21:36:43.660121"}, {"businessID": "x4BfdPUJQ4nCr3vvBH1IeA", "name": "Domakase", "address": "23 Avenue B, New York, NY 10009", "coordinates": "40.72218,-73.98319", "rating": 5.0, "review_count": 13, "zip_code": "10009", "cuisineType": "japanese", "insertedAtTimestamp": "2022-10-19 21:36:44.742937"}, {"businessID": "ieXKc6S3WlEiVkyxgaF9Ig", "name": "Tempura Matsui", "address": "222 E 39th St, New York, NY 10016", "coordinates": "40.74819,-73.97467", "rating": 4.5, "review_count": 173, "zip_code": "10016", "cuisineType": "japanese", "insertedAtTimestamp": "2022-10-19 21:36:44.978189"}, {"businessID": "1tee7X0yLzMmEYvyLLTSMw", "name": "Nikutei Futago", "address": "341 W Broadway, New York, NY 10013", "coordinates": "40.72256,-74.00345", "rating": 5.0, "review_count": 1, "zip_code": "10013", "cuisineType": "japanese", "insertedAtTimestamp": "2022-10-19 21:36:45.186322"}, {"businessID": "vX0_qcuVXoeeH1_24I8lSA", "name": "Sushi Kaito", "address": "244 W 72nd St, New York, NY 10023", "coordinates": "40.779199,-73.983662", "rating": 4.5, "review_count": 198, "zip_code": "10023", "cuisineType": "japanese", "insertedAtTimestamp": "2022-10-19 21:36:45.411478"}, {"businessID": "pil3w2-2REoXBwEToYZ_tQ", "name": "Bar Moga", "address": "128 W Houston St, New York, NY 10012", "coordinates": "40.72787,-74.00107", "rating": 4.0, "review_count": 260, "zip_code": "10012", "cuisineType": "japanese", "insertedAtTimestamp": "2022-10-19 21:36:45.639185"}, {"businessID": "J79s7qmQWz7Fj9-cIg1dhA", "name": "Hyotan nippon", "address": "119 E 59th St, New York, NY 10022", "coordinates": "40.7626266,-73.9687729", "rating": 5.0, "review_count": 1, "zip_code": "10022", "cuisineType": "japanese", "insertedAtTimestamp": "2022-10-19 21:36:45.822994"}, {"businessID": "iTj5T_jPYvznd1QTgs7NZw", "name": "Nai ", "address": "84 2nd Ave, New York, NY 10003", "coordinates": "40.726568148550406,-73.98890549678106", "rating": 4.5, "review_count": 1040, "zip_code": "10003", "cuisineType": "japanese", "insertedAtTimestamp": "2022-10-19 21:36:46.270434"}, {"businessID": "15R8rx9SHKNVYBwgAuTyGA", "name": "Sushi Ginza Onodera", "address": "461 5th Ave, New York, NY 10017", "coordinates": "40.7523399,-73.98151", "rating": 4.5, "review_count": 229, "zip_code": "10017", "cuisineType": "japanese", "insertedAtTimestamp": "2022-10-19 21:36:46.484819"}, {"businessID": "FFzCto6PhZYZGUZLOICbTg", "name": "Okiboru House of Tsukemen", "address": "117 Orchard St, New York, NY 10002", "coordinates": "40.71934,-73.98971", "rating": 4.5, "review_count": 40, "zip_code": "10002", "cuisineType": "japanese", "insertedAtTimestamp": "2022-10-19 21:36:46.772855"}, {"businessID": "4TQMO6AaKSXHMbKvGAf-gg", "name": "Llama San", "address": "359 6th Ave, New York, NY 10014", "coordinates": "40.73225,-74.00078", "rating": 4.0, "review_count": 258, "zip_code": "10014", "cuisineType": "japanese", "insertedAtTimestamp": "2022-10-19 21:36:47.021166"}, {"businessID": "aK2ipD9K8-usBw_gkvvJuw", "name": "Nare Sushi", "address": "115 E 57th St, New York, NY 10022", "coordinates": "40.76143,-73.96992", "rating": 4.0, "review_count": 388, "zip_code": "10022", "cuisineType": "japanese", "insertedAtTimestamp": "2022-10-19 21:36:47.231132"}, {"businessID": "fuNopXJyttOnvIRo5Ht_Zw", "name": "Hiramasa", "address": "1312 Madison Ave, New York, NY 10128", "coordinates": "40.78526,-73.95579", "rating": 4.5, "review_count": 9, "zip_code": "10128", "cuisineType": "japanese", "insertedAtTimestamp": "2022-10-19 21:36:47.507395"}, {"businessID": "XOUhjDQ4nRn8-u-79MHFww", "name": "Kohoku-Ku Ramen", "address": "709 9th Ave, New York, NY 10019", "coordinates": "40.76265,-73.9899", "rating": 4.5, "review_count": 144, "zip_code": "10019", "cuisineType": "japanese", "insertedAtTimestamp": "2022-10-19 21:36:47.711135"}, {"businessID": "IPhWpqIuAiEerKlLS82RpQ", "name": "noda", "address": "37 W 20th St, New York, NY 10011", "coordinates": "40.74072,-73.99318", "rating": 4.5, "review_count": 54, "zip_code": "10011", "cuisineType": "japanese", "insertedAtTimestamp": "2022-10-19 21:36:47.927803"}, {"businessID": "frjMUU8VpT6Ou0y7TWEgYw", "name": "Hana", "address": "10-12 W 51st St, New York, NY 10111", "coordinates": "40.7595357525026,-73.9776032938552", "rating": 3.5, "review_count": 3, "zip_code": "10111", "cuisineType": "japanese", "insertedAtTimestamp": "2022-10-19 21:36:48.162270"}, {"businessID": "l5ljyjseOlWnvIVEXx0LxA", "name": "TomoTomo", "address": "152 W 52nd St, Ste 109, New York, NY 10019", "coordinates": "40.76182,-73.981741", "rating": 4.5, "review_count": 48, "zip_code": "10019", "cuisineType": "japanese", "insertedAtTimestamp": "2022-10-19 21:36:48.378399"}, {"businessID": "PRQyJoum--REZ-yeEidyBg", "name": "Soba Noodle Azuma", "address": "246 Main St, Fort Lee, NJ 07024", "coordinates": "40.85172,-73.97219", "rating": 4.5, "review_count": 397, "zip_code": "07024", "cuisineType": "japanese", "insertedAtTimestamp": "2022-10-19 21:36:48.596186"}, {"businessID": "W08oKnigMWp4FFiGF1NJVg", "name": "Sushi Blossoms", "address": "334 8th Ave, New York, NY 10001", "coordinates": "40.747385365668656,-73.99678497525383", "rating": 4.5, "review_count": 40, "zip_code": "10001", "cuisineType": "japanese", "insertedAtTimestamp": "2022-10-19 21:36:48.800549"}, {"businessID": "kIzVGUWS2b5H_b-G0Q0-0g", "name": "Katana Kitten", "address": "531 Hudson St, New York, NY 10014", "coordinates": "40.73425,-74.00639", "rating": 4.0, "review_count": 165, "zip_code": "10014", "cuisineType": "japanese", "insertedAtTimestamp": "2022-10-19 21:36:49.050763"}, {"businessID": "Xb-NlVV5gYKX2Amd_WeWoQ", "name": "Tanoshi Bento", "address": "1372 York Ave, New York, NY 10021", "coordinates": "40.76763,-73.95296", "rating": 4.0, "review_count": 72, "zip_code": "10021", "cuisineType": "japanese", "insertedAtTimestamp": "2022-10-19 21:36:49.289598"}, {"businessID": "xuAtvWwGXfWGnxYK5hYvZg", "name": "Kettl", "address": "70 Greenpoint Ave, Brooklyn, NY 11222", "coordinates": "40.7296233,-73.95814229999999", "rating": 4.5, "review_count": 25, "zip_code": "11222", "cuisineType": "japanese", "insertedAtTimestamp": "2022-10-19 21:36:49.563206"}, {"businessID": "gDcpB3AnhXv9-NUf_3chEA", "name": "Daikanyama", "address": "1000 3rd Ave, New York, NY 10022", "coordinates": "40.762478,-73.967158", "rating": 4.0, "review_count": 26, "zip_code": "10022", "cuisineType": "japanese", "insertedAtTimestamp": "2022-10-19 21:36:49.781021"}, {"businessID": "si2876l1SPviovJWqWXPdw", "name": "Omakaseed", "address": "1204 Broadway, New York, NY 10001", "coordinates": "40.74639,-73.98838", "rating": 4.5, "review_count": 12, "zip_code": "10001", "cuisineType": "japanese", "insertedAtTimestamp": "2022-10-19 21:36:49.949013"}, {"businessID": "DggqVM54aBZG4XMmUCY2Og", "name": "Rabbit House Omakase & Sake Bar ", "address": "41 Essex St, New York, NY 10002", "coordinates": "40.71626,-73.98955", "rating": 4.5, "review_count": 91, "zip_code": "10002", "cuisineType": "japanese", "insertedAtTimestamp": "2022-10-19 21:36:50.195466"}, {"businessID": "K84FS4X-Hj2Xt_uUCjwNIA", "name": "Kissaki Sushi", "address": "286 Columbus Ave, New York, NY 10023", "coordinates": "40.778571,-73.978209", "rating": 3.5, "review_count": 50, "zip_code": "10023", "cuisineType": "japanese", "insertedAtTimestamp": "2022-10-19 21:36:50.376037"}, {"businessID": "mm8gYHxaLLRyv3CslY40TA", "name": "Suzuki Shokudo", "address": "38-01 31st St, Long Island City, NY 11101", "coordinates": "40.75353,-73.93184", "rating": 4.5, "review_count": 186, "zip_code": "11101", "cuisineType": "japanese", "insertedAtTimestamp": "2022-10-19 21:36:50.562857"}, {"businessID": "tO6ktIDgzUQ4XOGR6-Vkvw", "name": "Yopparai Ronin", "address": "69 Clinton St, New York, NY 10002", "coordinates": "40.71935,-73.98509", "rating": 4.5, "review_count": 24, "zip_code": "10002", "cuisineType": "japanese", "insertedAtTimestamp": "2022-10-19 21:36:50.774312"}, {"businessID": "c9WNksyNtogFwZ1NZhlbNw", "name": "Sushi 35 West", "address": "232 W35th St, 2FL, New York, NY 10001", "coordinates": "40.7518385,-73.99131299999999", "rating": 4.5, "review_count": 85, "zip_code": "10001", "cuisineType": "japanese", "insertedAtTimestamp": "2022-10-19 21:36:51.836952"}, {"businessID": "m6sYBuozGY1JhnHlBf1Bzg", "name": "BondST", "address": "6 Bond St, New York, NY 10012", "coordinates": "40.726934,-73.994404", "rating": 4.0, "review_count": 1086, "zip_code": "10012", "cuisineType": "japanese", "insertedAtTimestamp": "2022-10-19 21:36:52.069539"}, {"businessID": "a8Lj13uc3Hhyjm0eYL90sw", "name": "Sushi On Me", "address": "71-26 Roosevelt Ave, Jackson Heights, NY 11372", "coordinates": "40.746444,-73.893947", "rating": 5.0, "review_count": 193, "zip_code": "11372", "cuisineType": "japanese", "insertedAtTimestamp": "2022-10-19 21:36:52.309021"}, {"businessID": "xIhXl2kl7stTSypUAIBNFQ", "name": "Kappo Sono", "address": "177 Ludlow St, New York, NY 11102", "coordinates": "40.72193,-73.98753", "rating": 5.0, "review_count": 4, "zip_code": "11102", "cuisineType": "japanese", "insertedAtTimestamp": "2022-10-19 21:36:52.523931"}, {"businessID": "U28l2acDK2k5PlssjzoCZA", "name": "Kaizen", "address": "33-70 Farrington St, Flushing, NY 11354", "coordinates": "40.76516,-73.83222", "rating": 4.0, "review_count": 76, "zip_code": "11354", "cuisineType": "japanese", "insertedAtTimestamp": "2022-10-19 21:36:52.757788"}, {"businessID": "56PeolgNURAG4x6q7nanmw", "name": "Odo", "address": "17 W 20th St, New York, NY 10011", "coordinates": "40.74032,-73.99223", "rating": 4.0, "review_count": 46, "zip_code": "10011", "cuisineType": "japanese", "insertedAtTimestamp": "2022-10-19 21:36:52.971079"}, {"businessID": "5UqEDoMZCrvhSKgCWg5GGw", "name": "Isohama", "address": "1666 3rd Ave, New York, NY 10128", "coordinates": "40.78361,-73.95088", "rating": 4.0, "review_count": 206, "zip_code": "10128", "cuisineType": "japanese", "insertedAtTimestamp": "2022-10-19 21:36:53.172668"}, {"businessID": "nOyivdUQpQ0aNHD4lRVxSg", "name": "Katsuya", "address": "398 10th Ave, New York, NY 10001", "coordinates": "40.7536552,-73.9996342", "rating": 3.5, "review_count": 61, "zip_code": "10001", "cuisineType": "japanese", "insertedAtTimestamp": "2022-10-19 21:36:53.445468"}, {"businessID": "TINmdFoqN8zm1MUpgRt7Jw", "name": "Gugu Room", "address": "143 Orchard St, New York, NY 10002", "coordinates": "40.720122880732625,-73.98932690000238", "rating": 4.0, "review_count": 59, "zip_code": "10002", "cuisineType": "japanese", "insertedAtTimestamp": "2022-10-19 21:36:53.674384"}, {"businessID": "OD4um1mrqmeInzIDNNsF9g", "name": "The Chemistry Room", "address": "130 West 47th St, New York, NY 10036", "coordinates": "40.75844,-73.98306", "rating": 4.5, "review_count": 47, "zip_code": "10036", "cuisineType": "japanese", "insertedAtTimestamp": "2022-10-19 21:36:53.847451"}, {"businessID": "lKmTolO1DHmStA1GW47Zvg", "name": "Misoya - West Village", "address": "535 Hudson St, New York, NY 10014", "coordinates": "40.734482710365285,-74.00639780193957", "rating": 5.0, "review_count": 16, "zip_code": "10014", "cuisineType": "japanese", "insertedAtTimestamp": "2022-10-19 21:36:54.049761"}, {"businessID": "22uB5xk1aXPwRi9mc6bmOQ", "name": "Ajisai on Duane", "address": "183 Duane St, New York, NY 10013", "coordinates": "40.71751,-74.01021", "rating": 5.0, "review_count": 20, "zip_code": "10013", "cuisineType": "japanese", "insertedAtTimestamp": "2022-10-19 21:36:54.215039"}, {"businessID": "hWtw8sxmO2cvSejhFHk5jQ", "name": "Ramen Ku-Raku", "address": "3952 Broadway, New York, NY 10032", "coordinates": "40.83952895168753,-73.94058211852735", "rating": 4.0, "review_count": 27, "zip_code": "10032", "cuisineType": "japanese", "insertedAtTimestamp": "2022-10-19 21:36:54.408933"}, {"businessID": "iPLwO2X4t3Axu02I_-U1CQ", "name": "Harajuku Ramen", "address": "1393B 2nd Ave, New York, NY 10021", "coordinates": "40.769341,-73.95828949999999", "rating": 4.0, "review_count": 17, "zip_code": "10021", "cuisineType": "japanese", "insertedAtTimestamp": "2022-10-19 21:36:54.605825"}, {"businessID": "skL_mmJRGkLTrdYhy3rnlg", "name": "Sushi Hatsune", "address": "50 Eldridge St, New York, NY 10002", "coordinates": "40.715995320569505,-73.9927898728603", "rating": 4.5, "review_count": 47, "zip_code": "10002", "cuisineType": "japanese", "insertedAtTimestamp": "2022-10-19 21:36:54.790561"}, {"businessID": "YvRTy-6_akPsz25BSSuC_w", "name": "Sushi Teru", "address": "615 1/2 Hudson St, New York, NY 10014", "coordinates": "40.737832,-74.00594", "rating": 4.5, "review_count": 50, "zip_code": "10014", "cuisineType": "japanese", "insertedAtTimestamp": "2022-10-19 21:36:55.172166"}, {"businessID": "KUQC0yJiwVRnxCYuF9IGfw", "name": "Sushi 456", "address": "456 Hudson St, New York, NY 10014", "coordinates": "40.7313524,-74.0065048", "rating": 4.5, "review_count": 48, "zip_code": "10014", "cuisineType": "japanese", "insertedAtTimestamp": "2022-10-19 21:36:55.377768"}, {"businessID": "ynR4-QgEOsE7VhNfIWo73w", "name": "Secchu Yokota", "address": "199 E 3rd St, Fl 1, New York, NY 10009", "coordinates": "40.722841651410874,-73.9831015", "rating": 4.5, "review_count": 139, "zip_code": "10009", "cuisineType": "japanese", "insertedAtTimestamp": "2022-10-19 21:36:55.618079"}, {"businessID": "Vax8zZArgIYvnXfjqX_DxA", "name": "Saito", "address": "72 Kenmare St, New York, NY 10012", "coordinates": "40.720996162669245,-73.99643929796302", "rating": 4.0, "review_count": 13, "zip_code": "10012", "cuisineType": "japanese", "insertedAtTimestamp": "2022-10-19 21:36:55.830047"}, {"businessID": "LOFl1w5bXrAdDRAQ-vi3_A", "name": "Koyo", "address": "3712 31st Ave, Astoria, NY 11103", "coordinates": "40.76164,-73.91838", "rating": 4.5, "review_count": 68, "zip_code": "11103", "cuisineType": "japanese", "insertedAtTimestamp": "2022-10-19 21:36:56.050961"}, {"businessID": "Rw4m0AKl1hIkRZMVQ3ueXw", "name": "Hiyake Omakase", "address": "135 Bowery, New York, NY 10002", "coordinates": "40.71871,-73.9945", "rating": 4.5, "review_count": 47, "zip_code": "10002", "cuisineType": "japanese", "insertedAtTimestamp": "2022-10-19 21:36:56.245015"}, {"businessID": "zuD-iB7hV_dnf_JzBk_DCQ", "name": "Juku", "address": "32 Mulberry St, New York, NY 10013", "coordinates": "40.71461,-73.999528", "rating": 4.0, "review_count": 148, "zip_code": "10013", "cuisineType": "japanese", "insertedAtTimestamp": "2022-10-19 21:36:56.496183"}, {"businessID": "oTL_nPII6x0HfPVpEQklUg", "name": "PLANTA Queen - Nomad", "address": "15 W 27th St, New York, NY 10001", "coordinates": "40.744435,-73.98832", "rating": 4.5, "review_count": 437, "zip_code": "10001", "cuisineType": "japanese", "insertedAtTimestamp": "2022-10-19 21:36:56.720898"}, {"businessID": "LLHY7JMG16gYuJzDYRskRQ", "name": "Icca", "address": "20 Warren St, New York, NY 10007", "coordinates": "40.71426825071808,-74.0077059598649", "rating": 4.5, "review_count": 8, "zip_code": "10007", "cuisineType": "japanese", "insertedAtTimestamp": "2022-10-19 21:36:56.940416"}, {"businessID": "Bm_OeNNmJ6Q8FXUDzGzfHw", "name": "K Minamoto", "address": "509 Madison Ave, New York, NY 10022", "coordinates": "40.759536,-73.9742545", "rating": 4.5, "review_count": 166, "zip_code": "10022", "cuisineType": "japanese", "insertedAtTimestamp": "2022-10-19 21:36:57.433801"}, {"businessID": "0ASfmKBIeJlTO6IzES6rzw", "name": "Shiki Omakase", "address": "71 W Houston St, New York, NY 10012", "coordinates": "40.72654,-73.99956", "rating": 4.5, "review_count": 247, "zip_code": "10012", "cuisineType": "japanese", "insertedAtTimestamp": "2022-10-19 21:36:57.598302"}, {"businessID": "et9pAFtSvNOct9Qcmtcf7g", "name": "Mido Japanese", "address": "612 Amsterdam Ave, Bet. West 89 St and West 90 St, New York, NY 10024", "coordinates": "40.7900491,-73.9734598", "rating": 4.0, "review_count": 259, "zip_code": "10024", "cuisineType": "japanese", "insertedAtTimestamp": "2022-10-19 21:36:58.706274"}, {"businessID": "xW_gQGS4FC1nyl_7qXNAAQ", "name": "Koko\u2019s ", "address": "588 Grand St, Brooklyn, NY 11211", "coordinates": "40.71114001497747,-73.9483030367001", "rating": 4.5, "review_count": 25, "zip_code": "11211", "cuisineType": "japanese", "insertedAtTimestamp": "2022-10-19 21:36:58.936535"}, {"businessID": "wH2hXRoFORQXF319oCGmWw", "name": "Sweets Laboratory by Hanamizuki", "address": "143 W 29th St, New York, NY 10001", "coordinates": "40.747539,-73.991601", "rating": 4.5, "review_count": 51, "zip_code": "10001", "cuisineType": "japanese", "insertedAtTimestamp": "2022-10-19 21:36:59.137514"}, {"businessID": "TeBthQZ2xpxyvXheS08ovw", "name": "Blue Ribbon Sushi Izakaya", "address": "187 Orchard St, New York, NY 10002", "coordinates": "40.7220839812692,-73.9882245327093", "rating": 4.0, "review_count": 557, "zip_code": "10002", "cuisineType": "japanese", "insertedAtTimestamp": "2022-10-19 21:36:59.362709"}, {"businessID": "C5tqSSgVPfgtsJn3QnvDiQ", "name": "Hibino", "address": "10-70 Jackson Ave, Long Island City, NY 11101", "coordinates": "40.742626,-73.95198", "rating": 4.0, "review_count": 261, "zip_code": "11101", "cuisineType": "japanese", "insertedAtTimestamp": "2022-10-19 21:36:59.591089"}, {"businessID": "oMDKIzPJWkh99UuUP_4ikg", "name": "MI-NE Deli", "address": "496 6th Ave, New York, NY 10011", "coordinates": "40.73623,-73.99723", "rating": 4.5, "review_count": 10, "zip_code": "10011", "cuisineType": "japanese", "insertedAtTimestamp": "2022-10-19 21:36:59.799683"}, {"businessID": "wlgM8cU6BOm2sLGud-n-rw", "name": "MOKO", "address": "138 2nd Ave, New York, NY 10003", "coordinates": "40.72881,-73.98727", "rating": 4.0, "review_count": 109, "zip_code": "10003", "cuisineType": "japanese", "insertedAtTimestamp": "2022-10-19 21:36:59.976721"}, {"businessID": "X7G_sOUkfYVsZzA1WUuYwg", "name": "Torien", "address": "292 Elizabeth St, New York, NY 10012", "coordinates": "40.724773,-73.993168", "rating": 4.0, "review_count": 33, "zip_code": "10012", "cuisineType": "japanese", "insertedAtTimestamp": "2022-10-19 21:37:00.188743"}, {"businessID": "bu7k1pBrfbhGzYao3YoHsg", "name": "Nara Sushi", "address": "76 Pearl St, New York, NY 10004", "coordinates": "40.70377,-74.01041", "rating": 4.5, "review_count": 85, "zip_code": "10004", "cuisineType": "japanese", "insertedAtTimestamp": "2022-10-19 21:37:00.385633"}, {"businessID": "diiUjS6uHvbQRoiWOGKXsA", "name": "Nami Nori", "address": "236 N 12th St, Brooklyn, NY 11211", "coordinates": "40.71913964537471,-73.95284072719873", "rating": 4.5, "review_count": 84, "zip_code": "11211", "cuisineType": "japanese", "insertedAtTimestamp": "2022-10-19 21:37:00.573440"}, {"businessID": "ulyoll6G7GmmWXzBPSD4mw", "name": "Kuu", "address": "1275 1st Ave, New York, NY 10065", "coordinates": "40.7657667005563,-73.9577598497272", "rating": 4.0, "review_count": 60, "zip_code": "10065", "cuisineType": "japanese", "insertedAtTimestamp": "2022-10-19 21:37:00.801968"}, {"businessID": "hY80ALWhA_i1yqMA0L3ruA", "name": "Mojo Omakase", "address": "177 9th Ave, New York, NY 10011", "coordinates": "40.7450569,-74.0027927", "rating": 4.5, "review_count": 105, "zip_code": "10011", "cuisineType": "japanese", "insertedAtTimestamp": "2022-10-19 21:37:01.006094"}, {"businessID": "VxMT2lqRY9wZOxVaXupltQ", "name": "Okozushi", "address": "376 Graham Ave, Brooklyn, NY 11211", "coordinates": "40.71565,-73.9444", "rating": 4.0, "review_count": 45, "zip_code": "11211", "cuisineType": "japanese", "insertedAtTimestamp": "2022-10-19 21:37:01.202697"}, {"businessID": "_Rht6oJmkku0kJob-fMzNw", "name": "Sankaku Bar", "address": "428 Greenwich St, New York, NY 10013", "coordinates": "40.72241,-74.00986", "rating": 4.5, "review_count": 7, "zip_code": "10013", "cuisineType": "japanese", "insertedAtTimestamp": "2022-10-19 21:37:01.471783"}, {"businessID": "QaEqD7q2GtmlovBOPC6yIQ", "name": "Murasaki", "address": "46-44 Vernon Blvd, Long Island City, NY 11101", "coordinates": "40.74567678701478,-73.95327455356471", "rating": 4.5, "review_count": 255, "zip_code": "11101", "cuisineType": "japanese", "insertedAtTimestamp": "2022-10-19 21:37:01.799495"}, {"businessID": "fDeC90b2ZqPQClL62jOUmw", "name": "Omakase Room by Mitsu", "address": "14 Christopher St, New York, NY 10014", "coordinates": "40.73382,-74.00042", "rating": 4.5, "review_count": 201, "zip_code": "10014", "cuisineType": "japanese", "insertedAtTimestamp": "2022-10-19 21:37:01.962700"}, {"businessID": "_jX0YO1PykUrRKCLo0WxIw", "name": "omakase room by maaser", "address": "321 Bleecker St, New York, NY 10014", "coordinates": "40.733205,-74.003923", "rating": 4.5, "review_count": 204, "zip_code": "10014", "cuisineType": "japanese", "insertedAtTimestamp": "2022-10-19 21:37:02.155052"}, {"businessID": "d7X3d_siRqmj88ZZerXhsw", "name": "Noz Market", "address": "1374 3rd Ave, New York, NY 10075", "coordinates": "40.77382345943564,-73.9579557", "rating": 4.0, "review_count": 34, "zip_code": "10075", "cuisineType": "japanese", "insertedAtTimestamp": "2022-10-19 21:37:02.379120"}, {"businessID": "kQa2W0D84lwO31QgUPoOLA", "name": "Ushiwakamaru", "address": "362 W 23rd St, New York, NY 10011", "coordinates": "40.746132011205994,-74.00103248594787", "rating": 4.0, "review_count": 201, "zip_code": "10011", "cuisineType": "japanese", "insertedAtTimestamp": "2022-10-19 21:37:02.612947"}, {"businessID": "YpIedbRiIE30QCGJiTx0ng", "name": "Ondo Omakase", "address": "301 Elizabeth St, New York, NY 10012", "coordinates": "40.72465,-73.99348", "rating": 5.0, "review_count": 11, "zip_code": "10012", "cuisineType": "japanese", "insertedAtTimestamp": "2022-10-19 21:37:02.950512"}, {"businessID": "kvpSqh3q7r3HK3Tw-wXGEQ", "name": "Ashbox", "address": "1154 Manhattan Ave, Brooklyn, NY 11222", "coordinates": "40.738267,-73.955158", "rating": 4.5, "review_count": 146, "zip_code": "11222", "cuisineType": "japanese", "insertedAtTimestamp": "2022-10-19 21:37:03.153034"}, {"businessID": "VVlHJ6_sJbRAodV5lCzBnA", "name": "Kanoyama", "address": "175 2nd Ave, New York, NY 10003", "coordinates": "40.730545186039,-73.986544028849", "rating": 4.0, "review_count": 708, "zip_code": "10003", "cuisineType": "japanese", "insertedAtTimestamp": "2022-10-19 21:37:03.391005"}, {"businessID": "OjL4yNu-EpUOeUMC64DWJw", "name": "The Izakaya NYC", "address": "215 East 4th St, Ground floor, New York, NY 10009", "coordinates": "40.723881,-73.983428", "rating": 4.0, "review_count": 39, "zip_code": "10009", "cuisineType": "japanese", "insertedAtTimestamp": "2022-10-19 21:37:03.573308"}, {"businessID": "dL6_XUUr_INX10IOMtSM0w", "name": "Oishi Bay", "address": "230 E 29th St, New York, NY 10016", "coordinates": "40.74187,-73.97895", "rating": 4.0, "review_count": 209, "zip_code": "10016", "cuisineType": "japanese", "insertedAtTimestamp": "2022-10-19 21:37:03.808848"}, {"businessID": "Zcc5Gbnd8nwtE_-uei4Swg", "name": "Mika", "address": "25 Thames St, Brooklyn, NY 11206", "coordinates": "40.705116,-73.931991", "rating": 4.0, "review_count": 38, "zip_code": "11206", "cuisineType": "japanese", "insertedAtTimestamp": "2022-10-19 21:37:04.009979"}, {"businessID": "3paq_lNru7Dkdjg5q97UAw", "name": "J\u2019s Kitchen New York", "address": "261 First Ave, New York, NY 10003", "coordinates": "40.73230536889889,-73.98224600204243", "rating": 5.0, "review_count": 17, "zip_code": "10003", "cuisineType": "japanese", "insertedAtTimestamp": "2022-10-19 21:37:05.195515"}, {"businessID": "u8seGm3CnP6RGEiimftUIQ", "name": "Tenzan", "address": "285 Columbus Ave, New York, NY 10023", "coordinates": "40.7783079154181,-73.9779206995186", "rating": 3.5, "review_count": 479, "zip_code": "10023", "cuisineType": "japanese", "insertedAtTimestamp": "2022-10-19 21:37:05.416168"}, {"businessID": "sCx8tslal3pMurNyGFVjMQ", "name": "Evil Katsu", "address": "435 East 9th, New York, NY 10009", "coordinates": "40.72768479788727,-73.98324300000446", "rating": 4.5, "review_count": 85, "zip_code": "10009", "cuisineType": "japanese", "insertedAtTimestamp": "2022-10-19 21:37:05.678578"}, {"businessID": "bnaeQCoBiQ7a5IfyBkrGCg", "name": "MIFUNE New York", "address": "245 E 44th St, New York, NY 10017", "coordinates": "40.75157,-73.97172", "rating": 4.0, "review_count": 215, "zip_code": "10017", "cuisineType": "japanese", "insertedAtTimestamp": "2022-10-19 21:37:05.871040"}, {"businessID": "kgEvAJBSRZo-QXD4UOyeBw", "name": "Shiro", "address": "285 Columbus Ave, New York, NY 10023", "coordinates": "40.77826,-73.97794", "rating": 4.5, "review_count": 23, "zip_code": "10023", "cuisineType": "japanese", "insertedAtTimestamp": "2022-10-19 21:37:06.091230"}, {"businessID": "EBIjeMlkgU12CyCcUDj-kg", "name": "Shuko", "address": "47 E 12th St, New York, NY 10003", "coordinates": "40.7334269431242,-73.9914635674129", "rating": 4.0, "review_count": 326, "zip_code": "10003", "cuisineType": "japanese", "insertedAtTimestamp": "2022-10-19 21:37:06.393585"}, {"businessID": "CZhWwJT5g84NahAE6hfDcw", "name": "Gongo", "address": "15 St Marks Pl, New York, NY 10003", "coordinates": "40.72931309158747,-73.98886944263467", "rating": 5.0, "review_count": 12, "zip_code": "10003", "cuisineType": "japanese", "insertedAtTimestamp": "2022-10-19 21:37:06.582064"}, {"businessID": "EWCxZFxS2DtOUQhFWKbvEw", "name": "Minka Japanese Kitchen", "address": "364 Lawton Ave, Cliffside Park, NJ 07010", "coordinates": "40.8277,-73.98744", "rating": 4.5, "review_count": 62, "zip_code": "07010", "cuisineType": "japanese", "insertedAtTimestamp": "2022-10-19 21:37:06.793462"}, {"businessID": "7qvsMuRypQYg1Ux8kghybg", "name": "Kissaki Omakase ", "address": "319 Bowery, New York, NY 10003", "coordinates": "40.72535,-73.99193", "rating": 4.0, "review_count": 203, "zip_code": "10003", "cuisineType": "japanese", "insertedAtTimestamp": "2022-10-19 21:37:06.988102"}, {"businessID": "c5tDD7auWMWEevkyxXBjUg", "name": "Mochidoki", "address": "1035 3rd Ave, New York, NY 10065", "coordinates": "40.76299,-73.96507", "rating": 4.5, "review_count": 11, "zip_code": "10065", "cuisineType": "japanese", "insertedAtTimestamp": "2022-10-19 21:37:07.195922"}, {"businessID": "3n6i8TwGEIL9KnCCHUyiqA", "name": "Sai", "address": "95-34 Queens Blvd, Rego Park, NY 11374", "coordinates": "40.73012,-73.8636", "rating": 4.5, "review_count": 309, "zip_code": "11374", "cuisineType": "japanese", "insertedAtTimestamp": "2022-10-19 21:37:07.456041"}, {"businessID": "yecdlU3oJb1c7rwbjtxchQ", "name": "Marufuku Ramen - New York", "address": "92 2nd Ave, New York, NY 10003", "coordinates": "40.72697,-73.98863", "rating": 4.5, "review_count": 148, "zip_code": "10003", "cuisineType": "japanese", "insertedAtTimestamp": "2022-10-19 21:37:07.635981"}, {"businessID": "_QxcsvPsYnOgPhiK6gzCfg", "name": "SHION 69 Leonard St", "address": "69 Leonard St, New York, NY 10013", "coordinates": "40.71772,-74.00538", "rating": 4.0, "review_count": 69, "zip_code": "10013", "cuisineType": "japanese", "insertedAtTimestamp": "2022-10-19 21:37:07.827202"}, {"businessID": "ZSrZVW2tUBmhJqmO88k3_g", "name": "Ten Kai Japanese Restaurant", "address": "20 W 56th St, New York, NY 10019", "coordinates": "40.7626190185547,-73.9758224487305", "rating": 5.0, "review_count": 1, "zip_code": "10019", "cuisineType": "japanese", "insertedAtTimestamp": "2022-10-19 21:37:08.014869"}, {"businessID": "MGRo61aHFUeRlWhSbTv2NA", "name": "Sushi By M", "address": "300 E 5th St, New York, NY 10003", "coordinates": "40.72659,-73.98873", "rating": 4.5, "review_count": 956, "zip_code": "10003", "cuisineType": "japanese", "insertedAtTimestamp": "2022-10-19 21:37:08.211722"}, {"businessID": "1rjxNwYpg0orCcZi0ku9Nw", "name": "Hasaki", "address": "210 E 9th St, Basement, New York, NY 10003", "coordinates": "40.729682,-73.988868", "rating": 3.5, "review_count": 387, "zip_code": "10003", "cuisineType": "japanese", "insertedAtTimestamp": "2022-10-19 21:37:08.434680"}, {"businessID": "42j0S2yFg4B6jO95I4Lfog", "name": "Bentos", "address": "315 Fifth Ave, New York, NY 10016", "coordinates": "40.746897,-73.985172", "rating": 4.5, "review_count": 65, "zip_code": "10016", "cuisineType": "japanese", "insertedAtTimestamp": "2022-10-19 21:37:08.664811"}, {"businessID": "1WeOq3GcrOAGB9QJrJ6Tug", "name": "Genki Omakase", "address": "552 LaGuardia Pl, 1st Fl, New York, NY 10012", "coordinates": "40.72933,-73.99808", "rating": 4.5, "review_count": 130, "zip_code": "10012", "cuisineType": "japanese", "insertedAtTimestamp": "2022-10-19 21:37:08.826553"}, {"businessID": "IAAMu9TfVLopuSSiqQeqhg", "name": "Mazete", "address": "666 6th Ave, New York, NY 10010", "coordinates": "40.741263,-73.993641", "rating": 4.5, "review_count": 50, "zip_code": "10010", "cuisineType": "japanese", "insertedAtTimestamp": "2022-10-19 21:37:09.018774"}, {"businessID": "Gb79W0yuQfJvu0V0SDC0Ag", "name": "Aya Sushi", "address": "314 W 39th St, New York, NY 10018", "coordinates": "40.75561,-73.99207", "rating": 4.0, "review_count": 340, "zip_code": "10018", "cuisineType": "japanese", "insertedAtTimestamp": "2022-10-19 21:37:09.211955"}, {"businessID": "Lz_9RXFKmOaSA4IpgV6NlA", "name": "Karazishi Botan", "address": "255 Smith St, Brooklyn, NY 11231", "coordinates": "40.68312,-73.99278", "rating": 4.5, "review_count": 84, "zip_code": "11231", "cuisineType": "japanese", "insertedAtTimestamp": "2022-10-19 21:37:09.422643"}, {"businessID": "zaYK-LuVRUoUVt6EV-xmPg", "name": "Tokyo Record Bar", "address": "127 Macdougal St, New York, NY 10012", "coordinates": "40.73063650237976,-74.0000907846602", "rating": 4.0, "review_count": 186, "zip_code": "10012", "cuisineType": "japanese", "insertedAtTimestamp": "2022-10-19 21:37:09.626138"}, {"businessID": "W_ebg9LGWmhuzffKnguwoQ", "name": "Sake Kawa", "address": "32-05 36th Ave, Astoria, NY 11106", "coordinates": "40.7563,-73.92855", "rating": 4.5, "review_count": 197, "zip_code": "11106", "cuisineType": "japanese", "insertedAtTimestamp": "2022-10-19 21:37:09.827366"}, {"businessID": "m1LMuSbxtps7WNGM38scWA", "name": "A-un Brooklyn", "address": "156 Knickerbocker Ave, New York, NY 11237", "coordinates": "40.70416,-73.92799", "rating": 5.0, "review_count": 9, "zip_code": "11237", "cuisineType": "japanese", "insertedAtTimestamp": "2022-10-19 21:37:10.910197"}, {"businessID": "j-r95E-S2GUyoR2b6MTqpA", "name": "Ozakaya", "address": "635 Vanderbilt Ave, Brooklyn, NY 11238", "coordinates": "40.67807,-73.96851", "rating": 4.0, "review_count": 62, "zip_code": "11238", "cuisineType": "japanese", "insertedAtTimestamp": "2022-10-19 21:37:11.181264"}, {"businessID": "vHs2lZOqcyuv5uO-OOs_Sg", "name": "To Date Japanese Food", "address": "768 57th St, Brooklyn, NY 11220", "coordinates": "40.637337,-74.008481", "rating": 4.5, "review_count": 53, "zip_code": "11220", "cuisineType": "japanese", "insertedAtTimestamp": "2022-10-19 21:37:11.375367"}, {"businessID": "_PGwWwpU4OrLBgdNainzoA", "name": "Bar Goto Niban", "address": "474 Bergen St, Brooklyn, NY 11217", "coordinates": "40.6807879,-73.9756403", "rating": 4.5, "review_count": 26, "zip_code": "11217", "cuisineType": "japanese", "insertedAtTimestamp": "2022-10-19 21:37:11.591922"}, {"businessID": "tdckhAU3bJyrUOusmMKTHQ", "name": "OYAMADA", "address": "31 E 20th St, New York, NY 10003", "coordinates": "40.73906323758397,-73.98889500204116", "rating": 5.0, "review_count": 9, "zip_code": "10003", "cuisineType": "japanese", "insertedAtTimestamp": "2022-10-19 21:37:11.789488"}, {"businessID": "TaDgnJXD6m_7BM9kGFtkWw", "name": "BBF", "address": "177 Ludlow St New York Ny, New York, NY 10002", "coordinates": "40.72193,-73.98753", "rating": 3.5, "review_count": 23, "zip_code": "10002", "cuisineType": "japanese", "insertedAtTimestamp": "2022-10-19 21:37:12.024474"}, {"businessID": "iHwhkW0LLlu81ZCir-lFQA", "name": "Gari Columbus", "address": "370 Columbus Ave, New York, NY 10024", "coordinates": "40.78112,-73.97632", "rating": 4.0, "review_count": 346, "zip_code": "10024", "cuisineType": "japanese", "insertedAtTimestamp": "2022-10-19 21:37:12.226333"}, {"businessID": "2df-xQAswinocvoXMg1glQ", "name": "Karls Balls", "address": "New York, NY 10025", "coordinates": "40.79884719848633,-73.96797943115234", "rating": 4.5, "review_count": 61, "zip_code": "10025", "cuisineType": "japanese", "insertedAtTimestamp": "2022-10-19 21:37:12.436260"}, {"businessID": "nhez4xxvwwYIQEN2Vrj9mQ", "name": "YUJI Ramen", "address": "150 Ainslie St, Brooklyn, NY 11211", "coordinates": "40.712527,-73.9487788", "rating": 4.0, "review_count": 134, "zip_code": "11211", "cuisineType": "japanese", "insertedAtTimestamp": "2022-10-19 21:37:12.633317"}, {"businessID": "LOZ0SaAh2uAMkRD47j6bhQ", "name": "Wakuwaku", "address": "269 36th St, Brooklyn, NY 11232", "coordinates": "40.6559047,-74.0067754", "rating": 3.5, "review_count": 69, "zip_code": "11232", "cuisineType": "japanese", "insertedAtTimestamp": "2022-10-19 21:37:12.847259"}, {"businessID": "U7gqQHSRFNYCad3qGLj3yQ", "name": "Umami Sushi", "address": "50 Greenwich Ave, New York, NY 10011", "coordinates": "40.73571,-74.00044", "rating": 4.5, "review_count": 203, "zip_code": "10011", "cuisineType": "japanese", "insertedAtTimestamp": "2022-10-19 21:37:13.037835"}, {"businessID": "zdgJUdnxkRmmtb4qIk0ZHg", "name": "Sushi Zo | Midtown New York", "address": "127 E 39th St, New York, NY 10016", "coordinates": "40.74971,-73.97759", "rating": 4.5, "review_count": 30, "zip_code": "10016", "cuisineType": "japanese", "insertedAtTimestamp": "2022-10-19 21:37:13.222552"}, {"businessID": "IU7J-biFGBwrl6qKBPGStQ", "name": "Sushi Tsushima", "address": "210 E 44th St, New York, NY 10017", "coordinates": "40.7516558,-73.9727916", "rating": 3.5, "review_count": 269, "zip_code": "10017", "cuisineType": "japanese", "insertedAtTimestamp": "2022-10-19 21:37:13.433857"}, {"businessID": "dMU62c3NKm7AFy90sA-Xtw", "name": "Kogane Ramen-Manhattan", "address": "337 W 14th St, New York, NY 10014", "coordinates": "40.74066,-74.00426", "rating": 4.5, "review_count": 257, "zip_code": "10014", "cuisineType": "japanese", "insertedAtTimestamp": "2022-10-19 21:37:13.647906"}, {"businessID": "JPEIN-ZFo0-6X06nz6cfYA", "name": "Sushi Daizen", "address": "47-38 Vernon Blvd, Long Island City, NY 11101", "coordinates": "40.74445,-73.9538199", "rating": 4.5, "review_count": 140, "zip_code": "11101", "cuisineType": "japanese", "insertedAtTimestamp": "2022-10-19 21:37:13.866007"}, {"businessID": "NCnOkzbyfzDltnBnJySfzw", "name": "Amami Bar and Restaurant", "address": "57 Nassau Ave, Brooklyn, NY 11222", "coordinates": "40.723548,-73.952194", "rating": 4.5, "review_count": 213, "zip_code": "11222", "cuisineType": "japanese", "insertedAtTimestamp": "2022-10-19 21:37:14.091033"}, {"businessID": "rd1mykKYMBlJW33kQmTRNQ", "name": "Mine Craft Sushi", "address": "15 St Marks Pl, New York, NY 10003", "coordinates": "40.72936,-73.98884", "rating": 4.5, "review_count": 42, "zip_code": "10003", "cuisineType": "japanese", "insertedAtTimestamp": "2022-10-19 21:37:14.327960"}, {"businessID": "lT-yNq6BW2vonJ9Ik-T5vg", "name": "Tonchin", "address": "109 N 3rd St, Brooklyn, NY 11249", "coordinates": "40.71676616063315,-73.9616957", "rating": 4.5, "review_count": 21, "zip_code": "11249", "cuisineType": "japanese", "insertedAtTimestamp": "2022-10-19 21:37:14.507785"}, {"businessID": "PuiSQqVdC38FhwXtWOPJzw", "name": "251 Ginza Sushi", "address": "251 E 35th St, New York, NY 10016", "coordinates": "40.745938977155,-73.975854889858", "rating": 4.0, "review_count": 256, "zip_code": "10016", "cuisineType": "japanese", "insertedAtTimestamp": "2022-10-19 21:37:14.694869"}, {"businessID": "bLDHO08mO_OMNMBW9gdetw", "name": "MoMo Sushi", "address": "239 Park Ave S, New York, NY 10003", "coordinates": "40.737917460763086,-73.98782763958498", "rating": 4.0, "review_count": 209, "zip_code": "10003", "cuisineType": "japanese", "insertedAtTimestamp": "2022-10-19 21:37:14.902428"}, {"businessID": "Vv-ub2rzm5WTDl_T0fiS8A", "name": "Kintsugi Omakase", "address": "28 Grand St, New York, NY 10013", "coordinates": "40.722956,-74.004625", "rating": 4.0, "review_count": 83, "zip_code": "10013", "cuisineType": "japanese", "insertedAtTimestamp": "2022-10-19 21:37:15.065437"}, {"businessID": "GuPAGPMXUHw4ntkEAA-tow", "name": "Domo Sushi", "address": "98 Mott St, New York, NY 10013", "coordinates": "40.71718,-73.99742", "rating": 4.5, "review_count": 31, "zip_code": "10013", "cuisineType": "japanese", "insertedAtTimestamp": "2022-10-19 21:37:15.268802"}, {"businessID": "SqUIFSqY1PWKWY_hfgJ0MQ", "name": "Maguro", "address": "160 E 28th St, New York, NY 10016", "coordinates": "40.7420234680176,-73.9813766479492", "rating": 3.5, "review_count": 419, "zip_code": "10016", "cuisineType": "japanese", "insertedAtTimestamp": "2022-10-19 21:37:15.474859"}, {"businessID": "25KSIumOXSnysnUIGAhNYw", "name": "Fuji Hibachi", "address": "321 W 42nd St, New York, NY 10036", "coordinates": "40.7579059,-73.99069", "rating": 3.5, "review_count": 379, "zip_code": "10036", "cuisineType": "japanese", "insertedAtTimestamp": "2022-10-19 21:37:15.680920"}, {"businessID": "RVfMXJ-149rpyJtAH0ejFg", "name": "Sushi of Miso", "address": "10-46 Jackson Ave, Long Island City, NY 11101", "coordinates": "40.7423109,-73.9526506", "rating": 5.0, "review_count": 5, "zip_code": "11101", "cuisineType": "japanese", "insertedAtTimestamp": "2022-10-19 21:37:15.867760"}, {"businessID": "arwQ6YiNFenQTCzFmPV4aQ", "name": "Sazanami", "address": "400 Main St, Fort Lee, NJ 07024", "coordinates": "40.853457,-73.974728", "rating": 4.5, "review_count": 67, "zip_code": "07024", "cuisineType": "japanese", "insertedAtTimestamp": "2022-10-19 21:37:16.078054"}, {"businessID": "9AUVb5HNQl2117Nkl7sP-Q", "name": "Takahachi Tribeca Restaurant", "address": "145 Duane St, New York, NY 10013", "coordinates": "40.71659,-74.007919", "rating": 4.0, "review_count": 267, "zip_code": "10013", "cuisineType": "japanese", "insertedAtTimestamp": "2022-10-19 21:37:16.290049"}, {"businessID": "b3fuuJzb0uQDtVD3Zxe2Qg", "name": "Sushi Ryusei", "address": "216 E 39th St, New York, NY 10016", "coordinates": "40.74845,-73.97513", "rating": 4.5, "review_count": 136, "zip_code": "10016", "cuisineType": "japanese", "insertedAtTimestamp": "2022-10-19 21:37:16.494119"}, {"businessID": "fmGV6xg8bkX-O065GDKW3w", "name": "Cube 55", "address": "55 Lexington Ave, New York, NY 10010", "coordinates": "40.74043,-73.98391", "rating": 4.0, "review_count": 1, "zip_code": "10010", "cuisineType": "japanese", "insertedAtTimestamp": "2022-10-19 21:37:17.876391"}, {"businessID": "OOZgZGmiKocoYRgUOupEcA", "name": "karakatta", "address": "230 Thompson St, New York, NY 10012", "coordinates": "40.72933,-73.99865", "rating": 4.0, "review_count": 259, "zip_code": "10012", "cuisineType": "japanese", "insertedAtTimestamp": "2022-10-19 21:37:18.083201"}, {"businessID": "WYHvneJfkiWR9GnIHoS1Dw", "name": "U Omakase", "address": "173 Greenpoint Ave, Brooklyn, NY 11222", "coordinates": "40.73047936730282,-73.9527676576113", "rating": 5.0, "review_count": 1, "zip_code": "11222", "cuisineType": "japanese", "insertedAtTimestamp": "2022-10-19 21:37:18.297123"}, {"businessID": "-DHpd5b4c3fX1yIuOyYpzA", "name": "Suki Ichiro Restaurant", "address": "1694 2nd Ave, New York, NY 10128", "coordinates": "40.77888,-73.95078", "rating": 4.0, "review_count": 75, "zip_code": "10128", "cuisineType": "japanese", "insertedAtTimestamp": "2022-10-19 21:37:18.452207"}, {"businessID": "piN1qTj49J4RN-g7kNjpZg", "name": "Kura Revolving Sushi Bar", "address": "2151 Lemoine Ave, Fort Lee, NJ 07024", "coordinates": "40.85622,-73.96783", "rating": 4.0, "review_count": 481, "zip_code": "07024", "cuisineType": "japanese", "insertedAtTimestamp": "2022-10-19 21:37:18.611057"}, {"businessID": "DumdrASdMEZx3yGwM3JnhA", "name": "SOMA Sushi", "address": "2025 Lemoine Ave, Fort Lee, NJ 07024", "coordinates": "40.85218,-73.96981", "rating": 4.5, "review_count": 38, "zip_code": "07024", "cuisineType": "japanese", "insertedAtTimestamp": "2022-10-19 21:37:18.816814"}, {"businessID": "4eAgPj7eKonKAtk64kgUfQ", "name": "Matsuri", "address": "39-56 61st St, Woodside, NY 11377", "coordinates": "40.7458357,-73.9035436", "rating": 4.5, "review_count": 195, "zip_code": "11377", "cuisineType": "japanese", "insertedAtTimestamp": "2022-10-19 21:37:19.075254"}, {"businessID": "-u9yPjmvZilrXYM8JlKG6w", "name": "Kappo Masa", "address": "976 Madison Ave, New York, NY 10075", "coordinates": "40.7746468,-73.9635315", "rating": 3.5, "review_count": 70, "zip_code": "10075", "cuisineType": "japanese", "insertedAtTimestamp": "2022-10-19 21:37:19.342250"}, {"businessID": "Zq1eGIz-7lw0001wX0CldA", "name": "Ramen Danbo", "address": "48 Carmine St, New York, NY 10014", "coordinates": "40.72989504586994,-74.00346801294498", "rating": 4.5, "review_count": 51, "zip_code": "10014", "cuisineType": "japanese", "insertedAtTimestamp": "2022-10-19 21:37:19.567497"}, {"businessID": "5agbggvhHI_juAZRfCqtZw", "name": "Iki Modern Japanese Cuisine", "address": "133-42 39th Ave, Hyatt Place Hotel, Flushing, NY 11354", "coordinates": "40.7593752743543,-73.8328623173734", "rating": 4.0, "review_count": 294, "zip_code": "11354", "cuisineType": "japanese", "insertedAtTimestamp": "2022-10-19 21:37:19.775968"}, {"businessID": "33CZJJ7m31vkj2eBQBvOUg", "name": "Blue Ribbon Sushi Bar & Grill - Financial District", "address": "84 William St, New York, NY 10038", "coordinates": "40.70803,-74.00785", "rating": 4.5, "review_count": 14, "zip_code": "10038", "cuisineType": "japanese", "insertedAtTimestamp": "2022-10-19 21:37:19.999140"}, {"businessID": "TuoXbiDqhFBJiyAXpcOLuA", "name": "Genji Sushi Kano", "address": "1095 6th Ave, Whole Foods  Market, New York, NY 10036", "coordinates": "40.75465,-73.98476", "rating": 3.5, "review_count": 9, "zip_code": "10036", "cuisineType": "japanese", "insertedAtTimestamp": "2022-10-19 21:37:20.211992"}, {"businessID": "1TEsPWu212B918MtgiSu3g", "name": "Jintan", "address": "10th St & 1st Ave, New York, NY 10009", "coordinates": "40.7288289984002,-73.9841578558473", "rating": 4.0, "review_count": 49, "zip_code": "10009", "cuisineType": "japanese", "insertedAtTimestamp": "2022-10-19 21:37:20.413251"}, {"businessID": "BCGZ-0WSLEuLviYJuUXWjg", "name": "Sushi Fussion 47th NYC", "address": "26 W 47th St, Lower Level, New York, NY 10036", "coordinates": "40.7567771106107,-73.9791343733668", "rating": 4.5, "review_count": 14, "zip_code": "10036", "cuisineType": "japanese", "insertedAtTimestamp": "2022-10-19 21:37:20.624650"}, {"businessID": "zJcxZQbTSAP3q4Fy-6WAyw", "name": "Shalom Japan", "address": "310 S 4th St, Brooklyn, NY 11211", "coordinates": "40.7091679,-73.9558028", "rating": 4.0, "review_count": 321, "zip_code": "11211", "cuisineType": "japanese", "insertedAtTimestamp": "2022-10-19 21:37:20.817109"}, {"businessID": "gISGVDOtqHhrZ9R1upgYtA", "name": "Ari Sushi", "address": "402 W 44th St, New York, NY 10036", "coordinates": "40.759787335338714,-73.9920779", "rating": 4.5, "review_count": 52, "zip_code": "10036", "cuisineType": "japanese", "insertedAtTimestamp": "2022-10-19 21:37:20.995787"}, {"businessID": "hfW8tn3RlNWadxHvTwawqQ", "name": "Beyond Sushi", "address": "1429 3rd Ave, New York, NY 10028", "coordinates": "40.775323,-73.956206", "rating": 4.5, "review_count": 103, "zip_code": "10028", "cuisineType": "japanese", "insertedAtTimestamp": "2022-10-19 21:37:21.182186"}, {"businessID": "dskDbpvA0hI_7RjtoL6IKA", "name": "SUGARFISH by sushi nozawa", "address": "202 Spring St, New York, NY 10012", "coordinates": "40.72511,-74.00358", "rating": 4.0, "review_count": 251, "zip_code": "10012", "cuisineType": "japanese", "insertedAtTimestamp": "2022-10-19 21:37:21.347287"}, {"businessID": "ZfuZ2byArGq-5j8zX8Afeg", "name": "Zest Sushi", "address": "249 Broome St, New York, NY 10002", "coordinates": "40.7178344726563,-73.9899597167969", "rating": 4.0, "review_count": 915, "zip_code": "10002", "cuisineType": "japanese", "insertedAtTimestamp": "2022-10-19 21:37:21.578087"}, {"businessID": "lsLI1U49gABKWYNtU8xyaw", "name": "Prawnaholic Collections", "address": "135 W 50th St, New York, NY 10020", "coordinates": "40.76089582898749,-73.98178439587355", "rating": 5.0, "review_count": 1, "zip_code": "10020", "cuisineType": "japanese", "insertedAtTimestamp": "2022-10-19 21:37:21.784888"}, {"businessID": "Irs8IQdQMXRxnWTDiQXKyA", "name": "Plum Vietnamese Restaurant", "address": "210 W 94th St, New York, NY 10025", "coordinates": "40.793008077554795,-73.97215002658557", "rating": 4.5, "review_count": 60, "zip_code": "10025", "cuisineType": "japanese", "insertedAtTimestamp": "2022-10-19 21:37:21.986728"}, {"businessID": "4qtJ_u-7-73ts5UPa6NBmA", "name": "Ni Japanese Delicacies", "address": "88 Essex St, New York, NY 10002", "coordinates": "40.7185896,-73.9881543", "rating": 4.5, "review_count": 51, "zip_code": "10002", "cuisineType": "japanese", "insertedAtTimestamp": "2022-10-19 21:37:22.217827"}, {"businessID": "QpPcrp2hQQ5KUg_X6SIirA", "name": "Tanoshi Tei", "address": "1374 York Ave, New York, NY 10021", "coordinates": "40.7677002,-73.952919", "rating": 3.5, "review_count": 6, "zip_code": "10021", "cuisineType": "japanese", "insertedAtTimestamp": "2022-10-19 21:37:22.398247"}, {"businessID": "kIXRfa42eX1J8rnLgMGt9A", "name": "Mito", "address": "210-35 26th Ave, Bayside, NY 11360", "coordinates": "40.7777335,-73.7797385", "rating": 3.5, "review_count": 117, "zip_code": "11360", "cuisineType": "japanese", "insertedAtTimestamp": "2022-10-19 21:37:22.596657"}, {"businessID": "od-5v2v1HdGisEDAXotqeg", "name": "Poke", "address": "343 E 85th St, New York, NY 10028", "coordinates": "40.7766,-73.95057", "rating": 4.0, "review_count": 492, "zip_code": "10028", "cuisineType": "japanese", "insertedAtTimestamp": "2022-10-19 21:37:22.848450"}, {"businessID": "CYfO97BoPiqz3KRbJ8jbeg", "name": "Katsuno", "address": "103-01 Metropolitan Ave, Forest Hills, NY 11375", "coordinates": "40.7104116655092,-73.8499203163873", "rating": 4.0, "review_count": 197, "zip_code": "11375", "cuisineType": "japanese", "insertedAtTimestamp": "2022-10-19 21:37:23.094121"}, {"businessID": "yhFhcA2XZsiLu_LUCwgieA", "name": "Rosella", "address": "137 Avenue A, New York, NY 10009", "coordinates": "40.727102,-73.982987", "rating": 5.0, "review_count": 43, "zip_code": "10009", "cuisineType": "japanese", "insertedAtTimestamp": "2022-10-19 21:37:23.319537"}, {"businessID": "Ycz0lIQObftqCnJJvln2WQ", "name": "HanaMichi", "address": "28 W 32nd St, New York, NY 10001", "coordinates": "40.7475814819336,-73.9870910644531", "rating": 3.0, "review_count": 487, "zip_code": "10001", "cuisineType": "japanese", "insertedAtTimestamp": "2022-10-19 21:37:23.554173"}, {"businessID": "Xfx5MCkghFKEWZ8umGMpIA", "name": "Sushi Suki", "address": "1577 York Ave, New York, NY 10028", "coordinates": "40.774511,-73.948429", "rating": 3.5, "review_count": 167, "zip_code": "10028", "cuisineType": "japanese", "insertedAtTimestamp": "2022-10-19 21:37:23.804784"}, {"businessID": "aSFBv64GBpMOFPqIleeQFQ", "name": "Lure Fishbar", "address": "142 Mercer St, New York, NY 10012", "coordinates": "40.724612166991,-73.998574708004", "rating": 4.0, "review_count": 1845, "zip_code": "10012", "cuisineType": "japanese", "insertedAtTimestamp": "2022-10-19 21:37:24.029689"}, {"businessID": "CV--FymQcb51hxcnkpCTng", "name": "Sushi Ren", "address": "1584 2nd Ave, New York, NY 10028", "coordinates": "40.7753299,-73.95339", "rating": 3.5, "review_count": 172, "zip_code": "10028", "cuisineType": "japanese", "insertedAtTimestamp": "2022-10-19 21:37:25.307490"}, {"businessID": "eEfscQIXLMVvyv79Kr4Ujg", "name": "Tabletime", "address": "20 E 42nd St, New York, NY 10017", "coordinates": "40.75292,-73.98027", "rating": 4.0, "review_count": 80, "zip_code": "10017", "cuisineType": "japanese", "insertedAtTimestamp": "2022-10-19 21:37:25.512682"}, {"businessID": "5w8CYpHKq8oQth42wSpt-g", "name": "Ariyoshi", "address": "4113 Queens Blvd, Sunnyside, NY 11104", "coordinates": "40.743972616473854,-73.9229326221067", "rating": 3.5, "review_count": 330, "zip_code": "11104", "cuisineType": "japanese", "insertedAtTimestamp": "2022-10-19 21:37:26.000653"}, {"businessID": "Pd3WQRSCofJVjnvaBX2jaw", "name": "MR. K", "address": "152 7th Ave S, New York, NY 10014", "coordinates": "40.73521642237705,-74.00210385798215", "rating": 4.5, "review_count": 21, "zip_code": "10014", "cuisineType": "japanese", "insertedAtTimestamp": "2022-10-19 21:37:26.215617"}, {"businessID": "Vu90f_MRCmz7KeAJdGlXUA", "name": "teriyaki-go", "address": "1621 Lexington Ave, New York, NY 10029", "coordinates": "40.78979,-73.94789", "rating": 5.0, "review_count": 2, "zip_code": "10029", "cuisineType": "japanese", "insertedAtTimestamp": "2022-10-19 21:37:26.445261"}, {"businessID": "D1V7ZadUtUPuYYlpDA1BOQ", "name": "Sakura Of Japan", "address": "570 8th Ave, New York, NY 10018", "coordinates": "40.75472,-73.99129", "rating": 4.0, "review_count": 37, "zip_code": "10018", "cuisineType": "japanese", "insertedAtTimestamp": "2022-10-19 21:37:26.647477"}, {"businessID": "SBQ0iuFG15rscuArUYDlTg", "name": "Bondi Sushi", "address": "246 5th Ave, New York, NY 10001", "coordinates": "40.7447651,-73.9878047", "rating": 4.0, "review_count": 283, "zip_code": "10001", "cuisineType": "japanese", "insertedAtTimestamp": "2022-10-19 21:37:26.904728"}, {"businessID": "e7waIGDxL87Y2GXA-oK2Yw", "name": "Senshi Ramen", "address": "100 Pearl St, New York, NY 10004", "coordinates": "40.70426587096305,-74.00971724900641", "rating": 4.5, "review_count": 20, "zip_code": "10004", "cuisineType": "japanese", "insertedAtTimestamp": "2022-10-19 21:37:27.116818"}, {"businessID": "BlzlywklvYdek5uk_NCX9g", "name": "Suzume", "address": "545 Lorimer St, Brooklyn, NY 11211", "coordinates": "40.7131652,-73.9494479", "rating": 4.0, "review_count": 346, "zip_code": "11211", "cuisineType": "japanese", "insertedAtTimestamp": "2022-10-19 21:37:27.291211"}, {"businessID": "c6TxjOx2CbKF2TL6n35Oqg", "name": "Yum Yubu", "address": "140 W 51st St, New York, NY 10020", "coordinates": "40.761063436984,-73.98176964372396", "rating": 4.0, "review_count": 1, "zip_code": "10020", "cuisineType": "japanese", "insertedAtTimestamp": "2022-10-19 21:37:27.488417"}, {"businessID": "J0b4hBZE0njnhJhOToaZcg", "name": "RA Sushi Bar Restaurant", "address": "433 Amsterdam Ave, New York, NY 10024", "coordinates": "40.7842004892218,-73.97733849723629", "rating": 4.5, "review_count": 15, "zip_code": "10024", "cuisineType": "japanese", "insertedAtTimestamp": "2022-10-19 21:37:27.692611"}, {"businessID": "HuSaFUqMDLbovpU-XbR9UA", "name": "The Original Soupman", "address": "259A W 55th St, New York, NY 10019", "coordinates": "40.76538473997948,-73.9834392665359", "rating": 4.0, "review_count": 570, "zip_code": "10019", "cuisineType": "japanese", "insertedAtTimestamp": "2022-10-19 21:37:27.913547"}, {"businessID": "22CRLIEfJWIO-8RjEiecAg", "name": "Akino", "address": "82-80 Broadway, Elmhurst, NY 11373", "coordinates": "40.741236,-73.881306", "rating": 4.5, "review_count": 1046, "zip_code": "11373", "cuisineType": "japanese", "insertedAtTimestamp": "2022-10-19 21:37:28.130288"}, {"businessID": "1HBtCnBGBYoq3zaQUxTbmg", "name": "Sushi Gama", "address": "1403 2nd Ave, New York, NY 10021", "coordinates": "40.76967,-73.95796", "rating": 3.5, "review_count": 111, "zip_code": "10021", "cuisineType": "japanese", "insertedAtTimestamp": "2022-10-19 21:37:28.326741"}, {"businessID": "1en3taVtoDPgtEDWHrFeog", "name": "Beron Beron", "address": "164 1st Ave, New York, NY 10009", "coordinates": "40.7287866,-73.9841504", "rating": 4.0, "review_count": 132, "zip_code": "10009", "cuisineType": "japanese", "insertedAtTimestamp": "2022-10-19 21:37:28.578281"}, {"businessID": "SdszVJsDzwV4c3ayuA6BWQ", "name": "Sakura 7", "address": "65-54 Grand Ave, Maspeth, NY 11378", "coordinates": "40.7240570459862,-73.8987931830836", "rating": 4.0, "review_count": 151, "zip_code": "11378", "cuisineType": "japanese", "insertedAtTimestamp": "2022-10-19 21:37:28.811139"}, {"businessID": "HEAce8qlh0OOOLNpAcX10A", "name": "MOMO CURRY", "address": "101 Liberty St, Level C1 South Concourse, New York, NY 10007", "coordinates": "40.7096522,-74.0112896", "rating": 4.0, "review_count": 12, "zip_code": "10007", "cuisineType": "japanese", "insertedAtTimestamp": "2022-10-19 21:37:29.051046"}, {"businessID": "lwPVHZJBjQbhR7gQ2rhpNw", "name": "Go! Go! Curry!", "address": "235 East 53rd St, New York, NY 10022", "coordinates": "40.757323,-73.967928", "rating": 4.0, "review_count": 131, "zip_code": "10022", "cuisineType": "japanese", "insertedAtTimestamp": "2022-10-19 21:37:29.265191"}, {"businessID": "Er7NcWD3oy39q9ZCBVyxWw", "name": "Shinzo Omakase", "address": "89 E 2nd St, New York, NY 10009", "coordinates": "40.72374,-73.98777", "rating": 4.5, "review_count": 11, "zip_code": "10009", "cuisineType": "japanese", "insertedAtTimestamp": "2022-10-19 21:37:29.459911"}, {"businessID": "AtUxlW7ltZb73ZXMwpkY_g", "name": "Sashimi Express", "address": "226 E 78th St, New York, NY 10075", "coordinates": "40.77310350151626,-73.95696452128081", "rating": 4.5, "review_count": 367, "zip_code": "10075", "cuisineType": "japanese", "insertedAtTimestamp": "2022-10-19 21:37:29.661850"}, {"businessID": "rRqpAHvS-C5VKa3m-BfPYQ", "name": "Shokudo", "address": "61 14th St, Hoboken, NJ 07030", "coordinates": "40.75303944913764,-74.02560982053777", "rating": 4.0, "review_count": 113, "zip_code": "07030", "cuisineType": "japanese", "insertedAtTimestamp": "2022-10-19 21:37:29.865994"}, {"businessID": "C83_0TlJdnKSKwkaH62DKA", "name": "Japan Express", "address": "E 71st St, New York, NY 10021", "coordinates": "40.768702,-73.960223", "rating": 4.5, "review_count": 13, "zip_code": "10021", "cuisineType": "japanese", "insertedAtTimestamp": "2022-10-19 21:37:30.076149"}, {"businessID": "03-WCL7HaShHkS5kAk6lVg", "name": "Otafuku", "address": "218 E 10th St, Rai Rai Ken Curry Ya KB, New York, NY 10003", "coordinates": "40.729250519566506,-73.98579596787887", "rating": 3.5, "review_count": 510, "zip_code": "10003", "cuisineType": "japanese", "insertedAtTimestamp": "2022-10-19 21:37:30.318925"}, {"businessID": "fv6gZQw8jUYUzGx_fYdI-g", "name": "MakiMaki Sushi", "address": "360 Lexington Ave, New York, NY 10017", "coordinates": "40.7504,-73.97698", "rating": 4.0, "review_count": 54, "zip_code": "10017", "cuisineType": "japanese", "insertedAtTimestamp": "2022-10-19 21:37:31.599066"}, {"businessID": "IS94JDTcq_WedBcj6P4qpQ", "name": "Sushi on Jones", "address": "210 W 10th St, New York, NY 10014", "coordinates": "40.73399,-74.00418", "rating": 4.0, "review_count": 247, "zip_code": "10014", "cuisineType": "japanese", "insertedAtTimestamp": "2022-10-19 21:37:31.827201"}, {"businessID": "jWTRQxyUqZEp7oc7D0JIDg", "name": "Izakaya Ajimi", "address": "8500 18th Ave, Brooklyn, NY 11214", "coordinates": "40.6078260407584,-74.00217161294212", "rating": 4.5, "review_count": 92, "zip_code": "11214", "cuisineType": "japanese", "insertedAtTimestamp": "2022-10-19 21:37:32.045397"}, {"businessID": "1_JEFOI19hAu3VoODcTUvw", "name": "Shinsen", "address": "44 Bowery, New York, NY 10013", "coordinates": "40.71558,-73.9967", "rating": 4.0, "review_count": 305, "zip_code": "10013", "cuisineType": "japanese", "insertedAtTimestamp": "2022-10-19 21:37:32.238236"}, {"businessID": "UB5emSFilql0J10Jx4AHXA", "name": "Watawa Sushi", "address": "33-10 Ditmars Blvd, Astoria, NY 11105", "coordinates": "40.774959,-73.9095", "rating": 4.0, "review_count": 963, "zip_code": "11105", "cuisineType": "japanese", "insertedAtTimestamp": "2022-10-19 21:37:32.462708"}, {"businessID": "2_zM-VTPBINeV74yqlho9w", "name": "Ooi Sushi and Bar", "address": "42-36 Crescent St, Long Island City, NY 11101", "coordinates": "40.749814,-73.941476", "rating": 4.5, "review_count": 215, "zip_code": "11101", "cuisineType": "japanese", "insertedAtTimestamp": "2022-10-19 21:37:32.674827"}, {"businessID": "SADgJu4JGOIxhWmfYSaHUg", "name": "Raku Izakaya", "address": "209 Main St, Fort Lee, NJ 07024", "coordinates": "40.851389699999444,-73.97056546441777", "rating": 4.0, "review_count": 247, "zip_code": "07024", "cuisineType": "japanese", "insertedAtTimestamp": "2022-10-19 21:37:32.872222"}, {"businessID": "QBGsRj48wEZ7n4giEbVJlw", "name": "I Love Sushi", "address": "32-06 Broadway, New York, NY 11106", "coordinates": "40.76147608459,-73.9244364202023", "rating": 4.5, "review_count": 2, "zip_code": "11106", "cuisineType": "japanese", "insertedAtTimestamp": "2022-10-19 21:37:33.067634"}, {"businessID": "OyVJMY9U75HGP5RK24Y54A", "name": "Fins and Scales", "address": "10 E 8th St, New York, NY 10003", "coordinates": "40.73186,-73.99566", "rating": 4.5, "review_count": 2, "zip_code": "10003", "cuisineType": "japanese", "insertedAtTimestamp": "2022-10-19 21:37:33.275984"}, {"businessID": "kCpKwCW49k3ImuI5cK6LSw", "name": "Gu Japanese Fusion Sushi & Bar", "address": "155 E 52nd St, New York, NY 10022", "coordinates": "40.75743,-73.97042", "rating": 4.0, "review_count": 225, "zip_code": "10022", "cuisineType": "japanese", "insertedAtTimestamp": "2022-10-19 21:37:33.462710"}, {"businessID": "snJZrvebNxanqMmWPhqndg", "name": "Sashimi Express II", "address": "223 E 74th St, New York, NY 10021", "coordinates": "40.77068,-73.95849", "rating": 4.5, "review_count": 148, "zip_code": "10021", "cuisineType": "japanese", "insertedAtTimestamp": "2022-10-19 21:37:33.697234"}, {"businessID": "DW6QH9hNP5kgkg-5UDS9wQ", "name": "Shinn East", "address": "119 E 7th St, New York, NY 10009", "coordinates": "40.7265202,-73.98429", "rating": 4.5, "review_count": 175, "zip_code": "10009", "cuisineType": "japanese", "insertedAtTimestamp": "2022-10-19 21:37:33.916115"}, {"businessID": "5mhg1c3GdDtOPLDkWaSD4w", "name": "Robongi Weehawken", "address": "4800 Ave At Port Imperial, Port Imperial Ferry Terminal, Weehawken, NJ 07086", "coordinates": "40.776164,-74.011525", "rating": 3.5, "review_count": 131, "zip_code": "07086", "cuisineType": "japanese", "insertedAtTimestamp": "2022-10-19 21:37:34.157052"}, {"businessID": "B-lJd1eBLcLk1StNbgAe9w", "name": "Sushi Katsuei", "address": "210 7th Ave, Brooklyn, NY 11215", "coordinates": "40.6707147,-73.9785903", "rating": 4.0, "review_count": 499, "zip_code": "11215", "cuisineType": "japanese", "insertedAtTimestamp": "2022-10-19 21:37:34.344842"}, {"businessID": "QoEopgcby68Pyv1l52yiBg", "name": "Menya Sandaime", "address": "1638 Parker Ave, Fort Lee, NJ 07024", "coordinates": "40.849738,-73.9677057", "rating": 4.0, "review_count": 829, "zip_code": "07024", "cuisineType": "japanese", "insertedAtTimestamp": "2022-10-19 21:37:34.568076"}, {"businessID": "T7cawh_u5vJBj8A64qGOqw", "name": "Joon Omakase", "address": "158-14 Northern Blvd, Ste LL1, New York, NY 11358", "coordinates": "40.76289,-73.80677", "rating": 5.0, "review_count": 20, "zip_code": "11358", "cuisineType": "japanese", "insertedAtTimestamp": "2022-10-19 21:37:34.779503"}, {"businessID": "KF9qPyGdflpc1if-NObz2w", "name": "Choo Choo Train", "address": "374 Broad Ave, Leonia, NJ 07605", "coordinates": "40.86358479993764,-73.98693894145701", "rating": 4.5, "review_count": 55, "zip_code": "07605", "cuisineType": "japanese", "insertedAtTimestamp": "2022-10-19 21:37:34.978955"}, {"businessID": "DPDznXYX5DBLBASKfxQ-DQ", "name": "Totto Ramen Hell's Kitchen", "address": "464 W 51st St, New York, NY 10019", "coordinates": "40.765055,-73.991001", "rating": 4.0, "review_count": 1161, "zip_code": "10019", "cuisineType": "japanese", "insertedAtTimestamp": "2022-10-19 21:37:35.204435"}, {"businessID": "xYDays-olVw50rdusxW5Rw", "name": "Wanpaku", "address": "621 Manhattan Ave, Brooklyn, NY 11222", "coordinates": "40.72355,-73.95092", "rating": 4.0, "review_count": 136, "zip_code": "11222", "cuisineType": "japanese", "insertedAtTimestamp": "2022-10-19 21:37:35.414341"}, {"businessID": "oJZq1JmKalXXjqWRKfIjwA", "name": "Sushi Azabu", "address": "428 Greenwich St, New York, NY 10013", "coordinates": "40.7222930324682,-74.0098838048935", "rating": 4.0, "review_count": 475, "zip_code": "10013", "cuisineType": "japanese", "insertedAtTimestamp": "2022-10-19 21:37:35.625302"}, {"businessID": "jplPyiAUcDhFasdqozSnEA", "name": "sushi AMANE", "address": "245 E 44th St, New York, NY 10017", "coordinates": "40.75157,-73.97172", "rating": 4.0, "review_count": 86, "zip_code": "10017", "cuisineType": "japanese", "insertedAtTimestamp": "2022-10-19 21:37:35.829373"}, {"businessID": "nNAzEGkZnecQF0yZdYfMIg", "name": "Edo Sushi Japanese Restaurant", "address": "9 E 17th St, New York, NY 10003", "coordinates": "40.73774,-73.99127", "rating": 4.0, "review_count": 321, "zip_code": "10003", "cuisineType": "japanese", "insertedAtTimestamp": "2022-10-19 21:37:36.065498"}, {"businessID": "Z7gHAR1j_hjdxoWO7kYgeQ", "name": "Okinawa Sushi Restaurant", "address": "400 Newark St, Ste 8, Hoboken, NJ 07030", "coordinates": "40.737554,-74.037218", "rating": 4.0, "review_count": 390, "zip_code": "07030", "cuisineType": "japanese", "insertedAtTimestamp": "2022-10-19 21:37:36.281420"}, {"businessID": "uiPuKLlg8nGZ22qYO-EnMw", "name": "Aburi Sushi Bar", "address": "769 Grand St, Brooklyn, NY 11211", "coordinates": "40.712052,-73.9424949", "rating": 4.0, "review_count": 152, "zip_code": "11211", "cuisineType": "japanese", "insertedAtTimestamp": "2022-10-19 21:37:36.627834"}, {"businessID": "h3iF9MVyPyQuLNdfKxFXHA", "name": "Izakaya Kumade", "address": "412 Bergen Blvd, Palisades Park, NJ 07650", "coordinates": "40.84451,-73.98592", "rating": 3.5, "review_count": 116, "zip_code": "07650", "cuisineType": "japanese", "insertedAtTimestamp": "2022-10-19 21:37:36.831505"}, {"businessID": "7j6CGUCw93gEsYqSetCstw", "name": "Hamachi 34", "address": "56 E 34th St, New York, NY 10016", "coordinates": "40.7472269,-73.9822477", "rating": 4.0, "review_count": 415, "zip_code": "10016", "cuisineType": "japanese", "insertedAtTimestamp": "2022-10-19 21:37:37.033169"}, {"businessID": "-nibCo70DERO5MgdGoAyyw", "name": "Temakase Long Island City", "address": "28-17 Jackson Ave, Fl 2, Long Island City, NY 11101", "coordinates": "40.749141757222844,-73.93876442420898", "rating": 3.5, "review_count": 15, "zip_code": "11101", "cuisineType": "japanese", "insertedAtTimestamp": "2022-10-19 21:37:38.414851"}, {"businessID": "u1aeWjvebECChpm5IbUUkA", "name": "Teri Teri Japanese Restaurant", "address": "3415 Bergenline Ave, Union City, NJ 07087", "coordinates": "40.7734299632411,-74.0283109992743", "rating": 3.0, "review_count": 55, "zip_code": "07087", "cuisineType": "japanese", "insertedAtTimestamp": "2022-10-19 21:37:38.664830"}, {"businessID": "BiFBVQwkCIurPP-ytstGwQ", "name": "Shima Sushi", "address": "226 E 51st St, New York, NY 10022", "coordinates": "40.75588,-73.96926", "rating": 4.0, "review_count": 69, "zip_code": "10022", "cuisineType": "japanese", "insertedAtTimestamp": "2022-10-19 21:37:38.876004"}, {"businessID": "jCettteufZZP9bAx5Pxovw", "name": "19 @ Juku - Omakase", "address": "32 Mulberry St, New York, NY 10013", "coordinates": "40.7146,-73.9995299", "rating": 4.5, "review_count": 39, "zip_code": "10013", "cuisineType": "japanese", "insertedAtTimestamp": "2022-10-19 21:37:39.071863"}, {"businessID": "DX76JONqehHbcljtiD6kiw", "name": "The Hidden Pearl", "address": "621 Manhattan Ave, Brooklyn, NY 11222", "coordinates": "40.723545,-73.950914", "rating": 4.5, "review_count": 51, "zip_code": "11222", "cuisineType": "japanese", "insertedAtTimestamp": "2022-10-19 21:37:39.341007"}, {"businessID": "vfTCDSUqWMqDQwjk4Fh7gg", "name": "Ramen Goku", "address": "435 Park Ave S, New York, NY 10016", "coordinates": "40.74425,-73.98318", "rating": 4.0, "review_count": 110, "zip_code": "10016", "cuisineType": "japanese", "insertedAtTimestamp": "2022-10-19 21:37:39.534639"}, {"businessID": "XAHfErhn_JujythNCmGl1w", "name": "Salinas", "address": "136 9th Ave, New York, NY 10011", "coordinates": "40.7436999,-74.00314", "rating": 4.0, "review_count": 979, "zip_code": "10011", "cuisineType": "japanese", "insertedAtTimestamp": "2022-10-19 21:37:39.779632"}, {"businessID": "4CAJ-JvgbzBdoWq1CXtCFw", "name": "Umi Sushi", "address": "177-13 Union Tpke, Fresh Meadows, NY 11366", "coordinates": "40.7261983305216,-73.790670633316", "rating": 4.5, "review_count": 778, "zip_code": "11366", "cuisineType": "japanese", "insertedAtTimestamp": "2022-10-19 21:37:39.994367"}, {"businessID": "AjlmpAQV8W4--y0EksO-9g", "name": "Simple NYC", "address": "109 Eldridge St, New York, NY 10002", "coordinates": "40.71821,-73.99223", "rating": 4.5, "review_count": 344, "zip_code": "10002", "cuisineType": "japanese", "insertedAtTimestamp": "2022-10-19 21:37:40.477346"}, {"businessID": "C69uTzoWFaIWcpnYf2LbRw", "name": "ROKC", "address": "3452 Broadway, New York, NY 10031", "coordinates": "40.8235051,-73.9522425", "rating": 4.5, "review_count": 488, "zip_code": "10031", "cuisineType": "japanese", "insertedAtTimestamp": "2022-10-19 21:37:40.721509"}, {"businessID": "BCg5O26hQnVX7OOepNLK6w", "name": "Blue Ribbon Sushi Bar - Hudson Eats", "address": "225 Liberty St, Hudson Eats, New York, NY 10281", "coordinates": "40.712693,-74.015839", "rating": 3.5, "review_count": 151, "zip_code": "10281", "cuisineType": "japanese", "insertedAtTimestamp": "2022-10-19 21:37:40.923312"}, {"businessID": "aRnqeB3ANO_HKETtyL7rlA", "name": "Yakitori Tatsu", "address": "90 Kent Ave, Brooklyn, NY 11249", "coordinates": "40.7205331761803,-73.9618723466992", "rating": 4.0, "review_count": 12, "zip_code": "11249", "cuisineType": "japanese", "insertedAtTimestamp": "2022-10-19 21:37:41.184543"}, {"businessID": "modTogi2UZRnoGTk82nRDQ", "name": "Yamagata", "address": "1636 Palisades Ave, Fort Lee, NJ 07024", "coordinates": "40.8499380422188,-73.9685426460327", "rating": 4.0, "review_count": 205, "zip_code": "07024", "cuisineType": "japanese", "insertedAtTimestamp": "2022-10-19 21:37:41.397617"}, {"businessID": "3WRx6_OIG6PY1El6Iv6RDg", "name": "Gouie", "address": "115 Delancey St, The market line, New York, NY 10002", "coordinates": "40.718278877084515,-73.98814709999999", "rating": 5.0, "review_count": 12, "zip_code": "10002", "cuisineType": "japanese", "insertedAtTimestamp": "2022-10-19 21:37:41.594286"}, {"businessID": "EzuRT_4vOrvWdHqZzEFf0w", "name": "Oh Taisho", "address": "9 Saint Marks Pl, New York, NY 10003", "coordinates": "40.729463,-73.989096", "rating": 3.5, "review_count": 1021, "zip_code": "10003", "cuisineType": "japanese", "insertedAtTimestamp": "2022-10-19 21:37:41.839344"}, {"businessID": "GknCLz8E_mC211psEX8lYg", "name": "Sushi Zo | New York", "address": "88 W 3rd St, New York, NY 10012", "coordinates": "40.7297821044922,-73.9992218017578", "rating": 4.5, "review_count": 114, "zip_code": "10012", "cuisineType": "japanese", "insertedAtTimestamp": "2022-10-19 21:37:42.066447"}, {"businessID": "u641PRSq7yCSfAcell-QiA", "name": "Oki Japanese", "address": "4511 Queens Blvd, Sunnyside, NY 11104", "coordinates": "40.7435273,-73.9193266", "rating": 3.5, "review_count": 92, "zip_code": "11104", "cuisineType": "japanese", "insertedAtTimestamp": "2022-10-19 21:37:42.303345"}, {"businessID": "61JIVs4L3wmP1j4vJar1Tg", "name": "Saku", "address": "936 Park Ave, Hoboken, NJ 07030", "coordinates": "40.7482982,-74.0305929", "rating": 4.0, "review_count": 324, "zip_code": "07030", "cuisineType": "japanese", "insertedAtTimestamp": "2022-10-19 21:37:42.532188"}, {"businessID": "0Lnp_fi3gI2bfJ8RcMDfjg", "name": "Gen", "address": "659 Washington Ave, Brooklyn, NY 11238", "coordinates": "40.677639,-73.963485", "rating": 4.0, "review_count": 295, "zip_code": "11238", "cuisineType": "japanese", "insertedAtTimestamp": "2022-10-19 21:37:42.757489"}, {"businessID": "ckDKWs7pyXpRYi06sVedrA", "name": "TJ Asian Bistro", "address": "50-19 Skillman Ave, Woodside, NY 11377", "coordinates": "40.7461895,-73.9136856", "rating": 4.5, "review_count": 476, "zip_code": "11377", "cuisineType": "japanese", "insertedAtTimestamp": "2022-10-19 21:37:42.963611"}, {"businessID": "ZqWktQxoknREjSm_k5KH3Q", "name": "Yuzu Kitchen", "address": "37 W 43rd St, New York, NY 10036", "coordinates": "40.75517,-73.98218", "rating": 4.0, "review_count": 25, "zip_code": "10036", "cuisineType": "japanese", "insertedAtTimestamp": "2022-10-19 21:37:43.185793"}, {"businessID": "CfhEaGySVsORQbem4_y1Wg", "name": "Minamoto Kitchoan", "address": "595 River Rd, Edgewater, NJ 07020", "coordinates": "40.8160653,-73.9800537", "rating": 4.0, "review_count": 21, "zip_code": "07020", "cuisineType": "japanese", "insertedAtTimestamp": "2022-10-19 21:37:43.381985"}, {"businessID": "axTCrGR81rZg2D64a89HfA", "name": "Studio 151", "address": "151 Ave C, New York, NY 10009", "coordinates": "40.725658,-73.978034", "rating": 3.5, "review_count": 28, "zip_code": "10009", "cuisineType": "japanese", "insertedAtTimestamp": "2022-10-19 21:37:43.571038"}, {"businessID": "_FICyzFLQxR7N62I6qU94A", "name": "KanaHashi", "address": "981 Manhattan Ave, Brooklyn, NY 11222", "coordinates": "40.73263,-73.95482", "rating": 4.5, "review_count": 193, "zip_code": "11222", "cuisineType": "japanese", "insertedAtTimestamp": "2022-10-19 21:37:43.746022"}, {"businessID": "rH2QYtdcAjkY6uY45iKy3w", "name": "Sushi & Co", "address": "459 Lexington Ave, New York, NY 10017", "coordinates": "40.7534,-73.97434", "rating": 4.5, "review_count": 16, "zip_code": "10017", "cuisineType": "japanese", "insertedAtTimestamp": "2022-10-19 21:37:43.940921"}, {"businessID": "1gilEr7_arMJNKgfFO__0w", "name": "Neta Shari", "address": "1718 86th St, Brooklyn, NY 11214", "coordinates": "40.608116,-74.004501", "rating": 4.5, "review_count": 86, "zip_code": "11214", "cuisineType": "japanese", "insertedAtTimestamp": "2022-10-19 21:37:44.102944"}, {"businessID": "lS3_25BdygJCF_aMOOV7nw", "name": "Furikake", "address": "10 East 14th Street New York Ny, New York, NY 10003", "coordinates": "40.7356,-73.99305", "rating": 5.0, "review_count": 2, "zip_code": "10003", "cuisineType": "japanese", "insertedAtTimestamp": "2022-10-19 21:37:44.326674"}, {"businessID": "ubCFsHLAG_xZupEbCny7vA", "name": "Beat Mazesoba", "address": "161-23 Crocheron Ave, Flushing, NY 11358", "coordinates": "40.7626925,-73.8042346", "rating": 4.5, "review_count": 324, "zip_code": "11358", "cuisineType": "japanese", "insertedAtTimestamp": "2022-10-19 21:37:44.503135"}, {"businessID": "leElFBGHRNwIrWEHbTzdUA", "name": "Soba Mama", "address": "289 Mercer St, New York, NY 10003", "coordinates": "40.73024678277589,-73.9940323", "rating": 5.0, "review_count": 1, "zip_code": "10003", "cuisineType": "japanese", "insertedAtTimestamp": "2022-10-19 21:37:45.944687"}, {"businessID": "kkVutuFSHhCd2Xtm_0ia2A", "name": "Sushi Kai", "address": "332 E 9th St, New York, NY 10003", "coordinates": "40.728498,-73.98615", "rating": 4.5, "review_count": 135, "zip_code": "10003", "cuisineType": "japanese", "insertedAtTimestamp": "2022-10-19 21:37:46.223240"}, {"businessID": "P_RNungaIf6FZdzEWkoQ0g", "name": "Sakura of Japan", "address": "29 John St, New York, NY 10038", "coordinates": "40.709761,-74.008546", "rating": 3.5, "review_count": 162, "zip_code": "10038", "cuisineType": "japanese", "insertedAtTimestamp": "2022-10-19 21:37:46.434153"}, {"businessID": "LcmRObvsi8JkxFCJ_l2_1g", "name": "Sushi Seki Times Square", "address": "365 W 46th St, New York, NY 10036", "coordinates": "40.760942,-73.990075", "rating": 3.5, "review_count": 167, "zip_code": "10036", "cuisineType": "japanese", "insertedAtTimestamp": "2022-10-19 21:37:46.659050"}, {"businessID": "k4QfaFoqtpEZ1LZylJZqww", "name": "Jj S Asian Fusion", "address": "37-05 31st Ave, FLR GRD, Astoria, NY 11103", "coordinates": "40.762159665773424,-73.9182777002017", "rating": 4.0, "review_count": 455, "zip_code": "11103", "cuisineType": "japanese", "insertedAtTimestamp": "2022-10-19 21:37:46.887124"}, {"businessID": "s2ii7iNxb0-hGVxHf0yexw", "name": "Menkoi Sato", "address": "7 Cornelia St, New York, NY 10014", "coordinates": "40.7316536618558,-74.0017022376845", "rating": 4.5, "review_count": 282, "zip_code": "10014", "cuisineType": "japanese", "insertedAtTimestamp": "2022-10-19 21:37:47.077376"}, {"businessID": "jRZ3SuJ--vimE47dna3J7Q", "name": "Hannosuke", "address": "595 River Rd, Edgewater, NJ 07020", "coordinates": "40.81617969251635,-73.9798458527666", "rating": 3.5, "review_count": 144, "zip_code": "07020", "cuisineType": "japanese", "insertedAtTimestamp": "2022-10-19 21:37:47.298654"}, {"businessID": "8kfagNIb2tCn4sXL7PHqwg", "name": "Inoru Hibachi", "address": "57-09 Hudson Ave, West New York, NJ 07093", "coordinates": "40.78574007882624,-74.0141525", "rating": 4.5, "review_count": 6, "zip_code": "07093", "cuisineType": "japanese", "insertedAtTimestamp": "2022-10-19 21:37:47.520691"}, {"businessID": "MM5P9cKlzovYLcf5qf2SwQ", "name": "1 OR 8", "address": "229 Dekalb Ave, Brooklyn, NY 11205", "coordinates": "40.6896859,-73.9703551", "rating": 4.0, "review_count": 425, "zip_code": "11205", "cuisineType": "japanese", "insertedAtTimestamp": "2022-10-19 21:37:47.699537"}, {"businessID": "bm3WszJYdWF4LHfEGwC_Qg", "name": "ICCA Sushi", "address": "9 Mt Vernon St, Ridgefield Park, NJ 07660", "coordinates": "40.8571141975,-74.0274684504", "rating": 5.0, "review_count": 40, "zip_code": "07660", "cuisineType": "japanese", "insertedAtTimestamp": "2022-10-19 21:37:47.901488"}, {"businessID": "CJaOSBUYSQAJy7p0QVkkrA", "name": "Menya & Izakaya", "address": "369 5th Ave, Brooklyn, NY 11215", "coordinates": "40.6712,-73.98444", "rating": 4.5, "review_count": 47, "zip_code": "11215", "cuisineType": "japanese", "insertedAtTimestamp": "2022-10-19 21:37:48.078302"}, {"businessID": "JfiQzDkzG3L3TLmRGUHMuA", "name": "Sasabune Express", "address": "322 E 59th St, New York, NY 10022", "coordinates": "40.7599983215332,-73.9629745483398", "rating": 4.0, "review_count": 75, "zip_code": "10022", "cuisineType": "japanese", "insertedAtTimestamp": "2022-10-19 21:37:48.255102"}, {"businessID": "loXvaVYhzOO3xTYzntlVBg", "name": "Yuri Sushi House", "address": "374 W 46th St, New York, NY 10036", "coordinates": "40.7608,-73.99059", "rating": 4.0, "review_count": 109, "zip_code": "10036", "cuisineType": "japanese", "insertedAtTimestamp": "2022-10-19 21:37:48.507162"}, {"businessID": "YE6xP_bkdshYHb8qdQfMuw", "name": "Tampopo Kitchen", "address": "805 W 187th St, New York, NY 10033", "coordinates": "40.85541656107116,-73.9372173", "rating": 4.0, "review_count": 27, "zip_code": "10033", "cuisineType": "japanese", "insertedAtTimestamp": "2022-10-19 21:37:48.741158"}, {"businessID": "tT6teP3ZfCAfvdPdDoqG4A", "name": "Ki Sushi", "address": "122 Smith St, Brooklyn, NY 11201", "coordinates": "40.68764,-73.9901", "rating": 4.0, "review_count": 758, "zip_code": "11201", "cuisineType": "japanese", "insertedAtTimestamp": "2022-10-19 21:37:48.945652"}, {"businessID": "6xPlSpyxE3PLJVeRvt2BwQ", "name": "Yaya Tea Garden", "address": "51 Chrystie St, New York, NY 10002", "coordinates": "40.7162999,-73.99496", "rating": 4.0, "review_count": 522, "zip_code": "10002", "cuisineType": "japanese", "insertedAtTimestamp": "2022-10-19 21:37:49.199679"}, {"businessID": "gkoLhz1F3SZRh7dmKU_rRw", "name": "Tun", "address": "64 University Pl, New York, NY 10003", "coordinates": "40.733085,-73.993684", "rating": 4.0, "review_count": 1, "zip_code": "10003", "cuisineType": "japanese", "insertedAtTimestamp": "2022-10-19 21:37:49.449952"}, {"businessID": "dHBPdgXiYhbDig7BAZnH_A", "name": "Edo Japanese Steakhouse", "address": "4787 Boston Post Rd, Pelham, NY 10803", "coordinates": "40.89703490305533,-73.80403928122585", "rating": 4.0, "review_count": 375, "zip_code": "10803", "cuisineType": "japanese", "insertedAtTimestamp": "2022-10-19 21:37:49.656779"}, {"businessID": "t9ufnvX2bQmHGaRKZBDsow", "name": "Oconomi", "address": "4005 Skillman Ave, Long Island City, NY 11104", "coordinates": "40.747402,-73.923096", "rating": 3.5, "review_count": 6, "zip_code": "11104", "cuisineType": "japanese", "insertedAtTimestamp": "2022-10-19 21:37:49.852067"}, {"businessID": "L3reOLLPez7lnOhyfCpvkg", "name": "Shinka Ramen & Sake Bar", "address": "93 Bowery St, New York, NY 10002", "coordinates": "40.7170795322745,-73.9952574670315", "rating": 4.5, "review_count": 410, "zip_code": "10002", "cuisineType": "japanese", "insertedAtTimestamp": "2022-10-19 21:37:50.020220"}, {"businessID": "Gg3heBdQQ9Wr03icYIaIQA", "name": "Kobe Sushi", "address": "1472 York Ave, New York, NY 10075", "coordinates": "40.77077,-73.95066", "rating": 4.0, "review_count": 150, "zip_code": "10075", "cuisineType": "japanese", "insertedAtTimestamp": "2022-10-19 21:37:50.216581"}, {"businessID": "53zd9Zi8EKMpLd6OXNm8Mw", "name": "Emporium Brasil", "address": "15 W 46th St, New York, NY 10036", "coordinates": "40.75653,-73.97989", "rating": 4.0, "review_count": 287, "zip_code": "10036", "cuisineType": "japanese", "insertedAtTimestamp": "2022-10-19 21:37:50.438517"}, {"businessID": "1m1iOc8EplJ4tiCez7hf2Q", "name": "750 Myrtle Diner", "address": "750 Myrtle Ave, Brooklyn, NY 11205", "coordinates": "40.694779,-73.952807", "rating": 4.0, "review_count": 126, "zip_code": "11205", "cuisineType": "japanese", "insertedAtTimestamp": "2022-10-19 21:37:50.624998"}, {"businessID": "NUFdHBhmlzJAZv0IpYuOoA", "name": "Sushi Tokyo Chelsea", "address": "121 W 19th St, New York, NY 10011", "coordinates": "40.74081,-73.99509", "rating": 4.0, "review_count": 40, "zip_code": "10011", "cuisineType": "japanese", "insertedAtTimestamp": "2022-10-19 21:37:50.896499"}, {"businessID": "ckuFutONOBo_rrscCkLUBw", "name": "Susuru Ramen", "address": "33-19 36th Ave, Astoria, NY 11106", "coordinates": "40.755651,-73.927372", "rating": 5.0, "review_count": 122, "zip_code": "11106", "cuisineType": "japanese", "insertedAtTimestamp": "2022-10-19 21:37:51.100643"}, {"businessID": "ftWoJ47SUF50RTGxH42AHw", "name": "Ozu Foods", "address": "106 Hutton St, Jersey City, NJ 07307", "coordinates": "40.7449502,-74.0505063", "rating": 4.5, "review_count": 134, "zip_code": "07307", "cuisineType": "japanese", "insertedAtTimestamp": "2022-10-19 21:37:51.311179"}, {"businessID": "8hxvfFZH4kPp35kH5DhnIw", "name": "Kumo Sushi", "address": "165 W 72nd St, New York, NY 10023", "coordinates": "40.7785911560059,-73.9808349609375", "rating": 3.0, "review_count": 184, "zip_code": "10023", "cuisineType": "japanese", "insertedAtTimestamp": "2022-10-19 21:37:51.521654"}, {"businessID": "X73hpslpgeJNhVohYIUzfQ", "name": "Dashi - Brooklyn", "address": "119 Ingraham St, Fl 1, Brooklyn, NY 11237", "coordinates": "40.707885,-73.929212", "rating": 4.5, "review_count": 76, "zip_code": "11237", "cuisineType": "japanese", "insertedAtTimestamp": "2022-10-19 21:37:51.704640"}, {"businessID": "jwO3r6QVi_h9KxUFYetKuQ", "name": "Miyako Sushi", "address": "642 Amsterdam Ave, New York, NY 10025", "coordinates": "40.7910899,-73.97275", "rating": 3.5, "review_count": 266, "zip_code": "10025", "cuisineType": "japanese", "insertedAtTimestamp": "2022-10-19 21:37:51.954293"}, {"businessID": "D-E4HgANyW_PFEOLzTsLvw", "name": "Takumi Omakase", "address": "181 Essex St, New York, NY 10002", "coordinates": "40.72199032962438,-73.9866667", "rating": 4.5, "review_count": 71, "zip_code": "10002", "cuisineType": "japanese", "insertedAtTimestamp": "2022-10-19 21:37:53.616636"}, {"businessID": "QKFzm9Z6NA6ec1j7M1nd8g", "name": "Illuzion", "address": "337 Washington St, Hoboken, NJ 07030", "coordinates": "40.7411,-74.02941", "rating": 3.5, "review_count": 425, "zip_code": "07030", "cuisineType": "japanese", "insertedAtTimestamp": "2022-10-19 21:37:53.829506"}, {"businessID": "91tQ4ToReVVCA5MTJi9gfw", "name": "Iron Chef House", "address": "92 Clark St, Brooklyn, NY 11201", "coordinates": "40.69722956441029,-73.99262170000003", "rating": 4.0, "review_count": 451, "zip_code": "11201", "cuisineType": "japanese", "insertedAtTimestamp": "2022-10-19 21:37:54.026657"}, {"businessID": "ukTPwlzhb1lJva1RF3i86w", "name": "Aki Japanese Cuisine", "address": "1273 Broad St, Bloomfield, NJ 07003", "coordinates": "40.83406,-74.18033", "rating": 4.0, "review_count": 311, "zip_code": "07003", "cuisineType": "japanese", "insertedAtTimestamp": "2022-10-19 21:37:54.229420"}, {"businessID": "MA4g6N56Rm_q-oBhF6R5Qg", "name": "123 Ramen", "address": "42-05 35th Ave, Long Island, NY 11101", "coordinates": "40.75438,-73.92014", "rating": 4.5, "review_count": 12, "zip_code": "11101", "cuisineType": "japanese", "insertedAtTimestamp": "2022-10-19 21:37:54.413206"}, {"businessID": "T2fE7hGS83Ba-QNCOqbK4A", "name": "Ako", "address": "205 Bedford Ave, Brooklyn, NY 11211", "coordinates": "40.7168599,-73.95845", "rating": 4.0, "review_count": 484, "zip_code": "11211", "cuisineType": "japanese", "insertedAtTimestamp": "2022-10-19 21:37:54.587160"}, {"businessID": "K3C9qJ26mnkdgLdkoAdIlw", "name": "Gohan--Ya", "address": "14 Orchard St Ste A, Ste A, New York, NY 10002", "coordinates": "40.71506,-73.9916", "rating": 1.0, "review_count": 1, "zip_code": "10002", "cuisineType": "japanese", "insertedAtTimestamp": "2022-10-19 21:37:54.792488"}, {"businessID": "alFl7eiu6Go-YxZAdp88Fw", "name": "Go! Go! Curry!", "address": "12 John Street, World Trade Center Stadium, New York, NY 10038", "coordinates": "40.7098966,-74.0090997", "rating": 4.0, "review_count": 396, "zip_code": "10038", "cuisineType": "japanese", "insertedAtTimestamp": "2022-10-19 21:37:55.090306"}, {"businessID": "-SMrRnKHeDqJdqlOc1pWVQ", "name": "Menya Sandaime", "address": "570 Washington Blvd, Jersey City, NJ 07310", "coordinates": "40.7286772826315,-74.0341662615538", "rating": 3.5, "review_count": 144, "zip_code": "07310", "cuisineType": "japanese", "insertedAtTimestamp": "2022-10-19 21:37:55.278352"}, {"businessID": "dyNJha9FAqxQc4g45hxqMA", "name": "Time", "address": "105 Canal St, New York, NY 10002", "coordinates": "40.71567,-73.99406", "rating": 5.0, "review_count": 2, "zip_code": "10002", "cuisineType": "japanese", "insertedAtTimestamp": "2022-10-19 21:37:55.472945"}, {"businessID": "nHVteg6SuFDxGA_7T3VFJg", "name": "Vanity", "address": "36 Newark St, Ste 42, Monroe's, Hoboken, NJ 07030", "coordinates": "40.7367,-74.02929", "rating": 4.5, "review_count": 13, "zip_code": "07030", "cuisineType": "japanese", "insertedAtTimestamp": "2022-10-19 21:37:55.659361"}, {"businessID": "5S8ZK9XLdl4l645twbNYZQ", "name": "Boqueria", "address": "1460 2nd Ave, New York, NY 10075", "coordinates": "40.771522,-73.956073", "rating": 4.0, "review_count": 888, "zip_code": "10075", "cuisineType": "japanese", "insertedAtTimestamp": "2022-10-19 21:37:55.847180"}, {"businessID": "hHzngEBZs7iLE42Zv3MHXg", "name": "Resobox  East Village", "address": "91 E 3rd St, New York, NY 10003", "coordinates": "40.72482,-73.98779", "rating": 4.5, "review_count": 11, "zip_code": "10003", "cuisineType": "japanese", "insertedAtTimestamp": "2022-10-19 21:37:56.100199"}, {"businessID": "w99Vgg5gE7PIHvyMudoq7A", "name": "Thirteen Water", "address": "208 E 7th St, New York, NY 10009", "coordinates": "40.72444577406931,-73.97992384134479", "rating": 4.5, "review_count": 37, "zip_code": "10009", "cuisineType": "japanese", "insertedAtTimestamp": "2022-10-19 21:37:56.291104"}, {"businessID": "42cm_E9-uXAeJpSKX6wbdQ", "name": "Master Tokyo Ramen", "address": "650 9th Ave, New York, NY 10036", "coordinates": "40.76066,-73.9908", "rating": 3.5, "review_count": 10, "zip_code": "10036", "cuisineType": "japanese", "insertedAtTimestamp": "2022-10-19 21:37:56.525534"}, {"businessID": "mZOsij0jxAUF3HM8rRMlFQ", "name": "Japonica", "address": "90 University Pl, New York, NY 10003", "coordinates": "40.7338075,-73.99315464322089", "rating": 3.5, "review_count": 159, "zip_code": "10003", "cuisineType": "japanese", "insertedAtTimestamp": "2022-10-19 21:37:56.975003"}, {"businessID": "3X-4PyyktdlauGFQ0wdDnA", "name": "Yume Japanese Funk Bar", "address": "601 W 57th St, New York, NY 10019", "coordinates": "40.77076,-73.99196", "rating": 4.0, "review_count": 11, "zip_code": "10019", "cuisineType": "japanese", "insertedAtTimestamp": "2022-10-19 21:37:57.209844"}, {"businessID": "KxOAVoyJ55G-gEQqhnBpAQ", "name": "Daigo Handroll Bar", "address": "445 Albee Sq, Brooklyn, NY 11201", "coordinates": "40.690884,-73.982863", "rating": 4.5, "review_count": 113, "zip_code": "11201", "cuisineType": "japanese", "insertedAtTimestamp": "2022-10-19 21:37:57.405025"}, {"businessID": "WOonEFdSaK224ew1c0Oa7w", "name": "Tenzan 89", "address": "1714 2nd Ave, New York, NY 10128", "coordinates": "40.779579,-73.950103", "rating": 3.0, "review_count": 194, "zip_code": "10128", "cuisineType": "japanese", "insertedAtTimestamp": "2022-10-19 21:37:57.599724"}, {"businessID": "oc8J6lk1Mfa-8RIwQ4NDgw", "name": "Pokeworks", "address": "117 E 41st St, New York, NY 10168", "coordinates": "40.751355370255474,-73.97689043954146", "rating": 4.0, "review_count": 232, "zip_code": "10168", "cuisineType": "japanese", "insertedAtTimestamp": "2022-10-19 21:37:57.778410"}, {"businessID": "oIPpGBpDdi_Z_7hhXGvW8Q", "name": "Kealoha Sushi & Poke Bowl", "address": "330 E 53rd St, New York, NY 10022", "coordinates": "40.7561010455144,-73.9660321176052", "rating": 4.5, "review_count": 120, "zip_code": "10022", "cuisineType": "japanese", "insertedAtTimestamp": "2022-10-19 21:37:57.976917"}, {"businessID": "gSkAfUFw_iM2CX2FqC6TwA", "name": "Sushi Time", "address": "72-42 Austin St, Forest Hills, NY 11375", "coordinates": "40.7185591,-73.841229", "rating": 4.5, "review_count": 573, "zip_code": "11375", "cuisineType": "japanese", "insertedAtTimestamp": "2022-10-19 21:37:58.262710"}, {"businessID": "oeW_uCh8zi-vlyre3yT27g", "name": "Hiro Ramen", "address": "34-39 31st St, Ste 2, Room C, New York, NY 11106", "coordinates": "40.75845644559239,-73.9280218", "rating": 4.0, "review_count": 1, "zip_code": "11106", "cuisineType": "japanese", "insertedAtTimestamp": "2022-10-19 21:37:58.472316"}, {"businessID": "sgw7_RcDSN5UcMPeviegFA", "name": "Kakurega Sushi", "address": "133-44 37th Ave, Flushing, NY 11354", "coordinates": "40.760567,-73.833354", "rating": 4.0, "review_count": 102, "zip_code": "11354", "cuisineType": "japanese", "insertedAtTimestamp": "2022-10-19 21:37:58.677454"}, {"businessID": "Exb6scc1mLuhsWrMLJqw9g", "name": "Sushi Lab - East Village", "address": "320 East 11th St, New York, NY 10003", "coordinates": "40.729793874721146,-73.9853292", "rating": 5.0, "review_count": 28, "zip_code": "10003", "cuisineType": "japanese", "insertedAtTimestamp": "2022-10-19 21:37:58.854894"}, {"businessID": "qI86P6EBB0_9qC4uIT0j-Q", "name": "Niko Niko Sushi", "address": "700 Plaza Dr, Secaucus, NJ 07094", "coordinates": "40.785815,-74.04535", "rating": 3.0, "review_count": 118, "zip_code": "07094", "cuisineType": "japanese", "insertedAtTimestamp": "2022-10-19 21:38:00.424280"}, {"businessID": "Y9RuXSHc0QxdPmzUP9m87g", "name": "Sushi Para Japanese", "address": "1461 3rd Ave, New York, NY 10028", "coordinates": "40.776461,-73.9553339", "rating": 3.5, "review_count": 238, "zip_code": "10028", "cuisineType": "japanese", "insertedAtTimestamp": "2022-10-19 21:38:00.644535"}, {"businessID": "SOf2LXzd-C9r58hvwCLLrQ", "name": "Sushi Muse", "address": "17 W 20th St, New York, NY 10011", "coordinates": "40.740451,-73.992138", "rating": 4.0, "review_count": 10, "zip_code": "10011", "cuisineType": "japanese", "insertedAtTimestamp": "2022-10-19 21:38:00.838620"}, {"businessID": "NB5u0htOK_1_dTkYALpRxg", "name": "Yoi Sushi Japanese", "address": "133-22 39th Ave, Flushing, NY 11354", "coordinates": "40.75899,-73.83364", "rating": 4.0, "review_count": 260, "zip_code": "11354", "cuisineType": "japanese", "insertedAtTimestamp": "2022-10-19 21:38:01.044189"}, {"businessID": "e9S-cBBVlNmnJGK8vBVyzg", "name": "Brodo", "address": "200 1st Ave, New York, NY 10009", "coordinates": "40.7300899,-73.98327", "rating": 4.0, "review_count": 173, "zip_code": "10009", "cuisineType": "japanese", "insertedAtTimestamp": "2022-10-19 21:38:01.279140"}, {"businessID": "NavBPhyeykbve1uVSOrDPg", "name": "The Red Flame", "address": "67 W 44th St, New York, NY 10036", "coordinates": "40.75608771635359,-73.9826981546971", "rating": 3.5, "review_count": 618, "zip_code": "10036", "cuisineType": "japanese", "insertedAtTimestamp": "2022-10-19 21:38:01.660714"}, {"businessID": "dX3EgCZzY17GZC_ob5DsfA", "name": "Dragon Sushi", "address": "2072 Frederick Douglass Blvd, New York, NY 10026", "coordinates": "40.80194,-73.95694", "rating": 4.0, "review_count": 27, "zip_code": "10026", "cuisineType": "japanese", "insertedAtTimestamp": "2022-10-19 21:38:01.855247"}, {"businessID": "AFt1Qcec4_JNr6PWpkRYyw", "name": "Sushi Lin", "address": "335 Flatbush Ave, Brooklyn, NY 11217", "coordinates": "40.677786,-73.972591", "rating": 4.5, "review_count": 315, "zip_code": "11217", "cuisineType": "japanese", "insertedAtTimestamp": "2022-10-19 21:38:02.126084"}, {"businessID": "SR4CuXDy20vM25gNb8FdFQ", "name": "Matsuyama", "address": "10 Engle St, Englewood, NJ 07631", "coordinates": "40.8933,-73.97297", "rating": 4.5, "review_count": 52, "zip_code": "07631", "cuisineType": "japanese", "insertedAtTimestamp": "2022-10-19 21:38:02.351402"}, {"businessID": "_KxtKB7CIN0z5sd4lZU9Zw", "name": "Bixi", "address": "2164 Frederick Douglass Blvd, New York, NY 10026", "coordinates": "40.80478,-73.95488", "rating": 4.0, "review_count": 55, "zip_code": "10026", "cuisineType": "japanese", "insertedAtTimestamp": "2022-10-19 21:38:02.677393"}, {"businessID": "S1yH5vdJh2L2UIb7zJ2OHg", "name": "Mito", "address": "64-18 108th St, Forest Hills, NY 11375", "coordinates": "40.732417,-73.849864", "rating": 4.0, "review_count": 440, "zip_code": "11375", "cuisineType": "japanese", "insertedAtTimestamp": "2022-10-19 21:38:02.892485"}, {"businessID": "aE7hRzK1t80iFyi4Do77lw", "name": "Sushi Uesugi", "address": "934 3rd Ave, Brooklyn, NY 11232", "coordinates": "40.6560432255486,-74.0064066279496", "rating": 4.5, "review_count": 65, "zip_code": "11232", "cuisineType": "japanese", "insertedAtTimestamp": "2022-10-19 21:38:03.096779"}, {"businessID": "dEp2ubj8SRGD32N3yw2h_A", "name": "Noodlelove", "address": "192 Mott St, New York, NY 10012", "coordinates": "40.72097817273693,-73.99563495671056", "rating": 4.0, "review_count": 170, "zip_code": "10012", "cuisineType": "japanese", "insertedAtTimestamp": "2022-10-19 21:38:03.273969"}, {"businessID": "01hs_l54-211UuiJPI83lA", "name": "Sakura Japanese Cuisine", "address": "35-15 Ditmars Blvd, Astoria, NY 11105", "coordinates": "40.774658,-73.908239", "rating": 4.0, "review_count": 216, "zip_code": "11105", "cuisineType": "japanese", "insertedAtTimestamp": "2022-10-19 21:38:03.789737"}, {"businessID": "u3JBjUgrCdxy6WF0tnX3SA", "name": "Aji Sushi House", "address": "3606 Ditmars Blvd, Astoria, NY 11105", "coordinates": "40.7742004394531,-73.9079513549805", "rating": 4.5, "review_count": 482, "zip_code": "11105", "cuisineType": "japanese", "insertedAtTimestamp": "2022-10-19 21:38:03.991717"}, {"businessID": "eX1l0ZlqaHbkWz5dOmPt4A", "name": "Fuji East", "address": "455 Main St, New York, NY 10044", "coordinates": "40.759060669975,-73.9523682767591", "rating": 3.0, "review_count": 150, "zip_code": "10044", "cuisineType": "japanese", "insertedAtTimestamp": "2022-10-19 21:38:04.200178"}, {"businessID": "njmOPpVZxIseG262NPfspA", "name": "Miyabi Sushi & Asian Cusine", "address": "118 W 3rd St, New York, NY 10012", "coordinates": "40.73046,-74.00037", "rating": 4.0, "review_count": 391, "zip_code": "10012", "cuisineType": "japanese", "insertedAtTimestamp": "2022-10-19 21:38:04.408777"}, {"businessID": "dgU5NoylJVJ5rDZY_PezkA", "name": "Blackbeard Ramen", "address": "607 Gorge Rd, Cliffside Park, NJ 07010", "coordinates": "40.8243589123235,-73.9876905320009", "rating": 4.5, "review_count": 580, "zip_code": "07010", "cuisineType": "japanese", "insertedAtTimestamp": "2022-10-19 21:38:04.714367"}, {"businessID": "eyrc1L7VnWK0TcF9cheR4w", "name": "Okawa", "address": "77-05 37th Ave, Ste A, Jackson Heights, NY 11372", "coordinates": "40.7494447,-73.8884602", "rating": 3.5, "review_count": 170, "zip_code": "11372", "cuisineType": "japanese", "insertedAtTimestamp": "2022-10-19 21:38:04.905945"}, {"businessID": "dspLTxhT3Po_lgpUOnYLHg", "name": "Matsu Sushi", "address": "411 E 70th St, New York, NY 10021", "coordinates": "40.766304,-73.955909", "rating": 3.5, "review_count": 286, "zip_code": "10021", "cuisineType": "japanese", "insertedAtTimestamp": "2022-10-19 21:38:05.123226"}, {"businessID": "AAP2fFjya6uSkZXTzGlg7g", "name": "Shiro - Midtown", "address": "988 2nd Ave, Fl 2nd, New York, NY 10022", "coordinates": "40.75625,-73.9673", "rating": 5.0, "review_count": 1, "zip_code": "10022", "cuisineType": "japanese", "insertedAtTimestamp": "2022-10-19 21:38:05.334794"}, {"businessID": "W0YGwDTYRjUCBgtpqHXSAg", "name": "IWak", "address": "340 Grand St, Brooklyn, NY 11211", "coordinates": "40.71244591155105,-73.95622518519129", "rating": 5.0, "review_count": 6, "zip_code": "11211", "cuisineType": "japanese", "insertedAtTimestamp": "2022-10-19 21:38:05.632533"}, {"businessID": "uMZ7xLqeJy1yIweKWe9eNg", "name": "Kyoto Sushi", "address": "161 Nassau Ave, Brooklyn, NY 11222", "coordinates": "40.7250777468913,-73.9470219435913", "rating": 4.0, "review_count": 174, "zip_code": "11222", "cuisineType": "japanese", "insertedAtTimestamp": "2022-10-19 21:38:05.833686"}, {"businessID": "qhV-FcvEKGRY9JyvhHyYwg", "name": "No Strings Attached Noodle Bar", "address": "135B N 5th St, Brooklyn, NY 11249", "coordinates": "40.71703503462657,-73.95910409999999", "rating": 4.0, "review_count": 33, "zip_code": "11249", "cuisineType": "japanese", "insertedAtTimestamp": "2022-10-19 21:38:06.076029"}, {"businessID": "WH1GI4cj44DxPiRWMG96bQ", "name": "Nakahara Japanese Restaurant", "address": "299 Broad Ave, Leonia, NJ 07605", "coordinates": "40.861163,-73.988058", "rating": 4.0, "review_count": 150, "zip_code": "07605", "cuisineType": "japanese", "insertedAtTimestamp": "2022-10-19 21:38:06.279652"}, {"businessID": "seqweWkUfK64r--DCeoWBg", "name": "Sekai Omakase", "address": "96 W Houston St, New York, NY 10012", "coordinates": "40.72727,-74.00017", "rating": 4.0, "review_count": 14, "zip_code": "10012", "cuisineType": "japanese", "insertedAtTimestamp": "2022-10-19 21:38:06.481707"}, {"businessID": "l5d-2dxd1gXRMIDMVG7QKw", "name": "Hiyake Omakase", "address": "165 Bedford Ave, Brooklyn, NY 11211", "coordinates": "40.71841,-73.95694", "rating": 1.0, "review_count": 1, "zip_code": "11211", "cuisineType": "japanese", "insertedAtTimestamp": "2022-10-19 21:38:06.697799"}, {"businessID": "M2bvOwAbCjLUvMbAF6h3-w", "name": "Sapporo Ichiban", "address": "622 Manhattan Ave, Brooklyn, NY 11222", "coordinates": "40.723678,-73.950462", "rating": 4.0, "review_count": 275, "zip_code": "11222", "cuisineType": "japanese", "insertedAtTimestamp": "2022-10-19 21:38:06.913422"}, {"businessID": "yN5rHxaIZMk6KFrbDNgZgA", "name": "Luke's Lobster Upper East Side", "address": "242 E 81st St, New York, NY 10028", "coordinates": "40.7747308470083,-73.9545491922026", "rating": 4.0, "review_count": 1227, "zip_code": "10028", "cuisineType": "japanese", "insertedAtTimestamp": "2022-10-19 21:38:07.087402"}, {"businessID": "vZ1HaqE22RlZPBtjJwbwJw", "name": "MIRAK Taste of Joy", "address": "783 Palisade Ave, Cliffside Park, NJ 07010", "coordinates": "40.82906,-73.98053", "rating": 5.0, "review_count": 4, "zip_code": "07010", "cuisineType": "japanese", "insertedAtTimestamp": "2022-10-19 21:38:07.329465"}, {"businessID": "fL8LOuVbCzop2I9cGVvEUw", "name": "212 Hisae's", "address": "212 E 9th St, New York, NY 10003", "coordinates": "40.72964,-73.98879", "rating": 4.0, "review_count": 374, "zip_code": "10003", "cuisineType": "japanese", "insertedAtTimestamp": "2022-10-19 21:38:07.533366"}, {"businessID": "v3hyLT2meB0LEiSdOwV_jA", "name": "Bad Habits", "address": "32-03 Broadway, Astoria, NY 11106", "coordinates": "40.76167066516151,-73.92424504435924", "rating": 3.5, "review_count": 86, "zip_code": "11106", "cuisineType": "japanese", "insertedAtTimestamp": "2022-10-19 21:38:07.772241"}, {"businessID": "hB8uar0OD_K1XAo4kWNL-Q", "name": "Tori Bien", "address": "220 East 9th St, New York, NY 10003", "coordinates": "40.72952,-73.98826", "rating": 4.5, "review_count": 6, "zip_code": "10003", "cuisineType": "japanese", "insertedAtTimestamp": "2022-10-19 21:38:09.398077"}, {"businessID": "LjAt-SP7BwIpp56TZHVsWA", "name": "Uotora", "address": "1075 Bergen St, Brooklyn, NY 11216", "coordinates": "40.676369,-73.950486", "rating": 4.5, "review_count": 115, "zip_code": "11216", "cuisineType": "japanese", "insertedAtTimestamp": "2022-10-19 21:38:09.604226"}, {"businessID": "97AU6OCsvq-Hec7VDa6dEw", "name": "Cafe Kyoto", "address": "Plaza Hotel, Balanga City, Bataan, Malvar, Batangas, Philippines", "coordinates": "14.0533895492554,121.155578613281", "rating": 5.0, "review_count": 1, "zip_code": "", "cuisineType": "japanese", "insertedAtTimestamp": "2022-10-19 21:38:09.808675"}, {"businessID": "ct58a_D8Z8DoJt7luB50wQ", "name": "Ramen Ishida", "address": "122 Ludlow St, New York, NY 10002", "coordinates": "40.7196298,-73.988366", "rating": 4.5, "review_count": 268, "zip_code": "10002", "cuisineType": "japanese", "insertedAtTimestamp": "2022-10-19 21:38:10.024130"}, {"businessID": "1Ws63KLmL3vQ1Brm8yTNvg", "name": "Bondi", "address": "75 Kenmare St, New York, NY 10012", "coordinates": "40.72121,-73.99628", "rating": 3.5, "review_count": 56, "zip_code": "10012", "cuisineType": "japanese", "insertedAtTimestamp": "2022-10-19 21:38:10.242582"}, {"businessID": "NlgC8TjNuf8sy6qg2xpqsQ", "name": "Yuka Japanese Restaurant", "address": "1557 2nd Ave, New York, NY 10028", "coordinates": "40.77463,-73.95447", "rating": 3.5, "review_count": 618, "zip_code": "10028", "cuisineType": "japanese", "insertedAtTimestamp": "2022-10-19 21:38:10.460654"}, {"businessID": "D9sVruGgjWFo7ABSBaMSmw", "name": "Arigato", "address": "1034 River Rd, Edgewater, NJ 07020", "coordinates": "40.83007,-73.97232", "rating": 3.5, "review_count": 408, "zip_code": "07020", "cuisineType": "japanese", "insertedAtTimestamp": "2022-10-19 21:38:10.649783"}, {"businessID": "jR09vZmJnwKPw4DyMxgwnw", "name": "Sushi on Jones", "address": "348 Bowery, New York, NY 10012", "coordinates": "40.72664,-73.99202", "rating": 4.0, "review_count": 497, "zip_code": "10012", "cuisineType": "japanese", "insertedAtTimestamp": "2022-10-19 21:38:10.960359"}, {"businessID": "-ovTikSyvxtMnCEI6hiceg", "name": "Sushi Aoki", "address": "215 Main St, Ste104, Fort Lee, NJ 07024", "coordinates": "40.851453,-73.970736", "rating": 5.0, "review_count": 42, "zip_code": "07024", "cuisineType": "japanese", "insertedAtTimestamp": "2022-10-19 21:38:11.187512"}, {"businessID": "GlZKE1IrwfezpV_ZCvQWZA", "name": "Sushi House 21", "address": "243 Elm St, Newark, NJ 07105", "coordinates": "40.72705,-74.16002", "rating": 4.0, "review_count": 145, "zip_code": "07105", "cuisineType": "japanese", "insertedAtTimestamp": "2022-10-19 21:38:11.431324"}, {"businessID": "7WY5zWUb7NajX7JW3t9W6Q", "name": "Tsujita", "address": "595 River Rd, Mitsuwa Market, Edgewater, NJ 07020", "coordinates": "40.816071876588516,-73.98005427285706", "rating": 3.5, "review_count": 58, "zip_code": "07020", "cuisineType": "japanese", "insertedAtTimestamp": "2022-10-19 21:38:11.640661"}, {"businessID": "0vdgqmIt6e0suBu2g-M1UQ", "name": "The Ten Bells", "address": "247 Broome St, New York, NY 10002", "coordinates": "40.717801,-73.98985", "rating": 3.5, "review_count": 480, "zip_code": "10002", "cuisineType": "japanese", "insertedAtTimestamp": "2022-10-19 21:38:11.888764"}, {"businessID": "UQuV1hiPRPqPT2qBcLrQqA", "name": "Flipper\u2019s", "address": "337 W Broadway, New York, NY 10013", "coordinates": "40.72242,-74.00357", "rating": 3.5, "review_count": 716, "zip_code": "10013", "cuisineType": "japanese", "insertedAtTimestamp": "2022-10-19 21:38:12.108263"}, {"businessID": "wUu9WcGjP8KS6KlpARChyQ", "name": "Gyu-Kaku Japanese BBQ", "address": "4052 Main St, Flushing, NY 11354", "coordinates": "40.758159,-73.829822", "rating": 4.5, "review_count": 711, "zip_code": "11354", "cuisineType": "japanese", "insertedAtTimestamp": "2022-10-19 21:38:12.264119"}, {"businessID": "jt-0y4RJ20ONbkxxNWG_Sw", "name": "New Mizu Sushi", "address": "350 E 9th St, New York, NY 10003", "coordinates": "40.7283,-73.98538", "rating": 4.5, "review_count": 226, "zip_code": "10003", "cuisineType": "japanese", "insertedAtTimestamp": "2022-10-19 21:38:12.445622"}, {"businessID": "6gcGQJ20q0J-ODZ6srB3Ow", "name": "Bai Sushi", "address": "37-03 Broadway, Astoria, NY 11103", "coordinates": "40.7597841,-73.9202394", "rating": 4.0, "review_count": 260, "zip_code": "11103", "cuisineType": "japanese", "insertedAtTimestamp": "2022-10-19 21:38:12.743414"}, {"businessID": "Q5O4qFpmPQgBN6ZaHdQcZA", "name": "Kyuramen - Columbia University", "address": "2787 Broadway, New York, NY 10026", "coordinates": "40.8027,-73.96809", "rating": 3.5, "review_count": 7, "zip_code": "10026", "cuisineType": "japanese", "insertedAtTimestamp": "2022-10-19 21:38:12.954572"}, {"businessID": "JiFp_mv7OgRonaWb-1n96A", "name": "52nd Sushi", "address": "5221 Roosevelt Ave, Woodside, NY 11377", "coordinates": "40.7445907592773,-73.9116134643555", "rating": 4.0, "review_count": 128, "zip_code": "11377", "cuisineType": "japanese", "insertedAtTimestamp": "2022-10-19 21:38:13.170696"}, {"businessID": "6tJB7AWwVzccgJdOMWUYkQ", "name": "Samurai Sushi", "address": "245 Paterson Ave, East Rutherford, NJ 07073", "coordinates": "40.8339891469313,-74.0975059568882", "rating": 4.5, "review_count": 388, "zip_code": "07073", "cuisineType": "japanese", "insertedAtTimestamp": "2022-10-19 21:38:13.374594"}, {"businessID": "m_PhHkyN-630ucF7r2F8EQ", "name": "Pho Shop", "address": "1716 1st Ave, New York, NY 10128", "coordinates": "40.77854288396,-73.9477937668562", "rating": 4.0, "review_count": 388, "zip_code": "10128", "cuisineType": "japanese", "insertedAtTimestamp": "2022-10-19 21:38:13.668581"}, {"businessID": "MM5i395oQHBP-9XtJrsO3A", "name": "Tokyo Hibachi Asian Cuisine & Buffet", "address": "700 Plaza Dr, Secaucus, NJ 07094", "coordinates": "40.7862203603794,-74.0456456185952", "rating": 2.5, "review_count": 331, "zip_code": "07094", "cuisineType": "japanese", "insertedAtTimestamp": "2022-10-19 21:38:13.891093"}, {"businessID": "ak-EOiPVe9bnSnKXAVHNgg", "name": "The Japanese Pop-Up Restaurant", "address": "2900 Southern Blvd, Bronx, NY 10458", "coordinates": "40.8626682096216,-73.8806020461249", "rating": 5.0, "review_count": 2, "zip_code": "10458", "cuisineType": "japanese", "insertedAtTimestamp": "2022-10-19 21:38:14.100852"}, {"businessID": "RB6gbl5JorcspJjjdTAXqg", "name": "Doumo", "address": "63 Delancey St, New York, NY 10002", "coordinates": "40.71906,-73.99078", "rating": 4.5, "review_count": 3, "zip_code": "10002", "cuisineType": "japanese", "insertedAtTimestamp": "2022-10-19 21:38:14.334815"}, {"businessID": "k6KrdEQ8EAMPJx82fZpUvw", "name": "Kuro-Obi at City Kitchen NYC", "address": "700 8th Ave, Row NYC hote, New York, NY 10036", "coordinates": "40.7587156,-73.988296", "rating": 3.5, "review_count": 163, "zip_code": "10036", "cuisineType": "japanese", "insertedAtTimestamp": "2022-10-19 21:38:14.516964"}, {"businessID": "CVHwQvZO1jp7-AfnFHR0ug", "name": "Obentoyasan", "address": "220 36th St, Brooklyn, NY 11232", "coordinates": "40.656471,-74.008412", "rating": 4.0, "review_count": 16, "zip_code": "11232", "cuisineType": "japanese", "insertedAtTimestamp": "2022-10-19 21:38:14.733602"}, {"businessID": "SbXJlImRDoMeepmq_f96cw", "name": "Go! Go! Curry!", "address": "144 W 19th St, New York, NY 10011", "coordinates": "40.741201640414054,-73.99661061989963", "rating": 3.5, "review_count": 121, "zip_code": "10011", "cuisineType": "japanese", "insertedAtTimestamp": "2022-10-19 21:38:14.951694"}, {"businessID": "McU7XI3HoWFELTDaGc1SEw", "name": "Ginger and Lemongrass", "address": "153 Rivington St, New York, NY 10002", "coordinates": "40.71912,-73.98567", "rating": 4.0, "review_count": 529, "zip_code": "10002", "cuisineType": "japanese", "insertedAtTimestamp": "2022-10-19 21:38:15.146915"}, {"businessID": "PpRcR8PPK3bdLCzAevOosw", "name": "Honshu", "address": "95 Greene St, Jersey City, NJ 07302", "coordinates": "40.7157115638256,-74.0359251201153", "rating": 4.0, "review_count": 407, "zip_code": "07302", "cuisineType": "japanese", "insertedAtTimestamp": "2022-10-19 21:38:15.353725"}, {"businessID": "yckkW5iFRiBOWsH3tZTr3Q", "name": "Hashi Ramen & Izakaya", "address": "192-12 Northern Blvd, Flushing, NY 11358", "coordinates": "40.757864394357235,-73.78887854447034", "rating": 4.0, "review_count": 1151, "zip_code": "11358", "cuisineType": "japanese", "insertedAtTimestamp": "2022-10-19 21:38:15.594690"}, {"businessID": "xlgGf123WHB7Q6_V4Xe12w", "name": "Azuki", "address": "700 8th Ave 44th St, City Kitchen, New York, NY 10036", "coordinates": "40.758712,-73.988281", "rating": 2.5, "review_count": 34, "zip_code": "10036", "cuisineType": "japanese", "insertedAtTimestamp": "2022-10-19 21:38:15.784379"}, {"businessID": "3BYgbjo8MtaIyLZMdTxrOQ", "name": "Geisha Sushi", "address": "3468 Broadway, New York, NY 10031", "coordinates": "40.8241613,-73.9519775", "rating": 4.0, "review_count": 436, "zip_code": "10031", "cuisineType": "japanese", "insertedAtTimestamp": "2022-10-19 21:38:15.995248"}, {"businessID": "BEevU4e0fL5gyb-f13KZtg", "name": "ABIKO CURRY", "address": "108 Broad Ave, Palisades Park, NJ 07650", "coordinates": "40.844301,-74.000292", "rating": 4.0, "review_count": 210, "zip_code": "07650", "cuisineType": "japanese", "insertedAtTimestamp": "2022-10-19 21:38:16.198431"}, {"businessID": "fqr2YzqzG7q1ZsuP2klxww", "name": "LUNA  Asian Bistro & Lounge", "address": "32-72 Steinway St, Astoria, NY 11103", "coordinates": "40.7573,-73.92068", "rating": 4.0, "review_count": 356, "zip_code": "11103", "cuisineType": "japanese", "insertedAtTimestamp": "2022-10-19 21:38:16.409242"}, {"businessID": "Nukulm8uVSjn0zMWk_u4IA", "name": "Sushi-Ann Restaurant", "address": "38 E 51st St, New York, NY 10022", "coordinates": "40.7580919,-73.9745541", "rating": 3.5, "review_count": 131, "zip_code": "10022", "cuisineType": "japanese", "insertedAtTimestamp": "2022-10-19 21:38:17.916126"}, {"businessID": "OMv26_R8kaek1G7_QhBPkg", "name": "M. Wells", "address": "43-15 Crescent St, Long Island City, NY 11101", "coordinates": "40.748687950334634,-73.9423496466214", "rating": 3.5, "review_count": 427, "zip_code": "11101", "cuisineType": "japanese", "insertedAtTimestamp": "2022-10-19 21:38:18.130577"}, {"businessID": "mRtFCCbZ8efcmM67hC-vVQ", "name": "Sushi Basho", "address": "172 Bedford Ave, Bedford Food Hall, Brooklyn, NY 11249", "coordinates": "40.7182169072358,-73.95763", "rating": 5.0, "review_count": 1, "zip_code": "11249", "cuisineType": "japanese", "insertedAtTimestamp": "2022-10-19 21:38:18.328375"}, {"businessID": "LTfR_0NiS7OIRCfkaAJg9w", "name": "Silver Rice", "address": "638 Park Pl, Brooklyn, NY 11238", "coordinates": "40.6742123562615,-73.9568891376257", "rating": 4.5, "review_count": 321, "zip_code": "11238", "cuisineType": "japanese", "insertedAtTimestamp": "2022-10-19 21:38:18.553821"}, {"businessID": "k9SHpkjwlYnXZkSLVtl11w", "name": "Tenzan", "address": "988 2nd Ave, New York, NY 10022", "coordinates": "40.756202,-73.967201", "rating": 3.5, "review_count": 325, "zip_code": "10022", "cuisineType": "japanese", "insertedAtTimestamp": "2022-10-19 21:38:18.779025"}, {"businessID": "6EArjn_iacj-yGVLTKWuEQ", "name": "Fushimi Williamsburg", "address": "475 Driggs Ave, Brooklyn, NY 11211", "coordinates": "40.718827,-73.954131", "rating": 4.0, "review_count": 777, "zip_code": "11211", "cuisineType": "japanese", "insertedAtTimestamp": "2022-10-19 21:38:18.982247"}, {"businessID": "QVc7uzk07IaBAcgXs_l_fg", "name": "Tonkatsu Me", "address": "2323 Borden Ave, Long Island, NY 11101", "coordinates": "40.74015,-73.94649", "rating": 5.0, "review_count": 5, "zip_code": "11101", "cuisineType": "japanese", "insertedAtTimestamp": "2022-10-19 21:38:19.193219"}, {"businessID": "gy56ohOWU-lBBL6U4HbaMQ", "name": "Blue Ribbon Sushi Bar - Rock Center", "address": "30 Rockefeller Plaza, Concourse Level, New York, NY 10112", "coordinates": "40.7593755,-73.9799726", "rating": 3.5, "review_count": 62, "zip_code": "10112", "cuisineType": "japanese", "insertedAtTimestamp": "2022-10-19 21:38:19.487306"}, {"businessID": "uVHa8BktK6jjYTaSxra-sg", "name": "Nizi Sushi", "address": "340 Paterson Ave, East Rutherford, NJ 07073", "coordinates": "40.8368845110482,-74.099494049349", "rating": 4.5, "review_count": 666, "zip_code": "07073", "cuisineType": "japanese", "insertedAtTimestamp": "2022-10-19 21:38:19.696158"}, {"businessID": "-86K6KX3HlUwkWTWRO3VAQ", "name": "KYURAMEN", "address": "133-42 37th Ave, Flushing, NY 11354", "coordinates": "40.76051,-73.83339", "rating": 4.0, "review_count": 1112, "zip_code": "11354", "cuisineType": "japanese", "insertedAtTimestamp": "2022-10-19 21:38:19.923294"}, {"businessID": "pnGOd5wwinXc83sIYI1Xuw", "name": "Hula Poke", "address": "1028 Amsterdam Ave, New York, NY 10025", "coordinates": "40.80346,-73.96374", "rating": 4.0, "review_count": 118, "zip_code": "10025", "cuisineType": "japanese", "insertedAtTimestamp": "2022-10-19 21:38:20.374359"}, {"businessID": "c94UwCKd_S1J_ikT0a6mTA", "name": "Kuro-Obi at UrbanSpace Vanderbilt", "address": "230 Park Ave, UrbanSpace Vanderbilt, New York, NY 10169", "coordinates": "40.7543721,-73.9761826", "rating": 3.0, "review_count": 89, "zip_code": "10169", "cuisineType": "japanese", "insertedAtTimestamp": "2022-10-19 21:38:20.592625"}, {"businessID": "zjGALLjlJblpZWarcDPpsg", "name": "Ayame Hibachi & Sushi", "address": "526 Washington St, Hoboken, NJ 07030", "coordinates": "40.74311,-74.0295", "rating": 3.5, "review_count": 281, "zip_code": "07030", "cuisineType": "japanese", "insertedAtTimestamp": "2022-10-19 21:38:20.805204"}, {"businessID": "HOfRJM9eNrzuBHtstwbgTQ", "name": "Diner By Izakaya", "address": "56-06 Cooper Ave, Ridgewood, NY 11385", "coordinates": "40.69259,-73.90144", "rating": 4.0, "review_count": 4, "zip_code": "11385", "cuisineType": "japanese", "insertedAtTimestamp": "2022-10-19 21:38:21.008309"}, {"businessID": "yZ8EcJEWfvZE_-rjhmb3KQ", "name": "Cafe Serai", "address": "150 W 17th St, Rubin Musuem Of Art, New York, NY 10011", "coordinates": "40.7400208,-73.9977875", "rating": 3.0, "review_count": 14, "zip_code": "10011", "cuisineType": "japanese", "insertedAtTimestamp": "2022-10-19 21:38:21.207304"}, {"businessID": "JXTQTVH6ItQek5vmiDYYIA", "name": "Teriyaki One", "address": "5805 Bergenline Ave, West New York, NJ 07093", "coordinates": "40.7879313731364,-74.0174406766891", "rating": 3.0, "review_count": 24, "zip_code": "07093", "cuisineType": "japanese", "insertedAtTimestamp": "2022-10-19 21:38:21.437154"}, {"businessID": "OaZEhQDf4AVYDhyK3WuVjA", "name": "Deep Blue", "address": "John F Kennedy International Airport, Terminal 5, Jamaica, NY 11430", "coordinates": "40.6460790022017,-73.7775236548709", "rating": 3.0, "review_count": 357, "zip_code": "11430", "cuisineType": "japanese", "insertedAtTimestamp": "2022-10-19 21:38:21.688829"}, {"businessID": "L949I6aMoUEpaY-dr-SJNw", "name": "Dragon Sushi", "address": "1264 Amsterdam Ave, New York, NY 10027", "coordinates": "40.811043,-73.958387", "rating": 3.5, "review_count": 40, "zip_code": "10027", "cuisineType": "japanese", "insertedAtTimestamp": "2022-10-19 21:38:21.907403"}, {"businessID": "KGD7hsGHd3KpiEGOApZLvQ", "name": "Mikaku Sushi", "address": "85 Kenmare St, New York, NY 10012", "coordinates": "40.72136,-73.99675", "rating": 3.5, "review_count": 170, "zip_code": "10012", "cuisineType": "japanese", "insertedAtTimestamp": "2022-10-19 21:38:22.089784"}, {"businessID": "aoqtpMb3jmIyuIBU3Sp0qg", "name": "Gohan Sushi", "address": "533 86th St, Brooklyn, NY 11209", "coordinates": "40.62106,-74.02518", "rating": 4.5, "review_count": 32, "zip_code": "11209", "cuisineType": "japanese", "insertedAtTimestamp": "2022-10-19 21:38:22.347495"}, {"businessID": "_3P3HQB513zGovhhN4uDQw", "name": "Za-Ya", "address": "321 Starr St, Brooklyn, NY 11237", "coordinates": "40.708065,-73.920499", "rating": 5.0, "review_count": 23, "zip_code": "11237", "cuisineType": "japanese", "insertedAtTimestamp": "2022-10-19 21:38:22.555848"}, {"businessID": "jAeNN05URRe9_CmGc0ssEA", "name": "Sushi Lounge", "address": "200 Hudson St, Hoboken, NJ 07030", "coordinates": "40.73865,-74.02957", "rating": 3.5, "review_count": 427, "zip_code": "07030", "cuisineType": "japanese", "insertedAtTimestamp": "2022-10-19 21:38:22.760478"}, {"businessID": "P9x0uX9nmPCph1mWM3k4vg", "name": "Barely Disfigured", "address": "257 Smith St, Brooklyn, NY 11231", "coordinates": "40.68309,-73.9928", "rating": 4.5, "review_count": 130, "zip_code": "11231", "cuisineType": "japanese", "insertedAtTimestamp": "2022-10-19 21:38:22.994533"}, {"businessID": "HC18oDJ2svQoXIddP-wuyw", "name": "Wasan Brooklyn", "address": "440 Bergen St, Brooklyn, NY 11217", "coordinates": "40.6812605,-73.9768418", "rating": 4.0, "review_count": 269, "zip_code": "11217", "cuisineType": "japanese", "insertedAtTimestamp": "2022-10-19 21:38:23.204257"}, {"businessID": "qiw9Kgsu5YVGrQL_OeDmcQ", "name": "Hide-Chan Ramen", "address": "248 E 52nd St, Fl 2, New York, NY 10022", "coordinates": "40.75613,-73.9682", "rating": 3.5, "review_count": 1371, "zip_code": "10022", "cuisineType": "japanese", "insertedAtTimestamp": "2022-10-19 21:38:23.487041"}, {"businessID": "JCVqcsehixhHVGV7_GCzxg", "name": "Ramen Azuma", "address": "271 Valley Blvd, Wood-Ridge, NJ 07075", "coordinates": "40.85139106494558,-74.0849470308642", "rating": 4.5, "review_count": 26, "zip_code": "07075", "cuisineType": "japanese", "insertedAtTimestamp": "2022-10-19 21:38:23.700591"}, {"businessID": "DY0y0KPwu8LnQteNB-uoAQ", "name": "Amaze", "address": "694 3rd Ave, New York, NY 10017", "coordinates": "40.7519302,-73.9739609", "rating": 3.0, "review_count": 277, "zip_code": "10017", "cuisineType": "japanese", "insertedAtTimestamp": "2022-10-19 21:38:25.368415"}, {"businessID": "-xQldFYgkMmCAVRIbRnDwg", "name": "Hapon Japanese Restaurant", "address": "211 E 43rd St, New York, NY 10017", "coordinates": "40.751378635162226,-73.97300006646107", "rating": 3.5, "review_count": 5, "zip_code": "10017", "cuisineType": "japanese", "insertedAtTimestamp": "2022-10-19 21:38:25.543840"}, {"businessID": "O7b3WKYglyu_3lYxN7GXRQ", "name": "Fukurou Brooklyn", "address": "105 Wilson Ave, New York, NY 11237", "coordinates": "40.70154,-73.92694", "rating": 4.5, "review_count": 14, "zip_code": "11237", "cuisineType": "japanese", "insertedAtTimestamp": "2022-10-19 21:38:25.777376"}, {"businessID": "KrJ6m_TkxBAPPSNH-G7rvQ", "name": "U-gu", "address": "541 Myrtle Ave, Ste B, Brooklyn, NY 11205", "coordinates": "40.69393,-73.96284", "rating": 4.5, "review_count": 172, "zip_code": "11205", "cuisineType": "japanese", "insertedAtTimestamp": "2022-10-19 21:38:26.002056"}, {"businessID": "NjJJ0x2tOZXMeo6_f2w_IA", "name": "Sushi 21", "address": "174 7th Ave, New York, NY 10011", "coordinates": "40.742561,-73.997162", "rating": 3.0, "review_count": 77, "zip_code": "10011", "cuisineType": "japanese", "insertedAtTimestamp": "2022-10-19 21:38:26.217931"}, {"businessID": "tbyq3mdNFQrZPIuRmO0bQw", "name": "Takumi Taco", "address": "570 Lexington Ave, Urbanspace, New York, NY 10022", "coordinates": "40.757156,-73.972604", "rating": 3.0, "review_count": 12, "zip_code": "10022", "cuisineType": "japanese", "insertedAtTimestamp": "2022-10-19 21:38:26.439914"}, {"businessID": "ba-MPbYnM6T30RNgPdUvtQ", "name": "Shanghai Red Asian Latin Bistro", "address": "127 Westchester Sq, Bronx, NY 10461", "coordinates": "40.8401620296024,-73.8425095552948", "rating": 3.5, "review_count": 149, "zip_code": "10461", "cuisineType": "japanese", "insertedAtTimestamp": "2022-10-19 21:38:26.656596"}, {"businessID": "daqoTgWT411Rhl5h92BcqA", "name": "Ginger Grill", "address": "5008 Bergenline Ave, West New York, NJ 07093", "coordinates": "40.7831045221492,-74.0207290649414", "rating": 4.0, "review_count": 49, "zip_code": "07093", "cuisineType": "japanese", "insertedAtTimestamp": "2022-10-19 21:38:26.849476"}, {"businessID": "sl3aaBmXIxt9PzRkTdqxUQ", "name": "Ooka Sushi Hibachi Lounge", "address": "166 Main Ave, Clifton, NJ 07014", "coordinates": "40.8323238,-74.1401008", "rating": 3.5, "review_count": 405, "zip_code": "07014", "cuisineType": "japanese", "insertedAtTimestamp": "2022-10-19 21:38:27.099911"}, {"businessID": "lIix5qMI4q5bfCTO4wxkgA", "name": "Pink Nori", "address": "36-06 30th Ave, Astoria, NY 11103", "coordinates": "40.764689,-73.917282", "rating": 4.0, "review_count": 481, "zip_code": "11103", "cuisineType": "japanese", "insertedAtTimestamp": "2022-10-19 21:38:27.318881"}, {"businessID": "GG72AwlaBM90YdLvRJliFg", "name": "Dashi Okume", "address": "50 Norman Ave, Brooklyn, NY 11222", "coordinates": "40.724689465644175,-73.9536510868506", "rating": 5.0, "review_count": 1, "zip_code": "11222", "cuisineType": "japanese", "insertedAtTimestamp": "2022-10-19 21:38:27.550008"}, {"businessID": "Ww3aAPf0sA5ygAXu2qV1ZQ", "name": "Taiki", "address": "134 Nevins St, Brooklyn, NY 11217", "coordinates": "40.6845433545275,-73.9837775425761", "rating": 4.5, "review_count": 91, "zip_code": "11217", "cuisineType": "japanese", "insertedAtTimestamp": "2022-10-19 21:38:27.725301"}, {"businessID": "9MIoDxACK6oSLwz4BVK0IQ", "name": "Sushi By Bou - Jersey City", "address": "218 Newark Ave, Jersey City, NJ 07302", "coordinates": "40.722256,-74.047075", "rating": 4.5, "review_count": 227, "zip_code": "07302", "cuisineType": "japanese", "insertedAtTimestamp": "2022-10-19 21:38:27.929264"}, {"businessID": "0BO5QlApGB0S4_-bPSj-Kw", "name": "Moriyan", "address": "25-30 Broadway, Astoria, NY 11106", "coordinates": "40.762746,-73.92757", "rating": 3.5, "review_count": 14, "zip_code": "11106", "cuisineType": "japanese", "insertedAtTimestamp": "2022-10-19 21:38:28.132011"}, {"businessID": "dAK5-ftIdu4IK7MRUFizuA", "name": "Tenzan", "address": "7117 18th Ave, Brooklyn, NY 11204", "coordinates": "40.6151355763058,-73.9939702657333", "rating": 3.5, "review_count": 326, "zip_code": "11204", "cuisineType": "japanese", "insertedAtTimestamp": "2022-10-19 21:38:28.426161"}, {"businessID": "SoBdWOxymmY5yKANn63UWw", "name": "Ozu", "address": "78 Clark St, Brooklyn, NY 11201", "coordinates": "40.69743399861925,-73.99336007813704", "rating": 4.0, "review_count": 280, "zip_code": "11201", "cuisineType": "japanese", "insertedAtTimestamp": "2022-10-19 21:38:28.655888"}, {"businessID": "BWkS32tuCsRi8pB2UnF8Xg", "name": "Akura Sushi", "address": "39 E 31st St, New York, NY 10016", "coordinates": "40.7456665039062,-73.9833145141602", "rating": 3.5, "review_count": 124, "zip_code": "10016", "cuisineType": "japanese", "insertedAtTimestamp": "2022-10-19 21:38:28.906601"}, {"businessID": "aZzq3M2xwbNHNSQe2AbAOA", "name": "Suma Sushi", "address": "964 Amsterdam Ave, New York, NY 10025", "coordinates": "40.801498,-73.965339", "rating": 3.5, "review_count": 155, "zip_code": "10025", "cuisineType": "japanese", "insertedAtTimestamp": "2022-10-19 21:38:29.137562"}, {"businessID": "pe0kLJDb7DEWSKCbOS8D2g", "name": "Otaiko Hibachi & Sushi Lounge", "address": "125 Lefante Way, Bayonne, NJ 07002", "coordinates": "40.66791160879,-74.1027513470826", "rating": 4.0, "review_count": 229, "zip_code": "07002", "cuisineType": "japanese", "insertedAtTimestamp": "2022-10-19 21:38:29.442689"}, {"businessID": "YDcm61sM_BP_FKmFLgoPAw", "name": "Ohana", "address": "500 City Island Ave, Bronx, NY 10464", "coordinates": "40.85233,-73.78896", "rating": 3.5, "review_count": 170, "zip_code": "10464", "cuisineType": "japanese", "insertedAtTimestamp": "2022-10-19 21:38:29.658640"}, {"businessID": "SUHJfh7H2NiQx8c5OWoAyQ", "name": "Sushi Yashin", "address": "381 5th Ave, Brooklyn, NY 11215", "coordinates": "40.6708328473989,-73.9847132950057", "rating": 4.0, "review_count": 236, "zip_code": "11215", "cuisineType": "japanese", "insertedAtTimestamp": "2022-10-19 21:38:29.898749"}, {"businessID": "sCdHhISHDQ34_j4Z3u8MWw", "name": "Izumi", "address": "Cape Liberty Cruise Port, Port Terminal Blvd, Bayonne, NJ 07002", "coordinates": "40.6649886303608,-74.0716842305637", "rating": 4.0, "review_count": 7, "zip_code": "07002", "cuisineType": "japanese", "insertedAtTimestamp": "2022-10-19 21:38:30.091144"}, {"businessID": "e3JALGueMcc2eLXRK8HPNQ", "name": "Ki Sushi", "address": "282 Flatbush Ave, Brooklyn, NY 11217", "coordinates": "40.6784417729132,-73.9734394269355", "rating": 4.5, "review_count": 236, "zip_code": "11217", "cuisineType": "japanese", "insertedAtTimestamp": "2022-10-19 21:38:30.330108"}, {"businessID": "11VeHNc-R3PiLxQKK3_mig", "name": "& Sons", "address": "447 Rogers Ave, Prospect Lefferts Gardens, Brooklyn, NY 11225", "coordinates": "40.66161,-73.95348", "rating": 4.5, "review_count": 24, "zip_code": "11225", "cuisineType": "japanese", "insertedAtTimestamp": "2022-10-19 21:38:30.627239"}, {"businessID": "3bPnaLgZwcniU8oqi6UFDQ", "name": "Makana Hawaiian BBQ & Poke", "address": "1502 Amsterdam Ave, New York, NY 10031", "coordinates": "40.81843,-73.95282", "rating": 3.5, "review_count": 40, "zip_code": "10031", "cuisineType": "japanese", "insertedAtTimestamp": "2022-10-19 21:38:30.827422"}, {"businessID": "g9IFea9brBr8j8awcdOBOw", "name": "Chopped Parsley", "address": "500 W 146th St, New York, NY 10031", "coordinates": "40.82593,-73.94742", "rating": 4.5, "review_count": 131, "zip_code": "10031", "cuisineType": "japanese", "insertedAtTimestamp": "2022-10-19 21:38:31.047058"}, {"businessID": "GXNIS_0MaWoVHmABQfQvKw", "name": "Zutto Ramen Sushi Bar", "address": "384 Broome St, New York, NY 10013", "coordinates": "40.72216387113858,-74.00060262235758", "rating": 4.5, "review_count": 45, "zip_code": "10013", "cuisineType": "japanese", "insertedAtTimestamp": "2022-10-19 21:38:31.268560"}, {"businessID": "xr-c9SLpXtAXxoCk7FsCuQ", "name": "Tomo Sushi", "address": "63 W 14th St, New York, NY 10011", "coordinates": "40.73734,-73.9964", "rating": 2.5, "review_count": 3, "zip_code": "10011", "cuisineType": "japanese", "insertedAtTimestamp": "2022-10-19 21:38:31.452877"}, {"businessID": "cPB6Nvsxwwxj6s3ekOI_EA", "name": "El Quijote", "address": "226 W 23rd St, New York, NY 10011", "coordinates": "40.744627055604404,-73.99711819282327", "rating": 3.5, "review_count": 452, "zip_code": "10011", "cuisineType": "japanese", "insertedAtTimestamp": "2022-10-19 21:38:31.685153"}, {"businessID": "T_72OxeFKvdzX-mKEztHdQ", "name": "Flame", "address": "5740 Broadway, Unit 5, Bronx, NY 10463", "coordinates": "40.882742,-73.901366", "rating": 4.0, "review_count": 161, "zip_code": "10463", "cuisineType": "japanese", "insertedAtTimestamp": "2022-10-19 21:38:31.955250"}, {"businessID": "wUKR0A14ZwXfHDLjtiaT_g", "name": "Kaya Asian Fusion Bar", "address": "334 N Main St, Lodi, NJ 07644", "coordinates": "40.884836,-74.082217", "rating": 4.5, "review_count": 145, "zip_code": "07644", "cuisineType": "japanese", "insertedAtTimestamp": "2022-10-19 21:38:32.163553"}, {"businessID": "CnkdNQw6VsWBY9g8tb2Qag", "name": "Genji Izakaya", "address": "10 Columbus Cir, Ste Sc101, Whole Foods Market, New York, NY 10019", "coordinates": "40.767879,-73.983007", "rating": 3.0, "review_count": 29, "zip_code": "10019", "cuisineType": "japanese", "insertedAtTimestamp": "2022-10-19 21:38:32.354943"}, {"businessID": "I66F8wR77s4v4pX4OUHXEw", "name": "Jungo Sushi", "address": "48-11 43rd Ave, Sunnyside, NY 11104", "coordinates": "40.74481,-73.91585", "rating": 3.5, "review_count": 62, "zip_code": "11104", "cuisineType": "japanese", "insertedAtTimestamp": "2022-10-19 21:38:32.645293"}, {"businessID": "u9xVzV1OZC5pwtUgaHLM-A", "name": "El Kallejon", "address": "209 E 117th St, New York, NY 10035", "coordinates": "40.798538,-73.938805", "rating": 4.5, "review_count": 334, "zip_code": "10035", "cuisineType": "japanese", "insertedAtTimestamp": "2022-10-19 21:38:32.845810"}, {"businessID": "ePbZr_yLV1K_wKkeedNjvw", "name": "Ichiban To-Go", "address": "365 Palisade Ave, Jersey City, NJ 07307", "coordinates": "40.741253,-74.046333", "rating": 4.5, "review_count": 80, "zip_code": "07307", "cuisineType": "japanese", "insertedAtTimestamp": "2022-10-19 21:38:34.669065"}, {"businessID": "ElFVjpPTej8ji4eIFbld6g", "name": "Haku", "address": "1047 2nd Ave, New York, NY 10022", "coordinates": "40.7582499,-73.96633", "rating": 3.5, "review_count": 45, "zip_code": "10022", "cuisineType": "japanese", "insertedAtTimestamp": "2022-10-19 21:38:34.864241"}, {"businessID": "iAEjcL9hdTZNqcdrKl6iDQ", "name": "Ramen Spot", "address": "4512 23rd St, Long Island City, NY 11101", "coordinates": "40.746581092775,-73.94558499522708", "rating": 4.5, "review_count": 27, "zip_code": "11101", "cuisineType": "japanese", "insertedAtTimestamp": "2022-10-19 21:38:35.097725"}, {"businessID": "4c2THphDR7C1f-zvJJDkgw", "name": "Mamasushi - Bronx", "address": "3478 E Tremont Ave, Bronx, NY 10465", "coordinates": "40.83146,-73.827275", "rating": 3.5, "review_count": 110, "zip_code": "10465", "cuisineType": "japanese", "insertedAtTimestamp": "2022-10-19 21:38:35.295560"}, {"businessID": "ju9xMjMszBX73gck9LFmxA", "name": "Jin Ramen", "address": "3599 Broadway, New York, NY 10031", "coordinates": "40.82833,-73.94937", "rating": 4.0, "review_count": 7, "zip_code": "10031", "cuisineType": "japanese", "insertedAtTimestamp": "2022-10-19 21:38:35.501598"}, {"businessID": "xkE0d6R30HpfdNeFhRhxGw", "name": "Omusubi Gonbei", "address": "595 River Rd, Edgewater, NJ 07020", "coordinates": "40.81601,-73.979936", "rating": 3.5, "review_count": 141, "zip_code": "07020", "cuisineType": "japanese", "insertedAtTimestamp": "2022-10-19 21:38:35.773433"}, {"businessID": "dsxkmhD8pP-ce_p4sKoZpQ", "name": "Wagyu Social", "address": "238 E 53rd St, Fl 2, New York, NY 10022", "coordinates": "40.75698,-73.968038", "rating": 3.5, "review_count": 3, "zip_code": "10022", "cuisineType": "japanese", "insertedAtTimestamp": "2022-10-19 21:38:35.965768"}, {"businessID": "nJh1ioLcN6XBQEstR6x9yw", "name": "Dai Hachi Sushi", "address": "46-18 Vernon Blvd, Long Island City, NY 11101", "coordinates": "40.74633,-73.95319", "rating": 4.5, "review_count": 253, "zip_code": "11101", "cuisineType": "japanese", "insertedAtTimestamp": "2022-10-19 21:38:36.340082"}, {"businessID": "lSJD2Gcf9LjJqpLE7pUlWQ", "name": "Russian Samovar Restaurant and Piano Bar", "address": "256 W 52nd St, New York, NY 10019", "coordinates": "40.7632,-73.98469", "rating": 4.0, "review_count": 531, "zip_code": "10019", "cuisineType": "japanese", "insertedAtTimestamp": "2022-10-19 21:38:36.561376"}, {"businessID": "pcImGKEPXj51uvo8VJXBkg", "name": "Hachi", "address": "934 3rd Ave, Brooklyn, NY 11232", "coordinates": "40.6559994124121,-74.0065395087004", "rating": 2.5, "review_count": 24, "zip_code": "11232", "cuisineType": "japanese", "insertedAtTimestamp": "2022-10-19 21:38:36.771306"}, {"businessID": "YvVghK9tWo80Mgcm9VTAcg", "name": "Sushi Kai", "address": "206 Main St, Fort Lee, NJ 07024", "coordinates": "40.85105,-73.97051", "rating": 4.0, "review_count": 64, "zip_code": "07024", "cuisineType": "japanese", "insertedAtTimestamp": "2022-10-19 21:38:36.994116"}, {"businessID": "DidyPs3Zx7MxsaN0RYpygQ", "name": "Kyuramen - Park Slope", "address": "155 5th Ave, Brooklyn, NY 11217", "coordinates": "40.67791,-73.97929", "rating": 4.5, "review_count": 89, "zip_code": "11217", "cuisineType": "japanese", "insertedAtTimestamp": "2022-10-19 21:38:37.149453"}, {"businessID": "AILf_L7I9vJ2pyHmSo9v8Q", "name": "OBAO", "address": "222 E 53rd St, New York, NY 10022", "coordinates": "40.75713,-73.96857", "rating": 3.5, "review_count": 1087, "zip_code": "10022", "cuisineType": "japanese", "insertedAtTimestamp": "2022-10-19 21:38:37.364808"}, {"businessID": "-BWRdjHW6CtMGIRLMxEVQQ", "name": "Bar Masa", "address": "10 Columbus Cir, Fl 4, New York, NY 10019", "coordinates": "40.7685591712413,-73.9830132742049", "rating": 3.5, "review_count": 204, "zip_code": "10019", "cuisineType": "japanese", "insertedAtTimestamp": "2022-10-19 21:38:37.578962"}, {"businessID": "B8Fkcus0k4IdcIwdj2vXAw", "name": "Kawa Sushi", "address": "24 8th Ave, New York, NY 10014", "coordinates": "40.73772,-74.00437", "rating": 3.5, "review_count": 98, "zip_code": "10014", "cuisineType": "japanese", "insertedAtTimestamp": "2022-10-19 21:38:37.849324"}, {"businessID": "zhkyBId_RIPyiOFE2R1PRg", "name": "Nobi Sushi", "address": "437 3rd Ave, New York, NY 10016", "coordinates": "40.743218821605325,-73.97962789807694", "rating": 3.5, "review_count": 220, "zip_code": "10016", "cuisineType": "japanese", "insertedAtTimestamp": "2022-10-19 21:38:38.029427"}, {"businessID": "5kufgNH-OuUBDPaDQIEtzw", "name": "Tokyo House", "address": "5648 Riverdale Ave, Bronx, NY 10471", "coordinates": "40.9056206,-73.9040833", "rating": 4.0, "review_count": 104, "zip_code": "10471", "cuisineType": "japanese", "insertedAtTimestamp": "2022-10-19 21:38:38.234792"}, {"businessID": "ujozQCThEuSfEXi5_6ZTPQ", "name": "Ramen Setagaya", "address": "280 Bedford Ave, Brooklyn, NY 11249", "coordinates": "40.7147999,-73.96115", "rating": 4.0, "review_count": 302, "zip_code": "11249", "cuisineType": "japanese", "insertedAtTimestamp": "2022-10-19 21:38:38.478877"}, {"businessID": "663mJ4CKQQish8_tE-GaOw", "name": "Genki Bento", "address": "294 Stuyvesant Ave, Lyndhurst, NJ 07071", "coordinates": "40.81356,-74.12661", "rating": 4.5, "review_count": 15, "zip_code": "07071", "cuisineType": "japanese", "insertedAtTimestamp": "2022-10-19 21:38:38.676198"}, {"businessID": "8txGVTQb_LGedfr5CaxW2g", "name": "Sarku Japan", "address": "30 Mall Dr W, Ste 303, Jersey City, NJ 07310", "coordinates": "40.727096,-74.038486", "rating": 3.0, "review_count": 56, "zip_code": "07310", "cuisineType": "japanese", "insertedAtTimestamp": "2022-10-19 21:38:38.928536"}, {"businessID": "HGigOaTSwYT1nK-Q6ur_Zg", "name": "Maguro Sushi", "address": "430 Rochelle Ave, Rochelle Park, NJ 07662", "coordinates": "40.90965,-74.07298", "rating": 4.0, "review_count": 118, "zip_code": "07662", "cuisineType": "japanese", "insertedAtTimestamp": "2022-10-19 21:38:39.148439"}, {"businessID": "6Uh0whZI_LgLGYATzL3S4w", "name": "Tibetan Japanese Restaurant", "address": "7526 37th Ave, Jackson Heights, NY 11372", "coordinates": "40.7489512,-73.8904819", "rating": 4.0, "review_count": 62, "zip_code": "11372", "cuisineType": "japanese", "insertedAtTimestamp": "2022-10-19 21:38:39.345484"}, {"businessID": "b1JGw9Qpo4PiV5kOhl4fIQ", "name": "East Hana JC", "address": "103 Montgomery St, Jersey city, NJ 07302", "coordinates": "40.71675572250252,-74.038962", "rating": 4.5, "review_count": 162, "zip_code": "07302", "cuisineType": "japanese", "insertedAtTimestamp": "2022-10-19 21:38:39.530604"}, {"businessID": "kCk2uqmmJBQ80iLuncNhlQ", "name": "Kiraku Sushi", "address": "1948 Williamsbridge Rd, Bronx, NY 10461", "coordinates": "40.8532877,-73.8534942", "rating": 3.5, "review_count": 92, "zip_code": "10461", "cuisineType": "japanese", "insertedAtTimestamp": "2022-10-19 21:38:40.530585"}, {"businessID": "2d-Nr8FpvoJP7qx-QiQ5Mg", "name": "Roc N Ramen", "address": "606 E 187th St, The Bronx, NY 10473", "coordinates": "40.85531,-73.88738", "rating": 4.5, "review_count": 61, "zip_code": "10473", "cuisineType": "japanese", "insertedAtTimestamp": "2022-10-19 21:38:40.747976"}, {"businessID": "-FSwYW_xV__5KHTIc56B0Q", "name": "Rice K", "address": "29-21 23rd Ave, Astoria, NY 11105", "coordinates": "40.774743,-73.913172", "rating": 3.5, "review_count": 126, "zip_code": "11105", "cuisineType": "japanese", "insertedAtTimestamp": "2022-10-19 21:38:40.978822"}, {"businessID": "shHhP5lfZwrAYFL3K04_lg", "name": "Hero Thai-Izakaya", "address": "34-16 Broadway, Astoria, NY 11106", "coordinates": "40.76038,-73.92257", "rating": 4.0, "review_count": 139, "zip_code": "11106", "cuisineType": "japanese", "insertedAtTimestamp": "2022-10-19 21:38:41.179746"}, {"businessID": "VKumFZfT7f_FVFWjbPBAhA", "name": "Hagane", "address": "161-02 Crossbay Blvd, Howard Beach, NY 11414", "coordinates": "40.65558,-73.8394", "rating": 3.5, "review_count": 156, "zip_code": "11414", "cuisineType": "japanese", "insertedAtTimestamp": "2022-10-19 21:38:41.381383"}, {"businessID": "azGPyK3p6HDmvQGX0AyDtg", "name": "ShabuRo", "address": "520 Bergen Blvd, Ste 2, Palisades Park, NJ 07650", "coordinates": "40.8480599,-73.98447", "rating": 4.5, "review_count": 568, "zip_code": "07650", "cuisineType": "japanese", "insertedAtTimestamp": "2022-10-19 21:38:41.625050"}, {"businessID": "i_q57YjbX1ZZkV4fP1KloQ", "name": "Daruma Japanese Restaurant", "address": "45 N Dean St, Englewood, NJ 07631", "coordinates": "40.89515,-73.97312", "rating": 4.0, "review_count": 124, "zip_code": "07631", "cuisineType": "japanese", "insertedAtTimestamp": "2022-10-19 21:38:41.858756"}, {"businessID": "1yqrirjDVm40roP-NcU-Ig", "name": "Komorebi Full House", "address": "6201 11th Ave, Brooklyn, NY 11219", "coordinates": "40.630169,-74.004041", "rating": 4.0, "review_count": 70, "zip_code": "11219", "cuisineType": "japanese", "insertedAtTimestamp": "2022-10-19 21:38:43.787144"}, {"businessID": "4OFUY9fen74A8UOHWD9LQA", "name": "Akai Lounge", "address": "11 N Dean St, Englewood, NJ 07631", "coordinates": "40.893970489502,-73.9738922119141", "rating": 4.0, "review_count": 171, "zip_code": "07631", "cuisineType": "japanese", "insertedAtTimestamp": "2022-10-19 21:38:43.969915"}, {"businessID": "vA2VEhW6S1ioX6tXtQdO9A", "name": "Lemon Grass Brooklyn", "address": "156 Court St, Brooklyn, NY 11201", "coordinates": "40.688684,-73.993137", "rating": 4.0, "review_count": 726, "zip_code": "11201", "cuisineType": "japanese", "insertedAtTimestamp": "2022-10-19 21:38:44.183099"}, {"businessID": "HGLH-sa-Fp3X6UXcaG7U0g", "name": "66S Fusion", "address": "130 Flushing Ave, Brooklyn, NY 11205", "coordinates": "40.6977600194066,-73.9715740687866", "rating": 4.0, "review_count": 179, "zip_code": "11205", "cuisineType": "japanese", "insertedAtTimestamp": "2022-10-19 21:38:44.426435"}, {"businessID": "WRdGhuCCStIScKhh-Abzqw", "name": "Sando Sando", "address": "500 Cortlandt St, Belleville, NJ 07109", "coordinates": "40.79769849484741,-74.1454392", "rating": 4.0, "review_count": 6, "zip_code": "07109", "cuisineType": "japanese", "insertedAtTimestamp": "2022-10-19 21:38:44.651534"}, {"businessID": "rN347NNwQ0hDSlbedzI9BQ", "name": "Kai Sushi Asian Fusion", "address": "1475 Williamsbridge Rd, Bronx, NY 10461", "coordinates": "40.84362,-73.84565", "rating": 4.0, "review_count": 294, "zip_code": "10461", "cuisineType": "japanese", "insertedAtTimestamp": "2022-10-19 21:38:44.861324"}, {"businessID": "Jknvr_-Ys6D_riZptBadsA", "name": "Sarku Japan", "address": "815 Hutchinson River Pkwy, Space B-135, Bronx, NY 10465", "coordinates": "40.8234938157168,-73.8379064003517", "rating": 4.0, "review_count": 36, "zip_code": "10465", "cuisineType": "japanese", "insertedAtTimestamp": "2022-10-19 21:38:45.076018"}, {"businessID": "at1MNbwkS1UbUAV2C95kkg", "name": "Ino Sushi", "address": "116A Market St, Clifton, NJ 07012", "coordinates": "40.8459064,-74.1629584", "rating": 4.5, "review_count": 96, "zip_code": "07012", "cuisineType": "japanese", "insertedAtTimestamp": "2022-10-19 21:38:45.276905"}, {"businessID": "je92kXXWjANmiN-dfwNapg", "name": "Sushi Dojo NYC", "address": "110 1st Ave, New York, NY 10009", "coordinates": "40.7266273498535,-73.9856719970703", "rating": 4.0, "review_count": 531, "zip_code": "10009", "cuisineType": "japanese", "insertedAtTimestamp": "2022-10-19 21:38:45.516787"}, {"businessID": "xVMaQ96ldDgnhXYurMvDyQ", "name": "Wiki Wiki", "address": "445 Albee Square W, Dekalb Market Hall, Brooklyn, NY 11201", "coordinates": "40.690726,-73.983124", "rating": 4.0, "review_count": 34, "zip_code": "11201", "cuisineType": "japanese", "insertedAtTimestamp": "2022-10-19 21:38:45.713112"}, {"businessID": "eyqVOLoOLrqZ98_QhdPXqg", "name": "Ramen Danbo", "address": "52 7th Ave, Brooklyn, NY 11217", "coordinates": "40.6761199579391,-73.9745199680328", "rating": 4.5, "review_count": 418, "zip_code": "11217", "cuisineType": "japanese", "insertedAtTimestamp": "2022-10-19 21:38:45.932428"}, {"businessID": "OMw-E4_y1BHv4EgWdtFleg", "name": "Pokeworks", "address": "330 West 34th St, New York, NY 10001", "coordinates": "40.75258,-73.99551", "rating": 4.5, "review_count": 26, "zip_code": "10001", "cuisineType": "japanese", "insertedAtTimestamp": "2022-10-19 21:38:46.165839"}, {"businessID": "OoX5o5eY2JOBtZpEmSgSmw", "name": "Kuro Obi - Essex Crossing", "address": "115 Delancey St, New York, NY 10002", "coordinates": "40.7182566,-73.9881462", "rating": 3.5, "review_count": 11, "zip_code": "10002", "cuisineType": "japanese", "insertedAtTimestamp": "2022-10-19 21:38:46.458126"}, {"businessID": "XAltgdIxnXF3iaNgWhb5ZA", "name": "Hawksmoor", "address": "109 E 22nd St, New York, NY 10010", "coordinates": "40.73977538644137,-73.986388401965", "rating": 4.0, "review_count": 158, "zip_code": "10010", "cuisineType": "japanese", "insertedAtTimestamp": "2022-10-19 21:38:46.674232"}, {"businessID": "x1vyHnuyuRoJRRLzRb7Nog", "name": "Northern Sushi & Sashimi", "address": "15314 Northern Blvd, Flushing, NY 11354", "coordinates": "40.7645739630046,-73.8113314625656", "rating": 4.5, "review_count": 154, "zip_code": "11354", "cuisineType": "japanese", "insertedAtTimestamp": "2022-10-19 21:38:46.885194"}, {"businessID": "qf3H--hFVPt5GPpHpMoX6Q", "name": "Finest Sushi", "address": "41-02 Greenpoint Ave, Sunnyside, NY 11104", "coordinates": "40.739953948832614,-73.92382152378559", "rating": 4.0, "review_count": 19, "zip_code": "11104", "cuisineType": "japanese", "insertedAtTimestamp": "2022-10-19 21:38:47.079808"}, {"businessID": "bfg1MmcnH6DO1dgF_tLxkA", "name": "Yeung II Sushi Asian Cuisine", "address": "1120 Washington St, Hoboken, NJ 07030", "coordinates": "40.75079,-74.02716", "rating": 3.5, "review_count": 209, "zip_code": "07030", "cuisineType": "japanese", "insertedAtTimestamp": "2022-10-19 21:38:47.277357"}, {"businessID": "tFFLetrWW6-7KW74eryspQ", "name": "Mama Sushi", "address": "3569 Broadway, New York, NY 10031", "coordinates": "40.82733,-73.95013", "rating": 3.5, "review_count": 445, "zip_code": "10031", "cuisineType": "japanese", "insertedAtTimestamp": "2022-10-19 21:38:47.477495"}, {"businessID": "M6XwmGAtSDG5lhllxyjFdw", "name": "Raku Raku", "address": "300 E 89th St, New York, NY 10128", "coordinates": "40.7796,-73.95008", "rating": 3.0, "review_count": 5, "zip_code": "10128", "cuisineType": "japanese", "insertedAtTimestamp": "2022-10-19 21:38:47.673518"}, {"businessID": "XEugUtbw4rRmGr9S1XA-aQ", "name": "Alta", "address": "64 W 10th St, New York, NY 10011", "coordinates": "40.7345163811398,-73.9983369619683", "rating": 4.0, "review_count": 1990, "zip_code": "10011", "cuisineType": "japanese", "insertedAtTimestamp": "2022-10-19 21:38:48.129576"}, {"businessID": "xAj_hmr23inQT9C7vkyvpQ", "name": "Banzai Sushi", "address": "671 Market St, Newark, NJ 07105", "coordinates": "40.7304550423251,-74.1480567146555", "rating": 3.5, "review_count": 62, "zip_code": "07105", "cuisineType": "japanese", "insertedAtTimestamp": "2022-10-19 21:38:48.333699"}, {"businessID": "X-vEU9DNFO4c_jvFnq9ZjA", "name": "Krispy Rice", "address": "398 10th Ave G, New York, NY 10001", "coordinates": "40.7536552,-73.9996342", "rating": 2.0, "review_count": 21, "zip_code": "10001", "cuisineType": "japanese", "insertedAtTimestamp": "2022-10-19 21:38:48.551293"}, {"businessID": "W0_Rdy8PlbAvS9K9ggkBfA", "name": "Wasabi Sushi & Bento", "address": "200 Broadway, Fulton Street Station, New York, NY 10038", "coordinates": "40.7104944709691,-74.0087553486228", "rating": 4.0, "review_count": 130, "zip_code": "10038", "cuisineType": "japanese", "insertedAtTimestamp": "2022-10-19 21:38:48.774176"}, {"businessID": "o0G_zp_XgP6Pr-WY4LLHLQ", "name": "Omen Azen", "address": "113 Thompson St, New York, NY 10012", "coordinates": "40.726,-74.00196", "rating": 3.5, "review_count": 111, "zip_code": "10012", "cuisineType": "japanese", "insertedAtTimestamp": "2022-10-19 21:38:48.987617"}, {"businessID": "xEe8HIT4L86rlOXgGTwpDw", "name": "Kiseki Japanese Restaurant", "address": "36 Mt Vernon St, Ridgefield Park, NJ 07660", "coordinates": "40.85708509825284,-74.0264708521482", "rating": 4.0, "review_count": 205, "zip_code": "07660", "cuisineType": "japanese", "insertedAtTimestamp": "2022-10-19 21:38:49.220213"}, {"businessID": "jsJdz6pvyYZjtut9vkUwBw", "name": "Yaya Tea Grand", "address": "206 Grand St, New York, NY 10013", "coordinates": "40.7192268371582,-73.9962768554688", "rating": 4.0, "review_count": 307, "zip_code": "10013", "cuisineType": "japanese", "insertedAtTimestamp": "2022-10-19 21:38:49.447207"}, {"businessID": "XfHgiIsoo1Pr_v04bx9ptg", "name": "Sushumai Asian Fusion", "address": "112 Stanton St, New York, NY 10002", "coordinates": "40.7211610690848,-73.9872866123915", "rating": 4.5, "review_count": 232, "zip_code": "10002", "cuisineType": "japanese", "insertedAtTimestamp": "2022-10-19 21:38:49.670197"}, {"businessID": "qU3ejLMndurKQTkM01gutg", "name": "Zuma", "address": "261 Madison Ave, New York, NY 10016", "coordinates": "40.750483,-73.980642", "rating": 3.5, "review_count": 746, "zip_code": "10016", "cuisineType": "japanese", "insertedAtTimestamp": "2022-10-19 21:38:49.956633"}, {"businessID": "D9nQb14gqhCAOaUUvJz3-Q", "name": "Reserve Cut", "address": "40 Broad St, Fl 2, New York, NY 10004", "coordinates": "40.706043,-74.011776", "rating": 4.0, "review_count": 312, "zip_code": "10004", "cuisineType": "japanese", "insertedAtTimestamp": "2022-10-19 21:38:50.186342"}, {"businessID": "nrJtX2BcYW1e1zdokH_aGg", "name": "Mottsu", "address": "285 Mott St, New York, NY 10012", "coordinates": "40.72427,-73.99448", "rating": 3.5, "review_count": 160, "zip_code": "10012", "cuisineType": "japanese", "insertedAtTimestamp": "2022-10-19 21:38:50.383048"}, {"businessID": "gPn_MadQRUNClx67z-tQ5g", "name": "Kuro-Obi at UrbanSpace 570 Lex", "address": "570 Lexington Ave, General Electric Building, New York, NY 10022", "coordinates": "40.75686,-73.97228", "rating": 3.5, "review_count": 27, "zip_code": "10022", "cuisineType": "japanese", "insertedAtTimestamp": "2022-10-19 21:38:50.617933"}, {"businessID": "YUupWsGbZx-bGea9fdmW4w", "name": "Ko Sushi", "address": "1329 2nd Ave, New York, NY 10021", "coordinates": "40.767795,-73.959442", "rating": 3.5, "review_count": 363, "zip_code": "10021", "cuisineType": "japanese", "insertedAtTimestamp": "2022-10-19 21:38:50.878213"}, {"businessID": "FJIa0eSaMIcAMba1hVYV3A", "name": "Sushi Star", "address": "462 9th Ave, New York, NY 10018", "coordinates": "40.75444,-73.99532", "rating": 3.5, "review_count": 111, "zip_code": "10018", "cuisineType": "japanese", "insertedAtTimestamp": "2022-10-19 21:38:51.104229"}, {"businessID": "5qF6oqYOeivUbsVf1MsQAA", "name": "Aoyu Sushi", "address": "3532 A Johnson Ave, Bronx, NY 10463", "coordinates": "40.8860150724649,-73.9098029583693", "rating": 4.5, "review_count": 279, "zip_code": "10463", "cuisineType": "japanese", "insertedAtTimestamp": "2022-10-19 21:38:51.299923"}, {"businessID": "JZ9qAuZKO6EtUFwD5GvH8A", "name": "Tokyo Drumstick", "address": "New York, NY 10007", "coordinates": "40.71394198484709,-74.00762457552258", "rating": 3.0, "review_count": 1, "zip_code": "10007", "cuisineType": "japanese", "insertedAtTimestamp": "2022-10-19 21:38:51.507393"}]