[{"businessID": "qY1o1MhoRyN84RRhUJtvpQ", "name": "Her Name Is Han", "address": "17 E 31st St, New York, NY 10016", "coordinates": "40.7462615966797,-73.984733581543", "rating": 4.5, "review_count": 1607, "zip_code": "10016", "cuisineType": "korean", "insertedAtTimestamp": "2022-10-19 21:29:31.460320"}, {"businessID": "VvsZAnEwU4c8Xkyrzx05Nw", "name": "Anytime Kitchen ", "address": "23 W 32nd St, Fl 3, New York, NY 10001", "coordinates": "40.74776270790539,-73.9867793576711", "rating": 4.5, "review_count": 2360, "zip_code": "10001", "cuisineType": "korean", "insertedAtTimestamp": "2022-10-19 21:29:31.705253"}, {"businessID": "lSQAmoQtmciUld36ogOoOw", "name": "Cho Dang Gol Korean Restaurant", "address": "55 W 35th St, New York, NY 10001", "coordinates": "40.7502365112305,-73.986198425293", "rating": 4.0, "review_count": 1327, "zip_code": "10001", "cuisineType": "korean", "insertedAtTimestamp": "2022-10-19 21:29:31.918817"}, {"businessID": "_jVOqHgcLxAOyA6uJE5Llg", "name": "KOBA Korean BBQ", "address": "918 3rd Ave, New York, NY 10022", "coordinates": "40.7593004088879,-73.9685673", "rating": 5.0, "review_count": 42, "zip_code": "10022", "cuisineType": "korean", "insertedAtTimestamp": "2022-10-19 21:29:32.104663"}, {"businessID": "fNKYBpQJivICm0ORb3nb_Q", "name": "8282", "address": "84 Stanton St, New York, NY 10002", "coordinates": "40.72161,-73.98875", "rating": 4.5, "review_count": 103, "zip_code": "10002", "cuisineType": "korean", "insertedAtTimestamp": "2022-10-19 21:29:32.338694"}, {"businessID": "FZpm4_fbd6P984foOUejWg", "name": "Jongro BBQ", "address": "22 W 32nd St, Fl 2, New York, NY 10001", "coordinates": "40.747514,-73.986884", "rating": 4.0, "review_count": 2363, "zip_code": "10001", "cuisineType": "korean", "insertedAtTimestamp": "2022-10-19 21:29:32.569775"}, {"businessID": "ogCC-lJJYnwXDvKGmKZ6Sw", "name": "Woorijip", "address": "12 W 32nd St, New York, NY 10001", "coordinates": "40.74747,-73.98648", "rating": 4.0, "review_count": 2792, "zip_code": "10001", "cuisineType": "korean", "insertedAtTimestamp": "2022-10-19 21:29:32.773159"}, {"businessID": "orYWYTk6kNK1YODsADk_tg", "name": "The Jin", "address": "856 10th Ave, New York, NY 10019", "coordinates": "40.768541,-73.988734", "rating": 4.5, "review_count": 450, "zip_code": "10019", "cuisineType": "korean", "insertedAtTimestamp": "2022-10-19 21:29:32.941443"}, {"businessID": "gXnC_aZR09BvqEQKGKFjBg", "name": "BCD Tofu House", "address": "5W 32nd St, New York, NY 10001", "coordinates": "40.747509,-73.986079", "rating": 4.0, "review_count": 2304, "zip_code": "10001", "cuisineType": "korean", "insertedAtTimestamp": "2022-10-19 21:29:33.177289"}, {"businessID": "EKkHfSYTm266-ZBve3SdgA", "name": "Yoon Haeundae Galbi", "address": "8 W 36th St, New York, NY 10018", "coordinates": "40.74996750318778,-73.98443095513923", "rating": 4.5, "review_count": 645, "zip_code": "10018", "cuisineType": "korean", "insertedAtTimestamp": "2022-10-19 21:29:33.624783"}, {"businessID": "fVsH6QIJPzXpVbgmeiolsA", "name": "Jungsik", "address": "2 Harrison St, New York, NY 10013", "coordinates": "40.7188032533572,-74.0090829725856", "rating": 4.5, "review_count": 714, "zip_code": "10013", "cuisineType": "korean", "insertedAtTimestamp": "2022-10-19 21:29:33.947174"}, {"businessID": "_saXnBy0Wq2Gb3YusWZhqw", "name": "Five Senses", "address": "9 W 32nd St, New York, NY 10001", "coordinates": "40.747573158626,-73.9863122632311", "rating": 4.0, "review_count": 1625, "zip_code": "10001", "cuisineType": "korean", "insertedAtTimestamp": "2022-10-19 21:29:34.148732"}, {"businessID": "ggIzrvCArIHWIBIGJlzUPQ", "name": "Seoul St Midtown", "address": "1521 L St, Sacramento, CA 95814", "coordinates": "38.57640638207569,-121.4864538315563", "rating": 4.5, "review_count": 45, "zip_code": "95814", "cuisineType": "korean", "insertedAtTimestamp": "2022-10-19 21:29:34.397372"}, {"businessID": "IjQ2yGUKkvP0JIldT9vRFQ", "name": "Take31", "address": "15 E 31st St, New York, NY 10016", "coordinates": "40.7463,-73.984809", "rating": 4.0, "review_count": 782, "zip_code": "10016", "cuisineType": "korean", "insertedAtTimestamp": "2022-10-19 21:29:34.610189"}, {"businessID": "wfGFM8zvdw9Zs-jxsTdjww", "name": "Soju Haus", "address": "315 5th Ave, Fl 2, New York, NY 10016", "coordinates": "40.7468603,-73.9851724", "rating": 4.0, "review_count": 636, "zip_code": "10016", "cuisineType": "korean", "insertedAtTimestamp": "2022-10-19 21:29:34.895959"}, {"businessID": "md5mjDamLsh1uxHDU9PfGA", "name": "Mr Mista Oh", "address": "41 W 24th St, New York, NY 10010", "coordinates": "40.74324,-73.99123", "rating": 4.5, "review_count": 145, "zip_code": "10010", "cuisineType": "korean", "insertedAtTimestamp": "2022-10-19 21:29:35.105256"}, {"businessID": "X8yEmEDD9ZTkHoIRFqzcRw", "name": "Osamil", "address": "5 West 31st St, New York, NY 10001", "coordinates": "40.74697,-73.9864", "rating": 4.5, "review_count": 574, "zip_code": "10001", "cuisineType": "korean", "insertedAtTimestamp": "2022-10-19 21:29:35.328093"}, {"businessID": "KiXm1maUAxSKhBG4KKiKlA", "name": "PALPAL", "address": "128 Madison Ave, New York, NY 10016", "coordinates": "40.74568,-73.98466", "rating": 4.0, "review_count": 67, "zip_code": "10016", "cuisineType": "korean", "insertedAtTimestamp": "2022-10-19 21:29:35.539239"}, {"businessID": "fX_E2J6LqK6u77zNa8xyJQ", "name": "JUA", "address": "36 E 22nd St, New York, NY 10010", "coordinates": "40.739694,-73.987832", "rating": 5.0, "review_count": 224, "zip_code": "10010", "cuisineType": "korean", "insertedAtTimestamp": "2022-10-19 21:29:35.751540"}, {"businessID": "e5wK3I_THzF4Ce_OgoSCQw", "name": "Mokyo", "address": "109 St Marks Pl, New York, NY 10009", "coordinates": "40.72714401116084,-73.98395721296154", "rating": 4.5, "review_count": 262, "zip_code": "10009", "cuisineType": "korean", "insertedAtTimestamp": "2022-10-19 21:29:35.999477"}, {"businessID": "fMf4P22m65creknIICuaXA", "name": "Kuun", "address": "290 Livingston St, Brooklyn, NY 11217", "coordinates": "40.6884292,-73.9831506", "rating": 4.5, "review_count": 179, "zip_code": "11217", "cuisineType": "korean", "insertedAtTimestamp": "2022-10-19 21:29:36.252673"}, {"businessID": "An1_BlhLJDZomxI91SBv7g", "name": "Oiji Mi", "address": "17 W 19th St, New York, NY 10011", "coordinates": "40.73966,-73.99247", "rating": 4.5, "review_count": 45, "zip_code": "10011", "cuisineType": "korean", "insertedAtTimestamp": "2022-10-19 21:29:36.463885"}, {"businessID": "FizBsTIAJwNrImIG1mPDcg", "name": "Barn Joo", "address": "35 Union Sq W, New York, NY 10003", "coordinates": "40.73684,-73.99069", "rating": 4.0, "review_count": 1811, "zip_code": "10003", "cuisineType": "korean", "insertedAtTimestamp": "2022-10-19 21:29:36.716578"}, {"businessID": "vWoT1h8E2eWvIdJqpuxfdg", "name": "Tofu Tofu", "address": "96 Bowery, New York, NY 10013", "coordinates": "40.7176299520983,-73.9954301342368", "rating": 4.5, "review_count": 454, "zip_code": "10013", "cuisineType": "korean", "insertedAtTimestamp": "2022-10-19 21:29:36.922419"}, {"businessID": "pZWhRtCJvTuwWoavaiCQrA", "name": "C as in Charlie", "address": "5 Bleecker St, New York, NY 10012", "coordinates": "40.72545,-73.99269", "rating": 5.0, "review_count": 31, "zip_code": "10012", "cuisineType": "korean", "insertedAtTimestamp": "2022-10-19 21:29:37.133321"}, {"businessID": "psqD5se4A0sv9Zn3PyUlcg", "name": "K-Bap", "address": "62 W 56th St, New York, NY 10019", "coordinates": "40.76332,-73.97717", "rating": 4.0, "review_count": 474, "zip_code": "10019", "cuisineType": "korean", "insertedAtTimestamp": "2022-10-19 21:29:37.317669"}, {"businessID": "x9ADy3a--S_6Oqn_1KLipA", "name": "Kang Ho Dong Baekjeong", "address": "1 E 32nd St, New York, NY 10016", "coordinates": "40.747173576622,-73.9852144232788", "rating": 4.0, "review_count": 1477, "zip_code": "10016", "cuisineType": "korean", "insertedAtTimestamp": "2022-10-19 21:29:37.544406"}, {"businessID": "u6xe3S_1FbrIh9_WnFDtLw", "name": "KPOT Korean BBQ & Hot Pot", "address": "430 Albee Square W, Brooklyn, NY 11201", "coordinates": "40.69088,-73.98378", "rating": 4.5, "review_count": 118, "zip_code": "11201", "cuisineType": "korean", "insertedAtTimestamp": "2022-10-19 21:29:37.765670"}, {"businessID": "AisyrYJQElOkEAm-971IQw", "name": "Ninano", "address": "61 Grove St, New York, NY 10014", "coordinates": "40.7332487091676,-74.0033234", "rating": 4.5, "review_count": 15, "zip_code": "10014", "cuisineType": "korean", "insertedAtTimestamp": "2022-10-19 21:29:37.974978"}, {"businessID": "LSTcQPMmoSdd68zur-aNdw", "name": "Itaewon Pocha", "address": "28 W 32nd St, Fl 2, New York, NY 10001", "coordinates": "40.7475125111924,-73.9867554408843", "rating": 4.0, "review_count": 222, "zip_code": "10001", "cuisineType": "korean", "insertedAtTimestamp": "2022-10-19 21:29:38.343784"}, {"businessID": "WUc3CA6S8OjH3kiqv3eFOA", "name": "Sobak", "address": "51B Canal St, New York, NY 10002", "coordinates": "40.71497047687499,-73.99158544320115", "rating": 5.0, "review_count": 12, "zip_code": "10002", "cuisineType": "korean", "insertedAtTimestamp": "2022-10-19 21:29:38.537060"}, {"businessID": "igcUHNvsKc-s-RtvUmkg2w", "name": "K'OOK", "address": "324 E 6th St, New York, NY 10003", "coordinates": "40.72682,-73.98738", "rating": 4.0, "review_count": 485, "zip_code": "10003", "cuisineType": "korean", "insertedAtTimestamp": "2022-10-19 21:29:38.726101"}, {"businessID": "NbKATjp2MoQ4TvKKwu9fdA", "name": "Mari", "address": "679 9th Ave, New York, NY 10036", "coordinates": "40.76152,-73.99061", "rating": 4.0, "review_count": 93, "zip_code": "10036", "cuisineType": "korean", "insertedAtTimestamp": "2022-10-19 21:29:38.959008"}, {"businessID": "pcb8yK9_28uWz5CyokjwSg", "name": "Bangia", "address": "11 E 32nd St, Lower Lever, New York, NY 10016", "coordinates": "40.746854,-73.9845201", "rating": 4.0, "review_count": 487, "zip_code": "10016", "cuisineType": "korean", "insertedAtTimestamp": "2022-10-19 21:29:39.200007"}, {"businessID": "hhlgJMDn7xkhgiWD4P1pEA", "name": "Hong Chun Cheon", "address": "2 W 32nd St, Fl 2, New York, NY 10001", "coordinates": "40.747204,-73.986172", "rating": 4.0, "review_count": 298, "zip_code": "10001", "cuisineType": "korean", "insertedAtTimestamp": "2022-10-19 21:29:39.448677"}, {"businessID": "xQag1K9NezcXdXXn2AZcqA", "name": "KJUN", "address": "154 E 39th St, New York, NY 10016", "coordinates": "40.74897,-73.97633", "rating": 4.5, "review_count": 42, "zip_code": "10016", "cuisineType": "korean", "insertedAtTimestamp": "2022-10-19 21:29:39.639009"}, {"businessID": "z28cRtpdfiJfzIp1vkMAwQ", "name": "Koko Wings - New York", "address": "248 W 106th St, New York, NY 10025", "coordinates": "40.80096,-73.96734", "rating": 4.0, "review_count": 390, "zip_code": "10025", "cuisineType": "korean", "insertedAtTimestamp": "2022-10-19 21:29:39.930099"}, {"businessID": "c06A8F4Z3hP5tJ2VetxCjA", "name": "Hahm Ji Bach", "address": "40-11 149th Pl, Flushing, NY 11354", "coordinates": "40.763106,-73.814917", "rating": 4.0, "review_count": 1270, "zip_code": "11354", "cuisineType": "korean", "insertedAtTimestamp": "2022-10-19 21:29:40.095255"}, {"businessID": "SLfVjeW6AauL6zaYjsCOTQ", "name": "Barn Joo Nomad", "address": "816 6th Ave, New York, NY 10001", "coordinates": "40.74604,-73.99022", "rating": 4.5, "review_count": 105, "zip_code": "10001", "cuisineType": "korean", "insertedAtTimestamp": "2022-10-19 21:29:40.301567"}, {"businessID": "xe9qWNyYmsRvNGRPgW-ZcA", "name": "Dons Bogam BBQ & Wine Bar", "address": "17 E 32nd St, New York, NY 10016", "coordinates": "40.746826,-73.98448", "rating": 4.0, "review_count": 1084, "zip_code": "10016", "cuisineType": "korean", "insertedAtTimestamp": "2022-10-19 21:29:40.514421"}, {"businessID": "0GN6l4FAknTFSWZhEan45A", "name": "GunBae Tribeca", "address": "67 Murray St, New York, NY 10007", "coordinates": "40.714683,-74.010223", "rating": 4.0, "review_count": 362, "zip_code": "10007", "cuisineType": "korean", "insertedAtTimestamp": "2022-10-19 21:29:40.686078"}, {"businessID": "KEBKGGGkDhnuYdKrjzZblw", "name": "Antoya Korean BBQ", "address": "37 W 32nd St, New York, NY 10001", "coordinates": "40.74811,-73.9872", "rating": 4.5, "review_count": 911, "zip_code": "10001", "cuisineType": "korean", "insertedAtTimestamp": "2022-10-19 21:29:40.943549"}, {"businessID": "2Bg8Jfl2FvH1unmvxNS0dQ", "name": "Sik Gaek", "address": "49-11 Roosevelt Ave, Woodside, NY 11377", "coordinates": "40.743485,-73.9148356", "rating": 4.0, "review_count": 599, "zip_code": "11377", "cuisineType": "korean", "insertedAtTimestamp": "2022-10-19 21:29:41.866369"}, {"businessID": "ajv_2ROIvyGJ69c9RxV5VQ", "name": "Sa Rit Gol", "address": "166 Main St, Fort Lee, NJ 07024", "coordinates": "40.8505748160743,-73.9687949386285", "rating": 4.5, "review_count": 263, "zip_code": "07024", "cuisineType": "korean", "insertedAtTimestamp": "2022-10-19 21:29:42.081959"}, {"businessID": "jjDsVuD7KbxnYV4jFnyftA", "name": "LOVE Korean BBQ", "address": "319 5th Ave, New York, NY 10016", "coordinates": "40.747118,-73.985056", "rating": 4.5, "review_count": 586, "zip_code": "10016", "cuisineType": "korean", "insertedAtTimestamp": "2022-10-19 21:29:42.263062"}, {"businessID": "0U9uW93o9DUnAP7r-76LVg", "name": "Haenyeo", "address": "239 5th Ave, Brooklyn, NY 11215", "coordinates": "40.67519,-73.98116", "rating": 4.0, "review_count": 210, "zip_code": "11215", "cuisineType": "korean", "insertedAtTimestamp": "2022-10-19 21:29:42.467940"}, {"businessID": "aZ_a78wVWnQnV6BdMwcFVA", "name": "YUBU", "address": "86 E 7th St, New York, NY 10003", "coordinates": "40.72702,-73.98608", "rating": 4.5, "review_count": 243, "zip_code": "10003", "cuisineType": "korean", "insertedAtTimestamp": "2022-10-19 21:29:42.634271"}, {"businessID": "xSY8MI449l9HvKJKBSlVHA", "name": "Korean Express", "address": "807 Lexington Ave, New York, NY 10065", "coordinates": "40.76423,-73.96654", "rating": 3.5, "review_count": 329, "zip_code": "10065", "cuisineType": "korean", "insertedAtTimestamp": "2022-10-19 21:29:42.852546"}, {"businessID": "2C1hZNqiWWfQJAIvS9rvDQ", "name": "Ms Yoo", "address": "163 Allen St, New York, NY 10002", "coordinates": "40.72121,-73.98978", "rating": 4.0, "review_count": 146, "zip_code": "10002", "cuisineType": "korean", "insertedAtTimestamp": "2022-10-19 21:29:43.056453"}, {"businessID": "_vQugjzPLr-4udYpiISieA", "name": "Gopchang Story BBQ", "address": "312 5th Ave, Fl 2, New York, NY 10001", "coordinates": "40.74701,-73.98583", "rating": 4.0, "review_count": 517, "zip_code": "10001", "cuisineType": "korean", "insertedAtTimestamp": "2022-10-19 21:29:43.294840"}, {"businessID": "B3DBcIoTdvyfgH_Vs0jRiQ", "name": "ChickQueen", "address": "1405 2nd Ave, New York, NY 10021", "coordinates": "40.76980896140757,-73.95809139045866", "rating": 4.5, "review_count": 16, "zip_code": "10021", "cuisineType": "korean", "insertedAtTimestamp": "2022-10-19 21:29:43.492141"}, {"businessID": "J0V2C6wAkHMLD9j7I50_ZQ", "name": "SGD Dubu So Gong Dong Tofu & BBQ", "address": "725 River Rd, Unit 45, Edgewater, NJ 07020", "coordinates": "40.8187806209541,-73.9768947349182", "rating": 3.5, "review_count": 206, "zip_code": "07020", "cuisineType": "korean", "insertedAtTimestamp": "2022-10-19 21:29:43.694891"}, {"businessID": "xTwzk3lh7tE2GFiVQop1kg", "name": "Nubiani", "address": "315 5th Ave, 3FL, New York, NY 10016", "coordinates": "40.74699,-73.9854", "rating": 4.5, "review_count": 42, "zip_code": "10016", "cuisineType": "korean", "insertedAtTimestamp": "2022-10-19 21:29:43.898613"}, {"businessID": "_7jEITBmNIMD73_ni89MaQ", "name": "KPOT Korean BBQ & Hot Pot", "address": "414 Grand St, Jersey City, NJ 07302", "coordinates": "40.71834,-74.0529", "rating": 4.0, "review_count": 256, "zip_code": "07302", "cuisineType": "korean", "insertedAtTimestamp": "2022-10-19 21:29:44.109549"}, {"businessID": "quTCBKTDcP2MWRM8jqiAQg", "name": "Genesis House", "address": "40A 10th Ave, New York, NY 10014", "coordinates": "40.74149,-74.00846", "rating": 4.0, "review_count": 68, "zip_code": "10014", "cuisineType": "korean", "insertedAtTimestamp": "2022-10-19 21:29:44.358893"}, {"businessID": "ErAwY8BKZA-ETUzQyBNpQQ", "name": "Boka", "address": "410 Amsterdam Ave, New York, NY 10024", "coordinates": "40.783665,-73.978315", "rating": 3.5, "review_count": 10, "zip_code": "10024", "cuisineType": "korean", "insertedAtTimestamp": "2022-10-19 21:29:44.529824"}, {"businessID": "-oj8yGjD32mIKQEOou-cKQ", "name": "New York Kimchi", "address": "16 W 48th St, New York, NY 10036", "coordinates": "40.75762940000175,-73.9792127116464", "rating": 3.5, "review_count": 295, "zip_code": "10036", "cuisineType": "korean", "insertedAtTimestamp": "2022-10-19 21:29:44.730931"}, {"businessID": "HUKn7SlSjYtemmPiGLnD2w", "name": "Rice Kitchen", "address": "204 Spring St, New York, NY 10012", "coordinates": "40.725166,-74.003712", "rating": 5.0, "review_count": 140, "zip_code": "10012", "cuisineType": "korean", "insertedAtTimestamp": "2022-10-19 21:29:44.914303"}, {"businessID": "Jx3xWeqYnyWOIhSlAlggTA", "name": "Yakiniku Toraji", "address": "217 E 43rd St, Ste 1f, New York, NY 10017", "coordinates": "40.75105,-73.97278", "rating": 4.5, "review_count": 28, "zip_code": "10017", "cuisineType": "korean", "insertedAtTimestamp": "2022-10-19 21:29:45.095169"}, {"businessID": "28CNHYULci66pJAz-0_pOg", "name": "COTE Korean Steakhouse", "address": "16 W 22nd St, New York, NY 10010", "coordinates": "40.741046,-73.991421", "rating": 4.0, "review_count": 1444, "zip_code": "10010", "cuisineType": "korean", "insertedAtTimestamp": "2022-10-19 21:29:45.314898"}, {"businessID": "cxIJaqV9NaKC48t9V7IGng", "name": "SGD Dubu So Gong Dong Tofu & BBQ", "address": "350 3rd Ave, New York, NY 10010", "coordinates": "40.74065,-73.98204", "rating": 4.0, "review_count": 14, "zip_code": "10010", "cuisineType": "korean", "insertedAtTimestamp": "2022-10-19 21:29:45.514131"}, {"businessID": "GDHm-QyjlGEC_gg6pV7mZg", "name": "Bulbap Grill", "address": "31 Wyckoff Ave, Brooklyn, NY 11237", "coordinates": "40.706499,-73.922293", "rating": 4.5, "review_count": 37, "zip_code": "11237", "cuisineType": "korean", "insertedAtTimestamp": "2022-10-19 21:29:45.711394"}, {"businessID": "NsACuDqm5AVPpUocvuXONg", "name": "Atomix", "address": "104 E 30th St, New York, NY 10016", "coordinates": "40.74421,-73.98286", "rating": 4.5, "review_count": 117, "zip_code": "10016", "cuisineType": "korean", "insertedAtTimestamp": "2022-10-19 21:29:45.911663"}, {"businessID": "tXKdwUYOm4PpUuFh9Iwc6g", "name": "To Sok Chon", "address": "138 W Central Blvd, Palisades Park, NJ 07650", "coordinates": "40.85107115046517,-74.00306960843832", "rating": 4.5, "review_count": 200, "zip_code": "07650", "cuisineType": "korean", "insertedAtTimestamp": "2022-10-19 21:29:46.159057"}, {"businessID": "6fYGuJZXiFb282D1qJzWSQ", "name": "Mokja", "address": "852 Amsterdam, New York, NY 10025", "coordinates": "40.797744938993,-73.9678908884525", "rating": 3.5, "review_count": 185, "zip_code": "10025", "cuisineType": "korean", "insertedAtTimestamp": "2022-10-19 21:29:46.364377"}, {"businessID": "oMtJwDxuuxZPvGMgHOoAbQ", "name": "Reception Bar", "address": "45 Orchard St, New York, NY 10002", "coordinates": "40.7163598,-73.9913564", "rating": 4.0, "review_count": 95, "zip_code": "10002", "cuisineType": "korean", "insertedAtTimestamp": "2022-10-19 21:29:46.570983"}, {"businessID": "BWDtEFmrLyUyT2-oUrY2bw", "name": "O2 BBQ", "address": "7000 Kennedy Blvd E, Guttenberg, NJ 07093", "coordinates": "40.790165,-74.000752", "rating": 4.0, "review_count": 216, "zip_code": "07093", "cuisineType": "korean", "insertedAtTimestamp": "2022-10-19 21:29:46.766918"}, {"businessID": "LbuBN_aP9GW_Y0lT1et5Yg", "name": "Bulbap Grill", "address": "746 10th Ave, Fl 1, New York, NY 10019", "coordinates": "40.76508,-73.99128", "rating": 5.0, "review_count": 34, "zip_code": "10019", "cuisineType": "korean", "insertedAtTimestamp": "2022-10-19 21:29:46.966584"}, {"businessID": "D4QotfnCpx1zgafuKoN5QQ", "name": "Obaltan", "address": "799 Abbot Blvd, Fort Lee, NJ 07024", "coordinates": "40.8314694,-73.9829498", "rating": 4.5, "review_count": 444, "zip_code": "07024", "cuisineType": "korean", "insertedAtTimestamp": "2022-10-19 21:29:47.231439"}, {"businessID": "XjeGryxde-tQZF_Ewu7NCw", "name": "Gamja Tang Tang", "address": "408 Main St, Fort Lee, NJ 07024", "coordinates": "40.85362690593198,-73.97489940149883", "rating": 4.0, "review_count": 244, "zip_code": "07024", "cuisineType": "korean", "insertedAtTimestamp": "2022-10-19 21:29:47.465161"}, {"businessID": "YqWXNq0Ku7cGb6Zj1j43Pw", "name": "KAL", "address": "34-05 30th Ave, Astoria, NY 11103", "coordinates": "40.76584,-73.91859", "rating": 4.5, "review_count": 248, "zip_code": "11103", "cuisineType": "korean", "insertedAtTimestamp": "2022-10-19 21:29:47.678976"}, {"businessID": "ettNH3FWzwaHCBMSFuy5tA", "name": "Rib No 7", "address": "32 W 33rd St, New York, NY 10001", "coordinates": "40.74834,-73.98681", "rating": 4.5, "review_count": 195, "zip_code": "10001", "cuisineType": "korean", "insertedAtTimestamp": "2022-10-19 21:29:47.880755"}, {"businessID": "HiTAdo-v0S1nSfkXfynnHg", "name": "Lim's Kitchen", "address": "38-40 Crescent St, Long island City, NY 11101", "coordinates": "40.75497,-73.93692", "rating": 4.5, "review_count": 287, "zip_code": "11101", "cuisineType": "korean", "insertedAtTimestamp": "2022-10-19 21:29:48.462083"}, {"businessID": "R18bhjYmKxpwfkwGFlWW2g", "name": "Hanbat Restaurant", "address": "53 W 35th St, New York, NY 10001", "coordinates": "40.75015,-73.9863", "rating": 3.5, "review_count": 543, "zip_code": "10001", "cuisineType": "korean", "insertedAtTimestamp": "2022-10-19 21:29:48.694426"}, {"businessID": "sHVnV3l2_mQefULh0mvwUA", "name": "The Woo", "address": "206 Spring St, New York, NY 10012", "coordinates": "40.7253,-74.00371", "rating": 4.0, "review_count": 165, "zip_code": "10012", "cuisineType": "korean", "insertedAtTimestamp": "2022-10-19 21:29:48.876881"}, {"businessID": "hsSNKebzjIp934m_nkjlSg", "name": "TADA Korean Fried Chicken", "address": "70 Bayard St, New York, NY 10013", "coordinates": "40.71564775485656,-73.99808697776591", "rating": 4.5, "review_count": 28, "zip_code": "10013", "cuisineType": "korean", "insertedAtTimestamp": "2022-10-19 21:29:49.084601"}, {"businessID": "xWUL-j6TQyKQHIfOtetu-Q", "name": "HanGawi", "address": "12 E 32nd St, New York, NY 10016", "coordinates": "40.746612323020926,-73.98476051936564", "rating": 4.0, "review_count": 1315, "zip_code": "10016", "cuisineType": "korean", "insertedAtTimestamp": "2022-10-19 21:29:49.298589"}, {"businessID": "IIM-dzbOvg4x7h-AjHsq9Q", "name": "Bulbap Grill", "address": "646 Manhattan Ave, Brooklyn, NY 11222", "coordinates": "40.7243,-73.9509099", "rating": 4.5, "review_count": 170, "zip_code": "11222", "cuisineType": "korean", "insertedAtTimestamp": "2022-10-19 21:29:49.499151"}, {"businessID": "4Y7N9NqTII8MpRzv4psgAw", "name": "Ms Ohho", "address": "146 Nassau Ave, Brooklyn, NY 11222", "coordinates": "40.72474,-73.94755", "rating": 4.0, "review_count": 53, "zip_code": "11222", "cuisineType": "korean", "insertedAtTimestamp": "2022-10-19 21:29:49.712536"}, {"businessID": "ZHPp0z9Tr6qfjj2wCleLWw", "name": "HYUN", "address": "10 E 33rd St, New York, NY 10016", "coordinates": "40.747279,-73.984544", "rating": 4.0, "review_count": 305, "zip_code": "10016", "cuisineType": "korean", "insertedAtTimestamp": "2022-10-19 21:29:49.913938"}, {"businessID": "Brs_MJhAXe60iMnlpeqkKA", "name": "Yakiniku West", "address": "218 E 9th St, New York, NY 10003", "coordinates": "40.72965099486931,-73.98855901656697", "rating": 4.0, "review_count": 740, "zip_code": "10003", "cuisineType": "korean", "insertedAtTimestamp": "2022-10-19 21:29:50.204628"}, {"businessID": "rFhI8Gedy7XQksVD-ixOHw", "name": "Oppa Bistro", "address": "162 West 4th St, New York, NY 10014", "coordinates": "40.731826,-74.0013903", "rating": 4.0, "review_count": 164, "zip_code": "10014", "cuisineType": "korean", "insertedAtTimestamp": "2022-10-19 21:29:50.401546"}, {"businessID": "GDWVTV11eq92ElXD9mstBw", "name": "Boka", "address": "9 St Marks Pl, New York, NY 10003", "coordinates": "40.729519,-73.989104", "rating": 3.5, "review_count": 1577, "zip_code": "10003", "cuisineType": "korean", "insertedAtTimestamp": "2022-10-19 21:29:50.625623"}, {"businessID": "rtFGv0F-GBfsS-cViu-3hA", "name": "Gammeeok", "address": "9 W 32nd St, Fl 2, New York, NY 10001", "coordinates": "40.747653,-73.986114", "rating": 3.5, "review_count": 472, "zip_code": "10001", "cuisineType": "korean", "insertedAtTimestamp": "2022-10-19 21:29:50.827217"}, {"businessID": "VLYShTGh-tjJ4n4mD02M9w", "name": "Mokbar", "address": "601 Lexington Ave, New York, NY 10022", "coordinates": "40.75878,-73.97048", "rating": 3.5, "review_count": 17, "zip_code": "10022", "cuisineType": "korean", "insertedAtTimestamp": "2022-10-19 21:29:51.749733"}, {"businessID": "gj6zDB5krFzL90qdmpYVTQ", "name": "Ziggle Tofu & Grill", "address": "37-4 Queens Blvd, Long Island City, NY 11101", "coordinates": "40.74376729999999,-73.927711", "rating": 4.5, "review_count": 61, "zip_code": "11101", "cuisineType": "korean", "insertedAtTimestamp": "2022-10-19 21:29:51.970301"}, {"businessID": "WyJOEcbuRfcWXYwqaDup_g", "name": "ONDO Jersey City", "address": "3 2nd St, Jersey City, NJ 07302", "coordinates": "40.72084,-74.03199", "rating": 4.5, "review_count": 70, "zip_code": "07302", "cuisineType": "korean", "insertedAtTimestamp": "2022-10-19 21:29:52.183640"}, {"businessID": "klAhw3xLQi9GF1tf_HnS7w", "name": "Izakaya MEW", "address": "53 W 35th St, New York, NY 10001", "coordinates": "40.750148,-73.9863203465939", "rating": 4.0, "review_count": 2656, "zip_code": "10001", "cuisineType": "korean", "insertedAtTimestamp": "2022-10-19 21:29:52.388325"}, {"businessID": "tWSjcyxwBccZkEyhry_aEQ", "name": "Mokbar Brooklyn", "address": "212 Flatbush Ave, Brooklyn, NY 11217", "coordinates": "40.6811485290527,-73.9756774902344", "rating": 3.5, "review_count": 156, "zip_code": "11217", "cuisineType": "korean", "insertedAtTimestamp": "2022-10-19 21:29:52.586305"}, {"businessID": "pT5g_H68K25hMXUjQRwN4A", "name": "Chicken Insider", "address": "1752 2nd Ave, New York, NY 10128", "coordinates": "40.781226,-73.949085", "rating": 5.0, "review_count": 167, "zip_code": "10128", "cuisineType": "korean", "insertedAtTimestamp": "2022-10-19 21:29:52.848241"}, {"businessID": "3nvwvbbkJN2Cyp1VUuG6rA", "name": "Daesung Korean Noodle", "address": "45-04 162nd St, Flushing, NY 11358", "coordinates": "40.75616,-73.80484", "rating": 4.5, "review_count": 454, "zip_code": "11358", "cuisineType": "korean", "insertedAtTimestamp": "2022-10-19 21:29:53.052689"}, {"businessID": "w-GSdTRGTE44AN9D2uTLWw", "name": "Momo 97", "address": "1396 Madison Ave, New York, NY 10029", "coordinates": "40.787888,-73.954046", "rating": 4.0, "review_count": 68, "zip_code": "10029", "cuisineType": "korean", "insertedAtTimestamp": "2022-10-19 21:29:53.339657"}, {"businessID": "pUQQkYv4NkfRA_e2JRO27w", "name": "Kimbap Lab", "address": "75 9th Ave, Fl 1, Pearl River Mart, New York, NY 10011", "coordinates": "40.74254,-74.006061", "rating": 5.0, "review_count": 26, "zip_code": "10011", "cuisineType": "korean", "insertedAtTimestamp": "2022-10-19 21:29:53.549947"}, {"businessID": "d79AROdlfw0Zzj5nRpUIxw", "name": "Joomak Banjum", "address": "312 5th Ave, New York, NY 10001", "coordinates": "40.74701,-73.98583", "rating": 4.0, "review_count": 63, "zip_code": "10001", "cuisineType": "korean", "insertedAtTimestamp": "2022-10-19 21:29:53.758154"}, {"businessID": "zFT7bFL0Gd3k4b8j1skBbA", "name": "Wonder Pig KBBQ", "address": "37-08 Queens Blvd, Long Island City, NY 11101", "coordinates": "40.743911285655216,-73.92753588594262", "rating": 4.0, "review_count": 118, "zip_code": "11101", "cuisineType": "korean", "insertedAtTimestamp": "2022-10-19 21:29:53.968102"}, {"businessID": "jvBtgqUpW0v4wO5QQ-HALQ", "name": "East Hae", "address": "98 N 6th St, Fl 3, Urban Outfitters Space 98, Brooklyn, NY 11249", "coordinates": "40.71847,-73.96054", "rating": 4.0, "review_count": 87, "zip_code": "11249", "cuisineType": "korean", "insertedAtTimestamp": "2022-10-19 21:29:54.206249"}, {"businessID": "t_UObgQX6M_ZRn3tk2cXYQ", "name": "Let's Meat", "address": "307 5th Ave, New York, NY 10016", "coordinates": "40.746774,-73.985524", "rating": 4.0, "review_count": 1598, "zip_code": "10016", "cuisineType": "korean", "insertedAtTimestamp": "2022-10-19 21:29:54.398835"}, {"businessID": "186fNhLP6ymshr5-CA0Lfg", "name": "GOGI 37", "address": "252 West 37th St, Ste A, New York, NY 10018", "coordinates": "40.7535849,-73.9914546", "rating": 3.5, "review_count": 300, "zip_code": "10018", "cuisineType": "korean", "insertedAtTimestamp": "2022-10-19 21:29:54.693786"}, {"businessID": "S9skqRFpN0DztslDkGrkzA", "name": "Oh K-Dog & Egg Toast", "address": "885 9th Ave, New York, NY 10019", "coordinates": "40.76831,-73.98565", "rating": 4.5, "review_count": 22, "zip_code": "10019", "cuisineType": "korean", "insertedAtTimestamp": "2022-10-19 21:29:54.922300"}, {"businessID": "o1fv5Jm1WJs6O5-Sm8rx5w", "name": "Nangman BBQ", "address": "793 6th Ave, New York, NY 10001", "coordinates": "40.74544056427432,-73.9912648", "rating": 4.0, "review_count": 60, "zip_code": "10001", "cuisineType": "korean", "insertedAtTimestamp": "2022-10-19 21:29:55.162999"}, {"businessID": "q1gZLXETOCkRrOESCcjdqw", "name": "Doma", "address": "43-43 41st St, Sunnyside, NY 11104", "coordinates": "40.7446884,-73.922957", "rating": 4.0, "review_count": 223, "zip_code": "11104", "cuisineType": "korean", "insertedAtTimestamp": "2022-10-19 21:29:55.416483"}, {"businessID": "uQ_eauTWC6ctveeKqR30hQ", "name": "Ziggle", "address": "149-06 41st Ave, Flushing, NY 11355", "coordinates": "40.76191,-73.81541", "rating": 4.5, "review_count": 67, "zip_code": "11355", "cuisineType": "korean", "insertedAtTimestamp": "2022-10-19 21:29:55.652901"}, {"businessID": "1vSx0gpTqro-N73NGKneEA", "name": "Insa", "address": "328 Douglass St, Brooklyn, NY 11217", "coordinates": "40.6795562014419,-73.9825174981801", "rating": 3.5, "review_count": 291, "zip_code": "11217", "cuisineType": "korean", "insertedAtTimestamp": "2022-10-19 21:29:55.893920"}, {"businessID": "l_RAv09V67j-Hm9dyZxWhw", "name": "Tomi Jazz", "address": "239 E 53rd St, New York, NY 10022", "coordinates": "40.75725,-73.96774", "rating": 4.5, "review_count": 656, "zip_code": "10022", "cuisineType": "korean", "insertedAtTimestamp": "2022-10-19 21:29:56.095813"}, {"businessID": "kesYSgOJW5krU6L8n9qQ4Q", "name": "Ichibantei", "address": "401 E 13th St, New York, NY 10009", "coordinates": "40.73063,-73.98275", "rating": 4.0, "review_count": 266, "zip_code": "10009", "cuisineType": "korean", "insertedAtTimestamp": "2022-10-19 21:29:56.351649"}, {"businessID": "1ozuYD1HTa4u2F_NR9uUJg", "name": "Gomi Korean Wine Bar", "address": "186 Ave A, New York, NY 10009", "coordinates": "40.72886,-73.9813", "rating": 4.5, "review_count": 152, "zip_code": "10009", "cuisineType": "korean", "insertedAtTimestamp": "2022-10-19 21:29:56.550876"}, {"businessID": "cOXYWZ_GTX-_ue_kveguRg", "name": "SSAM", "address": "170 Smith St, Brooklyn, NY 11201", "coordinates": "40.68594,-73.991274", "rating": 3.5, "review_count": 468, "zip_code": "11201", "cuisineType": "korean", "insertedAtTimestamp": "2022-10-19 21:29:56.964584"}, {"businessID": "CYne0jX60n5-lET063I1fg", "name": "Plan B", "address": "34 W 32nd St, New York, NY 10001", "coordinates": "40.74769,-73.98735", "rating": 4.0, "review_count": 136, "zip_code": "10001", "cuisineType": "korean", "insertedAtTimestamp": "2022-10-19 21:29:57.348566"}, {"businessID": "uJJGpuvwCComknuHj8AKbQ", "name": "Chung Ki Wa Restaurant", "address": "4006 74th St, Jackson Heights, NY 11373", "coordinates": "40.746494,-73.891639", "rating": 3.5, "review_count": 212, "zip_code": "11373", "cuisineType": "korean", "insertedAtTimestamp": "2022-10-19 21:29:57.562703"}, {"businessID": "KaBw8UEm8uZTV6YLsshYrQ", "name": "Pocha 32", "address": "15 W 32nd St, Fl 2, New York, NY 10001", "coordinates": "40.747524574399,-73.9862626791", "rating": 3.5, "review_count": 1650, "zip_code": "10001", "cuisineType": "korean", "insertedAtTimestamp": "2022-10-19 21:29:57.861134"}, {"businessID": "kqZchP64In2gtYd3Xq-i-A", "name": "Pelicana Chicken", "address": "641 10th Ave, New York, NY 10036", "coordinates": "40.7619,-73.994188", "rating": 4.5, "review_count": 50, "zip_code": "10036", "cuisineType": "korean", "insertedAtTimestamp": "2022-10-19 21:29:58.074251"}, {"businessID": "_YsHeAEyCYY03zGqlDdj-Q", "name": "E-Mo", "address": "2 W 32nd St, New York, NY 10001", "coordinates": "40.7471961975098,-73.9861907958984", "rating": 4.0, "review_count": 419, "zip_code": "10001", "cuisineType": "korean", "insertedAtTimestamp": "2022-10-19 21:29:58.260695"}, {"businessID": "HKlcHprrOCbwMw6x71zYLg", "name": "Mokja", "address": "3519 Broadway, Astoria, NY 11106", "coordinates": "40.7602569466645,-73.9214469280272", "rating": 3.5, "review_count": 333, "zip_code": "11106", "cuisineType": "korean", "insertedAtTimestamp": "2022-10-19 21:29:58.475944"}, {"businessID": "g-Fe-czz3PrpZkb0U88R2w", "name": "Taste Korea 232", "address": "232 Taaffe Pl, Brooklyn, NY 11205", "coordinates": "40.691081049956,-73.959718469777", "rating": 3.5, "review_count": 215, "zip_code": "11205", "cuisineType": "korean", "insertedAtTimestamp": "2022-10-19 21:29:58.679578"}, {"businessID": "_FAh31lob7Dnn4iGiLIwng", "name": "MUI", "address": "10 W 32nd St, Fl 5, New York, NY 10001", "coordinates": "40.74732,-73.98646", "rating": 4.0, "review_count": 328, "zip_code": "10001", "cuisineType": "korean", "insertedAtTimestamp": "2022-10-19 21:29:58.857556"}, {"businessID": "l7RpTuovYPl2GsJiopIaBg", "name": "BarKogi Korean Fried Chicken", "address": "957 2nd Ave, New York, NY 10022", "coordinates": "40.7554222,-73.9684579", "rating": 2.5, "review_count": 724, "zip_code": "10022", "cuisineType": "korean", "insertedAtTimestamp": "2022-10-19 21:29:59.047247"}, {"businessID": "MGnPEB_q0DICnIRR0ulSzA", "name": "Daeji Ssonday Bbq Restaurant", "address": "321 Broad Ave, Ridgefield, NJ 07657", "coordinates": "40.824592,-74.011078", "rating": 4.0, "review_count": 96, "zip_code": "07657", "cuisineType": "korean", "insertedAtTimestamp": "2022-10-19 21:29:59.232064"}, {"businessID": "QPTxlH9KxraVczH-Ckntxg", "name": "Delicacy", "address": "12 E 44th St, New York, NY 10017", "coordinates": "40.754207,-73.979179", "rating": 3.5, "review_count": 73, "zip_code": "10017", "cuisineType": "korean", "insertedAtTimestamp": "2022-10-19 21:29:59.430096"}, {"businessID": "7S29PyZooUoPS4x0IUiLTw", "name": "Busan Gukbap", "address": "2444 Lemoine Ave, Fort Lee, NJ 07024", "coordinates": "40.8639436,-73.9621156", "rating": 4.0, "review_count": 221, "zip_code": "07024", "cuisineType": "korean", "insertedAtTimestamp": "2022-10-19 21:29:59.853477"}, {"businessID": "dUxhYX4hfWa4wDfIFgii3g", "name": "Kimganae", "address": "3912 Union St, Flushing, NY 11354", "coordinates": "40.7608325,-73.8269221", "rating": 4.0, "review_count": 846, "zip_code": "11354", "cuisineType": "korean", "insertedAtTimestamp": "2022-10-19 21:30:00.094526"}, {"businessID": "9bAyxRD6RsGEUQw424ovQA", "name": "Nishida Sho-ten", "address": "302 E 49th St, New York, NY 10017", "coordinates": "40.753969,-73.968722", "rating": 4.0, "review_count": 848, "zip_code": "10017", "cuisineType": "korean", "insertedAtTimestamp": "2022-10-19 21:30:00.300702"}, {"businessID": "GKspSLe5U3qkUgQTXfngyQ", "name": "Handsome Rice", "address": "133 E 31st St, New York, NY 10016", "coordinates": "40.74466,-73.98123", "rating": 4.5, "review_count": 134, "zip_code": "10016", "cuisineType": "korean", "insertedAtTimestamp": "2022-10-19 21:30:00.474350"}, {"businessID": "iYjIBo73l5UHRfQGBaZaEg", "name": "Little Dokebi", "address": "85 Driggs Ave, Brooklyn, NY 11222", "coordinates": "40.723048,-73.942335", "rating": 4.0, "review_count": 155, "zip_code": "11222", "cuisineType": "korean", "insertedAtTimestamp": "2022-10-19 21:30:00.703976"}, {"businessID": "EvAJBgBdgOt1jx1EufRN7w", "name": "Jin Ramen Upper West Side", "address": "462 Amsterdam Ave, New York, NY 10024", "coordinates": "40.7854,-73.97709", "rating": 4.0, "review_count": 1035, "zip_code": "10024", "cuisineType": "korean", "insertedAtTimestamp": "2022-10-19 21:30:00.870897"}, {"businessID": "DfrYMusGA-e5lPrv4mNRXg", "name": "The Nook NYC", "address": "199 2nd Ave, New York, NY 10003", "coordinates": "40.7314,-73.98589", "rating": 5.0, "review_count": 1, "zip_code": "10003", "cuisineType": "korean", "insertedAtTimestamp": "2022-10-19 21:30:01.111443"}, {"businessID": "Ni1lyCRuEnc5KWEBEDquCQ", "name": "Chick Chick", "address": "618 Amsterdam Ave, New York, NY 10024", "coordinates": "40.79022,-73.97339", "rating": 4.5, "review_count": 106, "zip_code": "10024", "cuisineType": "korean", "insertedAtTimestamp": "2022-10-19 21:30:02.688059"}, {"businessID": "l0vT-Cw6JBmhhJhCOT8b0Q", "name": "Woori Korean", "address": "336 Myrtle Ave, Brooklyn, NY 11205", "coordinates": "40.693085,-73.973077", "rating": 5.0, "review_count": 43, "zip_code": "11205", "cuisineType": "korean", "insertedAtTimestamp": "2022-10-19 21:30:02.890614"}, {"businessID": "BIjqonwpbOqn-YRxFqcNPg", "name": "Dokebi Bar & Grill", "address": "199 Grand St, Brooklyn, NY 11211", "coordinates": "40.71421,-73.9603", "rating": 3.5, "review_count": 419, "zip_code": "11211", "cuisineType": "korean", "insertedAtTimestamp": "2022-10-19 21:30:03.106329"}, {"businessID": "PbTqcNu_0PLfGJMn31SXPg", "name": "Ho Ho Restaurant", "address": "235 Paterson Ave, East Rutherford, NJ 07073", "coordinates": "40.8337201,-74.097194", "rating": 4.5, "review_count": 120, "zip_code": "07073", "cuisineType": "korean", "insertedAtTimestamp": "2022-10-19 21:30:03.401296"}, {"businessID": "WlRZ4JEAVqtemQ5WQhFAFg", "name": "Maru 2", "address": "267 W 17th St, New York, NY 10011", "coordinates": "40.7416362670334,-74.0007360062909", "rating": 4.5, "review_count": 151, "zip_code": "10011", "cuisineType": "korean", "insertedAtTimestamp": "2022-10-19 21:30:03.638123"}, {"businessID": "vec8jeVbbSGzVlStl0Xp_Q", "name": "Chikarashi", "address": "227 Canal St, New York, NY 10013", "coordinates": "40.71792477072888,-73.99945752883555", "rating": 4.0, "review_count": 509, "zip_code": "10013", "cuisineType": "korean", "insertedAtTimestamp": "2022-10-19 21:30:03.896728"}, {"businessID": "P289ym2atWI1Gb9xaEie9A", "name": "Pelicana Chicken", "address": "941 Manhattan Ave, Brooklyn, NY 11222", "coordinates": "40.731408,-73.954702", "rating": 4.0, "review_count": 92, "zip_code": "11222", "cuisineType": "korean", "insertedAtTimestamp": "2022-10-19 21:30:04.084175"}, {"businessID": "tOqhvINBu3CYNnTQGmxO8g", "name": "BOM with the Wind", "address": "1 Greene Ave, Brooklyn, NY 11238", "coordinates": "40.68597,-73.9732", "rating": 4.5, "review_count": 34, "zip_code": "11238", "cuisineType": "korean", "insertedAtTimestamp": "2022-10-19 21:30:04.461427"}, {"businessID": "-J8VuX3wGrYSOBu2G0hMsw", "name": "Katsu-Hama", "address": "11 E 47th St, New York, NY 10017", "coordinates": "40.75638,-73.97759", "rating": 4.0, "review_count": 1500, "zip_code": "10017", "cuisineType": "korean", "insertedAtTimestamp": "2022-10-19 21:30:04.726453"}, {"businessID": "iIWMaISFp4K50oHFfq2Oxw", "name": "The Cast Iron Pot", "address": "356 Bergen Blvd, Fairview, NJ 07022", "coordinates": "40.82128,-73.99911", "rating": 4.0, "review_count": 873, "zip_code": "07022", "cuisineType": "korean", "insertedAtTimestamp": "2022-10-19 21:30:05.287098"}, {"businessID": "w0lXJpm1m2P1Rj7qW1NhVA", "name": "Geo Si Gi", "address": "152-28 Northern Blvd, Flushing, NY 11354", "coordinates": "40.76458,-73.81202", "rating": 4.0, "review_count": 276, "zip_code": "11354", "cuisineType": "korean", "insertedAtTimestamp": "2022-10-19 21:30:05.530204"}, {"businessID": "OMF0rN7FHM2KovR8hJVbKA", "name": "Kimchee Market", "address": "191 Greenpoint Ave, Greenpoint, NY 11222", "coordinates": "40.73063,-73.95195", "rating": 4.0, "review_count": 68, "zip_code": "11222", "cuisineType": "korean", "insertedAtTimestamp": "2022-10-19 21:30:05.792622"}, {"businessID": "zcWxZaC7pnIVe2ON4uUEDw", "name": "Pelicana Chicken", "address": "47-08 Greenpoint Ave, Sunnyside, NY 11104", "coordinates": "40.74236,-73.91755", "rating": 4.0, "review_count": 471, "zip_code": "11104", "cuisineType": "korean", "insertedAtTimestamp": "2022-10-19 21:30:06.031988"}, {"businessID": "FJ9TKLHeDoLXkk1uOwTMwg", "name": "KoFoo", "address": "67 W 23rd St, New York, NY 10010", "coordinates": "40.7428284,-73.9919281", "rating": 4.0, "review_count": 104, "zip_code": "10010", "cuisineType": "korean", "insertedAtTimestamp": "2022-10-19 21:30:06.242105"}, {"businessID": "H5jHfG4ZkNPaG6vojmAXww", "name": "Chingoo Restaurant", "address": "373 Graham Ave, Brooklyn, NY 11211", "coordinates": "40.715796,-73.944733", "rating": 4.5, "review_count": 92, "zip_code": "11211", "cuisineType": "korean", "insertedAtTimestamp": "2022-10-19 21:30:06.461752"}, {"businessID": "L7_siqDfU4-ZA17YtA-SBg", "name": "Silver Factory", "address": "270 South 5th St, Brooklyn, NY 11211", "coordinates": "40.709227,-73.958598", "rating": 4.5, "review_count": 255, "zip_code": "11211", "cuisineType": "korean", "insertedAtTimestamp": "2022-10-19 21:30:06.661274"}, {"businessID": "WqLIjGVGynMS-vHRVDYjIg", "name": "Drunken Chicken", "address": "25-30 Broadway, Astoria, NY 11106", "coordinates": "40.76271,-73.92757", "rating": 3.5, "review_count": 178, "zip_code": "11106", "cuisineType": "korean", "insertedAtTimestamp": "2022-10-19 21:30:06.864360"}, {"businessID": "eIPiRkf6KCo9A9Ok-Nr_ow", "name": "Miss KOREA BBQ", "address": "10 W 32nd St, 1st, 2nd & Fl 3, New York, NY 10001", "coordinates": "40.747452,-73.986336", "rating": 3.5, "review_count": 2016, "zip_code": "10001", "cuisineType": "korean", "insertedAtTimestamp": "2022-10-19 21:30:07.137061"}, {"businessID": "3GYAtJo-YgEQpFDQBX0dJg", "name": "The Kunjip", "address": "32 W 32nd St, New York, NY 10001", "coordinates": "40.747641,-73.987239", "rating": 2.5, "review_count": 1143, "zip_code": "10001", "cuisineType": "korean", "insertedAtTimestamp": "2022-10-19 21:30:07.346844"}, {"businessID": "ipAsHykRvgJzpx5hD8vTJw", "name": "Tokuyamatcha & Onigirazu Bar", "address": "627 E 6th St, New York, NY 10009", "coordinates": "40.72399,-73.9802", "rating": 4.5, "review_count": 66, "zip_code": "10009", "cuisineType": "korean", "insertedAtTimestamp": "2022-10-19 21:30:07.574204"}, {"businessID": "479rycCXZojMT9S0cl8Oxg", "name": "Yakiniku Gen", "address": "250 E 52nd St, New York, NY 10022", "coordinates": "40.75611,-73.96815", "rating": 4.0, "review_count": 161, "zip_code": "10022", "cuisineType": "korean", "insertedAtTimestamp": "2022-10-19 21:30:07.786654"}, {"businessID": "qVlDLz8Ri-ThAFJgYHuQ9A", "name": "Omusubi Gonbei", "address": "370 Lexington Ave, New York, NY 10017", "coordinates": "40.750701,-73.976961", "rating": 4.5, "review_count": 93, "zip_code": "10017", "cuisineType": "korean", "insertedAtTimestamp": "2022-10-19 21:30:08.102793"}, {"businessID": "lJCW47cV6-0rXtQF9EAsuw", "name": "Koko Wings & Cajun Seafood -  East Village", "address": "192 1st Ave, New York, NY 10009", "coordinates": "40.72972,-73.98354", "rating": 4.0, "review_count": 89, "zip_code": "10009", "cuisineType": "korean", "insertedAtTimestamp": "2022-10-19 21:30:08.301995"}, {"businessID": "qm1J_dPA5IHij1oAnoZwHw", "name": "nonono", "address": "118 Madison Ave, New York, NY 10016", "coordinates": "40.74545,-73.98499", "rating": 4.0, "review_count": 1039, "zip_code": "10016", "cuisineType": "korean", "insertedAtTimestamp": "2022-10-19 21:30:08.578407"}, {"businessID": "XXD9wgu9ns4_BFKubKJ5eQ", "name": "kini", "address": "42-27 35th Ave, Long Island City, NY 11101", "coordinates": "40.754201,-73.919767", "rating": 4.0, "review_count": 123, "zip_code": "11101", "cuisineType": "korean", "insertedAtTimestamp": "2022-10-19 21:30:08.806427"}, {"businessID": "YC-wGlO0oOkEIaCEDZv-ag", "name": "Yakitori Totto", "address": "251 W 55th St, Fl 2, New York, NY 10019", "coordinates": "40.765375,-73.983114", "rating": 4.0, "review_count": 1405, "zip_code": "10019", "cuisineType": "korean", "insertedAtTimestamp": "2022-10-19 21:30:09.040241"}, {"businessID": "TN4RnyqHMSupRFot4Q-_EA", "name": "Ippudo Westside", "address": "321 W 51st St, New York, NY 10019", "coordinates": "40.76344,-73.98661", "rating": 4.0, "review_count": 3914, "zip_code": "10019", "cuisineType": "korean", "insertedAtTimestamp": "2022-10-19 21:30:09.228505"}, {"businessID": "smbtU8bseRMap7t2Fl5oXA", "name": "Bbq Chicken", "address": "383 3rd Ave, New York, NY 10016", "coordinates": "40.74157,-73.98093", "rating": 4.5, "review_count": 2, "zip_code": "10016", "cuisineType": "korean", "insertedAtTimestamp": "2022-10-19 21:30:09.428735"}, {"businessID": "6FZf17rNThWKoF4EU18wnw", "name": "Yakiniku Futago", "address": "37 W 17th St, New York, NY 10011", "coordinates": "40.738851870947,-73.9941236398979", "rating": 4.0, "review_count": 428, "zip_code": "10011", "cuisineType": "korean", "insertedAtTimestamp": "2022-10-19 21:30:09.642709"}, {"businessID": "axqp3pGJXnTLgq2QrPyDyQ", "name": "Benemon", "address": "108 E 4th St, New York, NY 10003", "coordinates": "40.72551,-73.98838", "rating": 4.5, "review_count": 675, "zip_code": "10003", "cuisineType": "korean", "insertedAtTimestamp": "2022-10-19 21:30:09.831107"}, {"businessID": "flHcoaHEWxACgc-Vk9MsOQ", "name": "Jukai", "address": "237 E 53rd St, New York, NY 10022", "coordinates": "40.75718,-73.9678837692742", "rating": 4.0, "review_count": 177, "zip_code": "10022", "cuisineType": "korean", "insertedAtTimestamp": "2022-10-19 21:30:10.057886"}, {"businessID": "0FOE_TW-91b9wN661lZMyQ", "name": "mokbar", "address": "75 9th Ave, New York, NY 10011", "coordinates": "40.74222,-74.005913", "rating": 3.5, "review_count": 610, "zip_code": "10011", "cuisineType": "korean", "insertedAtTimestamp": "2022-10-19 21:30:10.285954"}, {"businessID": "dtk1Cstz5MHr-B1AOM_nXA", "name": "Gyu-Kaku Japanese BBQ", "address": "805 3rd Ave, 2nd Flr, New York, NY 10022", "coordinates": "40.75537,-73.97054", "rating": 4.0, "review_count": 1267, "zip_code": "10022", "cuisineType": "korean", "insertedAtTimestamp": "2022-10-19 21:30:10.514146"}, {"businessID": "5I6krBhzH2c0oZ6Lqe2J0g", "name": "Kimchi Kooks Kate's Kitchen", "address": "119 Bay RIdge Ave, Brooklyn, NY 11220", "coordinates": "40.637599744683946,-74.0314467", "rating": 4.5, "review_count": 19, "zip_code": "11220", "cuisineType": "korean", "insertedAtTimestamp": "2022-10-19 21:30:11.645076"}, {"businessID": "xFp3xSQ43J-i7nmJfNBsZA", "name": "Norikoh", "address": "43 W 24th St, New York, NY 10010", "coordinates": "40.7433,-73.99137", "rating": 4.0, "review_count": 616, "zip_code": "10010", "cuisineType": "korean", "insertedAtTimestamp": "2022-10-19 21:30:11.829595"}, {"businessID": "rCS4w1A24k33FFTzZ52Vog", "name": "Oh K-Dog", "address": "159 Ludlow St, New York, NY 10002", "coordinates": "40.72104,-73.98804", "rating": 4.5, "review_count": 335, "zip_code": "10002", "cuisineType": "korean", "insertedAtTimestamp": "2022-10-19 21:30:12.090643"}, {"businessID": "Nc7l1XSiMpf51MzQSPSzFA", "name": "Kuku Chicken", "address": "1209 Jackson Ave, Long Island City, NY 11101", "coordinates": "40.743818,-73.950631", "rating": 4.5, "review_count": 109, "zip_code": "11101", "cuisineType": "korean", "insertedAtTimestamp": "2022-10-19 21:30:12.294332"}, {"businessID": "MFOsHDS9E5Kt5umoD_XAKw", "name": "DM Restaurant", "address": "71 4th Ave, New York, NY 10003", "coordinates": "40.73103,-73.99013", "rating": 4.0, "review_count": 26, "zip_code": "10003", "cuisineType": "korean", "insertedAtTimestamp": "2022-10-19 21:30:12.457277"}, {"businessID": "xymropCDcEvCYGKC0AKe-w", "name": "Fob Brooklyn", "address": "271 Smith St, Brooklyn, NY 11231", "coordinates": "40.6826583,-73.9930755", "rating": 4.0, "review_count": 295, "zip_code": "11231", "cuisineType": "korean", "insertedAtTimestamp": "2022-10-19 21:30:12.691002"}, {"businessID": "1CY0Mk1PXIUoVLsLhPq75A", "name": "KALBI", "address": "117TH ST & BROADWAY, New York, NY 10026", "coordinates": "40.8088083994982,-73.9631333202124", "rating": 5.0, "review_count": 4, "zip_code": "10026", "cuisineType": "korean", "insertedAtTimestamp": "2022-10-19 21:30:12.880698"}, {"businessID": "sckKTPAj3_sg7HQsJIq2yw", "name": "So Kong Dong", "address": "130 Main St, Fort Lee, NJ 07024", "coordinates": "40.85056,-73.96702", "rating": 4.0, "review_count": 775, "zip_code": "07024", "cuisineType": "korean", "insertedAtTimestamp": "2022-10-19 21:30:13.079884"}, {"businessID": "M9ocxj9j91I1Av32UKSeYA", "name": "Yakiniku Tohbay", "address": "253 West 55th St, Fl 2, New York, NY 10019", "coordinates": "40.765354,-73.983214", "rating": 4.0, "review_count": 33, "zip_code": "10019", "cuisineType": "korean", "insertedAtTimestamp": "2022-10-19 21:30:13.336220"}, {"businessID": "W5RSIwNKBa7k0jeAs5KDYg", "name": "Mei Jin Ramen", "address": "1574 2nd Ave, New York, NY 10028", "coordinates": "40.775049,-73.953553", "rating": 4.0, "review_count": 799, "zip_code": "10028", "cuisineType": "korean", "insertedAtTimestamp": "2022-10-19 21:30:13.600079"}, {"businessID": "7OMGEtFWT6sdd9TVuoGqJQ", "name": "Okonomi", "address": "150 Ainslie St, Brooklyn, NY 11211", "coordinates": "40.712622,-73.9487843", "rating": 4.5, "review_count": 491, "zip_code": "11211", "cuisineType": "korean", "insertedAtTimestamp": "2022-10-19 21:30:13.837463"}, {"businessID": "9jgsbS0rvsKT-d1V8Fg8tA", "name": "Bibigo", "address": "30 Rockefeller Plz, Ste 11, Concourse, New York, NY 10112", "coordinates": "40.75875367733244,-73.9786828", "rating": 2.5, "review_count": 7, "zip_code": "10112", "cuisineType": "korean", "insertedAtTimestamp": "2022-10-19 21:30:14.026838"}, {"businessID": "2jkR9i54loLxuaowoPX5Fw", "name": "Kimbap Lab", "address": "238 Bedford Ave, Brooklyn, NY 11249", "coordinates": "40.71611,-73.95974", "rating": 4.5, "review_count": 58, "zip_code": "11249", "cuisineType": "korean", "insertedAtTimestamp": "2022-10-19 21:30:14.240072"}, {"businessID": "vMTJsNMw5JtrLoN1cilFzQ", "name": "Jang Dok Dae", "address": "172-14 46 Ave, Fl 1, Flushing, NY 11358", "coordinates": "40.75313112896305,-73.79288690859414", "rating": 5.0, "review_count": 93, "zip_code": "11358", "cuisineType": "korean", "insertedAtTimestamp": "2022-10-19 21:30:14.452561"}, {"businessID": "F8kWKI3BnbaZFXYBMT_CNQ", "name": "Mad for Chicken", "address": "1914 3rd Ave, New York, NY 10029", "coordinates": "40.79137,-73.94505", "rating": 5.0, "review_count": 6, "zip_code": "10029", "cuisineType": "korean", "insertedAtTimestamp": "2022-10-19 21:30:14.715338"}, {"businessID": "eyjeP9CJZ_gYgeJFP_vtpQ", "name": "Karasu", "address": "166 Dekalb Ave, Walter's, Brooklyn, NY 11217", "coordinates": "40.68937279085807,-73.9732461", "rating": 4.0, "review_count": 111, "zip_code": "11217", "cuisineType": "korean", "insertedAtTimestamp": "2022-10-19 21:30:14.937125"}, {"businessID": "HZWHBfeuP4Fb6y8b8uqnbA", "name": "Sushi Yasaka", "address": "251 W 72nd St, New York, NY 10023", "coordinates": "40.779583,-73.983482", "rating": 4.0, "review_count": 1938, "zip_code": "10023", "cuisineType": "korean", "insertedAtTimestamp": "2022-10-19 21:30:15.157459"}, {"businessID": "TBp9gdS6xEbSQqffVZ7iag", "name": "KazuNori  | The Original Hand Roll Bar", "address": "15 W 28th St, New York, NY 10001", "coordinates": "40.74519,-73.98824", "rating": 4.5, "review_count": 1268, "zip_code": "10001", "cuisineType": "korean", "insertedAtTimestamp": "2022-10-19 21:30:15.313607"}, {"businessID": "wx5XkAsviabyZdQma64Fyw", "name": "Gaonnuri", "address": "1250 Broadway, Fl 39, New York, NY 10001", "coordinates": "40.74757,-73.98802", "rating": 3.5, "review_count": 933, "zip_code": "10001", "cuisineType": "korean", "insertedAtTimestamp": "2022-10-19 21:30:15.543710"}, {"businessID": "T-t9GtsWKU7LZV7jloCTuA", "name": "Ta-Da Chicken", "address": "1080 6th Ave, New York, NY 10018", "coordinates": "40.7539221,-73.9845647", "rating": 4.0, "review_count": 2, "zip_code": "10018", "cuisineType": "korean", "insertedAtTimestamp": "2022-10-19 21:30:15.735612"}, {"businessID": "xrZWbxETIF8qj6h4uvhJrQ", "name": "J-Spec", "address": "239 E 5th St, New York, NY 10003", "coordinates": "40.72706,-73.9893", "rating": 4.0, "review_count": 125, "zip_code": "10003", "cuisineType": "korean", "insertedAtTimestamp": "2022-10-19 21:30:15.958202"}, {"businessID": "aY8JCml1xlOg5a1BHn2DNQ", "name": "Tsukushi", "address": "357 E 50th St, New York, NY 10017", "coordinates": "40.75414,-73.96648", "rating": 4.0, "review_count": 99, "zip_code": "10017", "cuisineType": "korean", "insertedAtTimestamp": "2022-10-19 21:30:16.176798"}, {"businessID": "6p1hVVBEXd8jtRULoRUW5g", "name": "Dons Bogam Black", "address": "276 5th Ave, New York, NY 10001", "coordinates": "40.7459,-73.98691", "rating": 4.0, "review_count": 107, "zip_code": "10001", "cuisineType": "korean", "insertedAtTimestamp": "2022-10-19 21:30:16.383086"}, {"businessID": "_IkMfWpOkQXRZtJAYJUJIw", "name": "Hama Japanese Cuisine", "address": "11 W 51st St, New York, NY 10019", "coordinates": "40.7597846984863,-73.9776382446289", "rating": 4.0, "review_count": 404, "zip_code": "10019", "cuisineType": "korean", "insertedAtTimestamp": "2022-10-19 21:30:16.623043"}, {"businessID": "SdESb_kSAV6b0WD813J4WQ", "name": "Red Poke", "address": "600 9th Ave, New York, NY 10036", "coordinates": "40.7588993,-73.991915", "rating": 4.5, "review_count": 614, "zip_code": "10036", "cuisineType": "korean", "insertedAtTimestamp": "2022-10-19 21:30:16.895049"}, {"businessID": "Q23LvHPuC9ajSbMEt8xoUw", "name": "Lucky Cat", "address": "232 E 53rd St, New York, NY 10022", "coordinates": "40.7570162692229,-73.9681779883895", "rating": 4.0, "review_count": 396, "zip_code": "10022", "cuisineType": "korean", "insertedAtTimestamp": "2022-10-19 21:30:17.092107"}, {"businessID": "KS0aRZlR9j4IwlsFo1_VkQ", "name": "Ahri's Kitchen", "address": "227 7th St, Jersey City, NJ 07302", "coordinates": "40.725925,-74.043793", "rating": 3.5, "review_count": 324, "zip_code": "07302", "cuisineType": "korean", "insertedAtTimestamp": "2022-10-19 21:30:17.295356"}, {"businessID": "YK-7Ajz_IpVpblX1kqWsNg", "name": "Soram", "address": "321 Broad Ave, Ridgefield, NJ 07657", "coordinates": "40.824656,-74.01175", "rating": 4.0, "review_count": 85, "zip_code": "07657", "cuisineType": "korean", "insertedAtTimestamp": "2022-10-19 21:30:17.507392"}, {"businessID": "NGDLKVh3x5Hch24XWb6M9w", "name": "Sushi Nonaka", "address": "410 Amsterdam Ave, New York, NY 10024", "coordinates": "40.783672,-73.978343", "rating": 4.5, "review_count": 139, "zip_code": "10024", "cuisineType": "korean", "insertedAtTimestamp": "2022-10-19 21:30:17.693366"}, {"businessID": "qvVltqaoMJIyO9v3Rs-E2g", "name": "Makana BBQ & Poke", "address": "161 W 106th St, New York, NY 10025", "coordinates": "40.8003498753624,-73.9650623620337", "rating": 3.5, "review_count": 242, "zip_code": "10025", "cuisineType": "korean", "insertedAtTimestamp": "2022-10-19 21:30:17.918566"}, {"businessID": "_2V0as8DZDwVxAi3ZJ0JkA", "name": "Raku - It's Japanese II", "address": "57 W 76th St, New York, NY 10023", "coordinates": "40.779997,-73.976516", "rating": 4.0, "review_count": 386, "zip_code": "10023", "cuisineType": "korean", "insertedAtTimestamp": "2022-10-19 21:30:19.065043"}, {"businessID": "diCW3Pj1PTVRSyol_d7cZw", "name": "Chef's Table at Brooklyn Fare", "address": "431 W 37th St, New York, NY 10018", "coordinates": "40.7561930774282,-73.9966090932068", "rating": 4.5, "review_count": 615, "zip_code": "10018", "cuisineType": "korean", "insertedAtTimestamp": "2022-10-19 21:30:19.295277"}, {"businessID": "NbZk-8yng4DgoNZ1JxySyg", "name": "Ikimchi", "address": "Lexington Ave And 24th St, New York, NY 10010", "coordinates": "40.7401695,-73.9842682", "rating": 3.5, "review_count": 11, "zip_code": "10010", "cuisineType": "korean", "insertedAtTimestamp": "2022-10-19 21:30:19.493120"}, {"businessID": "iWiRGDphwDrXAQyEJL5KVA", "name": "White Tiger", "address": "601 Vanderbilt Ave, Brooklyn, NY 11238", "coordinates": "40.67947,-73.96785", "rating": 3.5, "review_count": 207, "zip_code": "11238", "cuisineType": "korean", "insertedAtTimestamp": "2022-10-19 21:30:19.694525"}, {"businessID": "eRtceh_W_yniAfCqJni5Bg", "name": "Go! Go! Curry!", "address": "273 W 38th St, New York, NY 10018", "coordinates": "40.7547,-73.991055", "rating": 4.0, "review_count": 1500, "zip_code": "10018", "cuisineType": "korean", "insertedAtTimestamp": "2022-10-19 21:30:19.916358"}, {"businessID": "7M9HRu4eaBNlCxFBjS2gzw", "name": "Parksanbal Babs", "address": "41-10 162nd St, Flushing, NY 11358", "coordinates": "40.761093,-73.804031", "rating": 4.5, "review_count": 196, "zip_code": "11358", "cuisineType": "korean", "insertedAtTimestamp": "2022-10-19 21:30:20.169507"}, {"businessID": "unKv93JlCAZZfkkuDiNE-g", "name": "K-Top Chicken", "address": "639 Driggs Ave, Brooklyn, NY 11211", "coordinates": "40.71499,-73.95833", "rating": 5.0, "review_count": 59, "zip_code": "11211", "cuisineType": "korean", "insertedAtTimestamp": "2022-10-19 21:30:20.358874"}, {"businessID": "oyyubJoK0VZ2V3a5sVJULg", "name": "Natsumi", "address": "226 W 50th St, New York, NY 10019", "coordinates": "40.761673475325274,-73.98518550748527", "rating": 4.0, "review_count": 921, "zip_code": "10019", "cuisineType": "korean", "insertedAtTimestamp": "2022-10-19 21:30:20.624984"}, {"businessID": "TzkFri9qw3g30GDC1q3-PA", "name": "Yupdduk Flushing", "address": "157-22 Northern Blvd, Flushing, NY 11354", "coordinates": "40.7637210499282,-73.8082498239232", "rating": 4.0, "review_count": 323, "zip_code": "11354", "cuisineType": "korean", "insertedAtTimestamp": "2022-10-19 21:30:20.846609"}, {"businessID": "uC5_J2l9uwTleh7j5W__kg", "name": "Bokki Seoul Food", "address": "374 Pearl St, Brooklyn, NY 11201", "coordinates": "40.69278448368199,-73.98827794662675", "rating": 4.0, "review_count": 41, "zip_code": "11201", "cuisineType": "korean", "insertedAtTimestamp": "2022-10-19 21:30:21.124844"}, {"businessID": "4X7Vi_iVbpI_w0oYW_ao3Q", "name": "Workers", "address": "25 Union Sq W 15th St, New York, NY 10003", "coordinates": "40.7363,-73.99108", "rating": 5.0, "review_count": 3, "zip_code": "10003", "cuisineType": "korean", "insertedAtTimestamp": "2022-10-19 21:30:21.376004"}, {"businessID": "-n5zd4kpmJdqKzvar-5v8g", "name": "Gogi Grill - Hoboken", "address": "79 Hudson St, Hoboken, NJ 07030", "coordinates": "40.7362061117704,-74.0300041437149", "rating": 4.0, "review_count": 255, "zip_code": "07030", "cuisineType": "korean", "insertedAtTimestamp": "2022-10-19 21:30:21.579145"}, {"businessID": "0IlPgT9j_85PuLDs8ZqiUw", "name": "BentOn Cafe", "address": "156 E 45th St, New York, NY 10017", "coordinates": "40.7527802459225,-73.9735173882912", "rating": 4.0, "review_count": 154, "zip_code": "10017", "cuisineType": "korean", "insertedAtTimestamp": "2022-10-19 21:30:21.994457"}, {"businessID": "UTLEGU4mLmB26DiX99Ggxw", "name": "Tamashii Blue", "address": "47-36 Vernon Blvd, Long Island City, NY 11101", "coordinates": "40.74452,-73.9538", "rating": 4.0, "review_count": 294, "zip_code": "11101", "cuisineType": "korean", "insertedAtTimestamp": "2022-10-19 21:30:22.226680"}, {"businessID": "xrnk8mgoV7up6fauVmugpw", "name": "Jun-Men Ramen Bar", "address": "249 9th Ave, New York, NY 10001", "coordinates": "40.748209,-74.00047", "rating": 4.0, "review_count": 687, "zip_code": "10001", "cuisineType": "korean", "insertedAtTimestamp": "2022-10-19 21:30:22.400102"}, {"businessID": "PkbV26BGarsKLkJCYNPEGQ", "name": "Turnstyle Underground Market", "address": "57th St & 8th Ave, Under Columbus Cir, New York, NY 10019", "coordinates": "40.76671,-73.98282", "rating": 4.0, "review_count": 108, "zip_code": "10019", "cuisineType": "korean", "insertedAtTimestamp": "2022-10-19 21:30:22.635751"}, {"businessID": "w3CHmfkPc5K7MzYfBmyrNQ", "name": "BOHO's Kitchen", "address": "152 Orchard St, New York, NY 10002", "coordinates": "40.72072,-73.98864", "rating": 4.5, "review_count": 7, "zip_code": "10002", "cuisineType": "korean", "insertedAtTimestamp": "2022-10-19 21:30:22.876945"}, {"businessID": "mESab-FqL5QqSVsnX72asQ", "name": "Zen Ramen & Sushi", "address": "150 W 36th street, New York, NY 10018", "coordinates": "40.75177475474212,-73.98897630211589", "rating": 4.5, "review_count": 2376, "zip_code": "10018", "cuisineType": "korean", "insertedAtTimestamp": "2022-10-19 21:30:23.086749"}, {"businessID": "Jcp-SJpnkhj_MD8-aDIHaQ", "name": "Ippudo 5th Avenue", "address": "24 W 46th St, New York, NY 10036", "coordinates": "40.75639,-73.98046", "rating": 3.5, "review_count": 421, "zip_code": "10036", "cuisineType": "korean", "insertedAtTimestamp": "2022-10-19 21:30:23.281465"}, {"businessID": "09y5uyX7z41mjoA9fVF1bQ", "name": "Tang Restaurant", "address": "196-50 Northern Blvd, Flushing, NY 11358", "coordinates": "40.75744,-73.78383", "rating": 4.0, "review_count": 749, "zip_code": "11358", "cuisineType": "korean", "insertedAtTimestamp": "2022-10-19 21:30:23.491509"}, {"businessID": "nZdo3ihbeX0l9eLBFS-nWg", "name": "DOMODOMO Jersey City", "address": "200 Greene St, Jersey City, NJ 07302", "coordinates": "40.720237887545395,-74.03427148430569", "rating": 4.5, "review_count": 570, "zip_code": "07302", "cuisineType": "korean", "insertedAtTimestamp": "2022-10-19 21:30:23.723004"}, {"businessID": "7iY35991NhQ1AShJZCNZgA", "name": "Sakagura", "address": "211 E 43rd St, New York, NY 10017", "coordinates": "40.7516467024541,-73.9729489318165", "rating": 4.0, "review_count": 1847, "zip_code": "10017", "cuisineType": "korean", "insertedAtTimestamp": "2022-10-19 21:30:23.940776"}, {"businessID": "dF6Y9DJgNxNEIn_M_cYZEg", "name": "bb.q Chicken Bayonne", "address": "444 Broadway, Bayonne, NJ 07002", "coordinates": "40.66205657706249,-74.1195522", "rating": 4.0, "review_count": 13, "zip_code": "07002", "cuisineType": "korean", "insertedAtTimestamp": "2022-10-19 21:30:24.160012"}, {"businessID": "wcs0Qm2PshPz0ifTsJK3YA", "name": "Dainobu", "address": "129 E 47th St, New York, NY 10017", "coordinates": "40.7546157836914,-73.9731292724609", "rating": 3.5, "review_count": 222, "zip_code": "10017", "cuisineType": "korean", "insertedAtTimestamp": "2022-10-19 21:30:24.370518"}, {"businessID": "X7Opl9IQDOJNK1tJplhdXw", "name": "Korean BBQ Grill", "address": "496 Main St, New Rochelle, NY 10801", "coordinates": "40.909017,-73.7813176", "rating": 4.0, "review_count": 127, "zip_code": "10801", "cuisineType": "korean", "insertedAtTimestamp": "2022-10-19 21:30:24.563873"}, {"businessID": "W1L0UB1MvlhvkKTF43emSA", "name": "Jaew Hon New York", "address": "71-30 Roosevelt Ave, Jackson Heights, NY 11372", "coordinates": "40.7464487,-73.8938216", "rating": 4.5, "review_count": 234, "zip_code": "11372", "cuisineType": "korean", "insertedAtTimestamp": "2022-10-19 21:30:24.793106"}, {"businessID": "1SgW1X-S8KrIjq05l6xPPw", "name": "Korean BTS Market", "address": "512 Nostrand Ave, Brooklyn, NY 11216", "coordinates": "40.6812944,-73.9499393", "rating": 5.0, "review_count": 18, "zip_code": "11216", "cuisineType": "korean", "insertedAtTimestamp": "2022-10-19 21:30:25.046762"}, {"businessID": "PqCh5tLVds4tMOyREdXdcA", "name": "Meatoss Street Grill", "address": "New York, NY 10018", "coordinates": "40.7560539245605,-73.9962997436523", "rating": 4.5, "review_count": 38, "zip_code": "10018", "cuisineType": "korean", "insertedAtTimestamp": "2022-10-19 21:30:25.287955"}, {"businessID": "GlPJPpKvPR4d8dmcSEYpdA", "name": "Takahachi Bakery", "address": "25 Murray St, New York, NY 10007", "coordinates": "40.71373,-74.00843", "rating": 4.0, "review_count": 989, "zip_code": "10007", "cuisineType": "korean", "insertedAtTimestamp": "2022-10-19 21:30:25.616142"}, {"businessID": "_FhKGcCbiYgtkXcCiwTAiA", "name": "Aburiya Kinnosuke", "address": "213 E 45th St, New York, NY 10017", "coordinates": "40.752583,-73.972274", "rating": 4.0, "review_count": 796, "zip_code": "10017", "cuisineType": "korean", "insertedAtTimestamp": "2022-10-19 21:30:25.822425"}, {"businessID": "Hnph6trad_cJb-rULrN5og", "name": "Dangol", "address": "160-30 Northern Blvd, Flushing, NY 11358", "coordinates": "40.76217,-73.80466", "rating": 4.5, "review_count": 21, "zip_code": "11358", "cuisineType": "korean", "insertedAtTimestamp": "2022-10-19 21:30:26.066054"}, {"businessID": "Clumryf360iOnwpZ2ML8aw", "name": "Sushi You", "address": "246 E 51st St, New York, NY 10022", "coordinates": "40.755555,-73.968736", "rating": 4.0, "review_count": 283, "zip_code": "10022", "cuisineType": "korean", "insertedAtTimestamp": "2022-10-19 21:30:26.326993"}, {"businessID": "8tcFpd0dcmfzbLgbTO4tdw", "name": "Sen Sakana", "address": "28 W 44th St, New York, NY 10036", "coordinates": "40.75522571524429,-73.98163", "rating": 4.0, "review_count": 314, "zip_code": "10036", "cuisineType": "korean", "insertedAtTimestamp": "2022-10-19 21:30:26.515897"}, {"businessID": "B8wHwGZCddRZ_T953FApxQ", "name": "Maki Kosaka", "address": "55 W 19th St, New York, NY 10011", "coordinates": "40.740322,-73.99379", "rating": 4.5, "review_count": 86, "zip_code": "10011", "cuisineType": "korean", "insertedAtTimestamp": "2022-10-19 21:30:26.733120"}, {"businessID": "eS9mTLlWwu_Ap2ROMQWPxg", "name": "Chuko", "address": "565 Vanderbilt Ave, Brooklyn, NY 11238", "coordinates": "40.680784,-73.967455", "rating": 4.0, "review_count": 1100, "zip_code": "11238", "cuisineType": "korean", "insertedAtTimestamp": "2022-10-19 21:30:26.932540"}, {"businessID": "NVq6ZTNnQucOBNn5m6ubow", "name": "Grace Cafe", "address": "572 8th Ave, New York, NY 10018", "coordinates": "40.7547799,-73.99135", "rating": 3.5, "review_count": 40, "zip_code": "10018", "cuisineType": "korean", "insertedAtTimestamp": "2022-10-19 21:30:27.165704"}, {"businessID": "-mEDJYgrnRSitBRv9u6LMw", "name": "The Hugh", "address": "601 Lexington Ave, New York, NY 10022", "coordinates": "40.75878,-73.97048", "rating": 4.5, "review_count": 26, "zip_code": "10022", "cuisineType": "korean", "insertedAtTimestamp": "2022-10-19 21:30:28.451952"}, {"businessID": "_riKxC9lqWhUyEyU8K1ESA", "name": "Kobeque", "address": "11 W 32nd St, New York, NY 10001", "coordinates": "40.7475453147469,-73.986284328775", "rating": 3.5, "review_count": 102, "zip_code": "10001", "cuisineType": "korean", "insertedAtTimestamp": "2022-10-19 21:30:28.655273"}, {"businessID": "DvoN1ZJeRAvwz7VioZUU5Q", "name": "MS. KIM'S Lounge & Private Karaoke", "address": "6 West 28th St, Fl 2, New York, NY 10001", "coordinates": "40.744753,-73.98809", "rating": 4.5, "review_count": 45, "zip_code": "10001", "cuisineType": "korean", "insertedAtTimestamp": "2022-10-19 21:30:28.901459"}, {"businessID": "SPyN19tjQyRTD-ltN0qNJw", "name": "Koku Ramen", "address": "2 W 32nd St, New York, NY 10001", "coordinates": "40.7472532,-73.9861784", "rating": 4.0, "review_count": 476, "zip_code": "10001", "cuisineType": "korean", "insertedAtTimestamp": "2022-10-19 21:30:29.127457"}, {"businessID": "5DubGsDTQYkdNf4nEYsfag", "name": "Ejen Korean Comfort Food", "address": "254 36th St, Brooklyn, NY 11232", "coordinates": "40.6564113,-74.0082717", "rating": 4.0, "review_count": 66, "zip_code": "11232", "cuisineType": "korean", "insertedAtTimestamp": "2022-10-19 21:30:29.345589"}, {"businessID": "mnXrPqOVbX_06D9OAo4dLA", "name": "Atti", "address": "294 Livingston St, Brooklyn, NY 11217", "coordinates": "40.68841151989921,-73.98289919999999", "rating": 4.5, "review_count": 9, "zip_code": "11217", "cuisineType": "korean", "insertedAtTimestamp": "2022-10-19 21:30:29.529290"}, {"businessID": "RjeW_l8OF99rn5df5-Rj4g", "name": "Totto Ramen - Midtown East", "address": "248 E 52nd St, New York, NY 10022", "coordinates": "40.756155,-73.968141", "rating": 4.0, "review_count": 1249, "zip_code": "10022", "cuisineType": "korean", "insertedAtTimestamp": "2022-10-19 21:30:29.889468"}, {"businessID": "KHxfOFf3FzYXJKI8SQx5MA", "name": "Wooga", "address": "1296 Palisade Ave, Fort Lee, NJ 07024", "coordinates": "40.84012759588626,-73.9757113777802", "rating": 4.5, "review_count": 275, "zip_code": "07024", "cuisineType": "korean", "insertedAtTimestamp": "2022-10-19 21:30:30.183585"}, {"businessID": "ucO0J9f1m7bIs1nQclzSeQ", "name": "Pan-Tastic Q", "address": "4202 Northern Blvd, Long Island City, NY 11101", "coordinates": "40.7522769,-73.9212728", "rating": 3.5, "review_count": 33, "zip_code": "11101", "cuisineType": "korean", "insertedAtTimestamp": "2022-10-19 21:30:30.414374"}, {"businessID": "2TWJdgcdVmvyeBoWTUDEww", "name": "The Basac", "address": "158-09 Northern Blvd, Flushing, NY 11358", "coordinates": "40.7635691,-73.8070684", "rating": 4.0, "review_count": 314, "zip_code": "11358", "cuisineType": "korean", "insertedAtTimestamp": "2022-10-19 21:30:30.694340"}, {"businessID": "HwNGdMK77O-EzKLpmwT7yw", "name": "Kumi Restaurant and Bar", "address": "120 W 57th St, New York, NY 10019", "coordinates": "40.764565,-73.9784806", "rating": 4.5, "review_count": 33, "zip_code": "10019", "cuisineType": "korean", "insertedAtTimestamp": "2022-10-19 21:30:30.909810"}, {"businessID": "LHcpOjPtc8QQCrFiRFjWyA", "name": "Slow Loris", "address": "556 Flatbush Ave, Brooklyn, NY 11225", "coordinates": "40.66031214204085,-73.96079581205663", "rating": 4.5, "review_count": 159, "zip_code": "11225", "cuisineType": "korean", "insertedAtTimestamp": "2022-10-19 21:30:31.112421"}, {"businessID": "O1XrvIq-6IlLunLYEjOiFQ", "name": "Kushi Kushi Yaki", "address": "2 W 32nd St, New York, NY 10001", "coordinates": "40.747266,-73.9861784", "rating": 4.5, "review_count": 100, "zip_code": "10001", "cuisineType": "korean", "insertedAtTimestamp": "2022-10-19 21:30:31.310406"}, {"businessID": "kN3rkbjvqkY62CDRYUVz4g", "name": "Yopparai", "address": "49 Clinton St, Ground Floor, New York, NY 10002", "coordinates": "40.71975013980203,-73.98488557728082", "rating": 4.5, "review_count": 253, "zip_code": "10002", "cuisineType": "korean", "insertedAtTimestamp": "2022-10-19 21:30:31.513557"}, {"businessID": "1dvJm3EZLh9iejUbNmTbLQ", "name": "Syko", "address": "228 Prospect Park W, Brooklyn, NY 11215", "coordinates": "40.65977,-73.98108", "rating": 4.5, "review_count": 15, "zip_code": "11215", "cuisineType": "korean", "insertedAtTimestamp": "2022-10-19 21:30:31.713556"}, {"businessID": "P0OilvtjGnUQgf7hFzEgcg", "name": "Mad For Chicken", "address": "617 Grand St, Brooklyn, NY 11211", "coordinates": "40.71142,-73.94751", "rating": 4.5, "review_count": 174, "zip_code": "11211", "cuisineType": "korean", "insertedAtTimestamp": "2022-10-19 21:30:31.911349"}, {"businessID": "Bt4SII8FWQaldRH8s90Czw", "name": "TSA\u00f4CAA", "address": "773 59th St, Brooklyn, NY 11220", "coordinates": "40.63639,-74.00922", "rating": 3.0, "review_count": 129, "zip_code": "11220", "cuisineType": "korean", "insertedAtTimestamp": "2022-10-19 21:30:32.157857"}, {"businessID": "MK7I8PSBczESYGQ3PJIcag", "name": "New York Food Truck Association", "address": "350 E 54th St, New York, NY 10022", "coordinates": "40.756365,-73.964806", "rating": 5.0, "review_count": 2, "zip_code": "10022", "cuisineType": "korean", "insertedAtTimestamp": "2022-10-19 21:30:32.362392"}, {"businessID": "bBDzXNM7Y7_8WE2Sm6R_ig", "name": "Gotham West Market", "address": "600 11th Ave, New York, NY 10036", "coordinates": "40.7624395,-73.9971462", "rating": 4.0, "review_count": 563, "zip_code": "10036", "cuisineType": "korean", "insertedAtTimestamp": "2022-10-19 21:30:32.601549"}, {"businessID": "4WHSPuB3iFSOQrgSYmsLbA", "name": "BulgogiZip", "address": "562 Broad St, Newark, NJ 07102", "coordinates": "40.74219,-74.1687525925926", "rating": 4.5, "review_count": 53, "zip_code": "07102", "cuisineType": "korean", "insertedAtTimestamp": "2022-10-19 21:30:32.823854"}, {"businessID": "GdjbCv2nD_V_MCjk0HAgnw", "name": "Jiku Wicked Wings & Korean Grub", "address": "1219 Church Ave, Brooklyn, NY 11218", "coordinates": "40.647755,-73.967833", "rating": 4.0, "review_count": 123, "zip_code": "11218", "cuisineType": "korean", "insertedAtTimestamp": "2022-10-19 21:30:33.037138"}, {"businessID": "D2l6XG53ORM_wQg7c6dsAQ", "name": "B\u0101ng Bar", "address": "10 Columbus Cir, Fl 3, New York, NY 10023", "coordinates": "40.768290433459775,-73.98287479880365", "rating": 4.0, "review_count": 99, "zip_code": "10023", "cuisineType": "korean", "insertedAtTimestamp": "2022-10-19 21:30:33.245306"}, {"businessID": "AqDXjw-mdtknK5PIWw7Wjg", "name": "Koro Koro", "address": "538 Jersey Ave, Jersey City, NJ 07302", "coordinates": "40.72122,-74.04615", "rating": 4.0, "review_count": 241, "zip_code": "07302", "cuisineType": "korean", "insertedAtTimestamp": "2022-10-19 21:30:33.465187"}, {"businessID": "sGkH0pgXE-QrzyNHkSm9Cw", "name": "NuLook Deli", "address": "4916 Vernon Blvd, Long Island City, NY 11101", "coordinates": "40.74301,-73.95426", "rating": 3.0, "review_count": 23, "zip_code": "11101", "cuisineType": "korean", "insertedAtTimestamp": "2022-10-19 21:30:33.684420"}, {"businessID": "9dikwBwukRl26W6Jqo09nQ", "name": "Oramen", "address": "579 6th Ave, New York, NY 10011", "coordinates": "40.73901,-73.99599", "rating": 4.0, "review_count": 321, "zip_code": "10011", "cuisineType": "korean", "insertedAtTimestamp": "2022-10-19 21:30:33.874786"}, {"businessID": "icpLRhJ1jpBX1zBGkt7Xqg", "name": "Teppen Ramen", "address": "159 E 55th St, New York, NY 10022", "coordinates": "40.75929,-73.96879", "rating": 4.5, "review_count": 533, "zip_code": "10022", "cuisineType": "korean", "insertedAtTimestamp": "2022-10-19 21:30:34.039646"}, {"businessID": "3JMdmYYCVf5sbNWElG6ClQ", "name": "Two Hands Seoul Fresh Corn Dogs", "address": "95 MacDougal St, New York, NY 10012", "coordinates": "40.72948,-74.00105", "rating": 5.0, "review_count": 13, "zip_code": "10012", "cuisineType": "korean", "insertedAtTimestamp": "2022-10-19 21:30:34.239357"}, {"businessID": "bokNBgAa9rmMMO8dkZVR1w", "name": "Rice & Miso", "address": "134 Nevins St, Brooklyn, NY 11217", "coordinates": "40.6845436245203,-73.9837776124477", "rating": 4.5, "review_count": 98, "zip_code": "11217", "cuisineType": "korean", "insertedAtTimestamp": "2022-10-19 21:30:34.417972"}, {"businessID": "Q4n9sIofNcwZ4y-3swaKKg", "name": "Bapcha Korean Cuisine Cart", "address": "W 49th St, New York, NY 10020", "coordinates": "40.75856,-73.97927", "rating": 3.5, "review_count": 64, "zip_code": "10020", "cuisineType": "korean", "insertedAtTimestamp": "2022-10-19 21:30:34.628098"}, {"businessID": "lr1cDLPA0n34f9FGtPbZVQ", "name": "Sushi Ikumi", "address": "135 Sullivan St, New York, NY 10012", "coordinates": "40.72668971545776,-74.0018095", "rating": 5.0, "review_count": 41, "zip_code": "10012", "cuisineType": "korean", "insertedAtTimestamp": "2022-10-19 21:30:35.074043"}, {"businessID": "3Jr_9I2ouYHDNk8XWKdZ3w", "name": "Sasabune", "address": "401 E 73rd St, New York, NY 10021", "coordinates": "40.76846,-73.95515", "rating": 4.0, "review_count": 421, "zip_code": "10021", "cuisineType": "korean", "insertedAtTimestamp": "2022-10-19 21:30:35.287450"}, {"businessID": "PqxGu5YqZjbaL8INAWqi_Q", "name": "Bap Do Duk", "address": "446 Broad Ave, Palisades Park, NJ 07650", "coordinates": "40.8509483,-73.9954071", "rating": 4.0, "review_count": 49, "zip_code": "07650", "cuisineType": "korean", "insertedAtTimestamp": "2022-10-19 21:30:35.497325"}, {"businessID": "MGd6HFEq1ALD58XWNviSXw", "name": "Time Out Market New York", "address": "55 Water St, Brooklyn, NY 11201", "coordinates": "40.70342863348067,-73.99214637055226", "rating": 4.0, "review_count": 408, "zip_code": "11201", "cuisineType": "korean", "insertedAtTimestamp": "2022-10-19 21:30:35.793055"}, {"businessID": "k6mrFyNzpC5QaNfhwXl8AQ", "name": "Takorea BBQ", "address": "805 Frank E Rodgers Blvd S, Harrison, NJ 07029", "coordinates": "40.739894,-74.155862", "rating": 4.0, "review_count": 376, "zip_code": "07029", "cuisineType": "korean", "insertedAtTimestamp": "2022-10-19 21:30:35.991550"}, {"businessID": "XzUW9MvEGOFs9_aNj11j2Q", "name": "Dinosaur Bar-B-Que", "address": "700 W 125th St, New York, NY 10027", "coordinates": "40.818098338924,-73.9608729269837", "rating": 4.0, "review_count": 3359, "zip_code": "10027", "cuisineType": "korean", "insertedAtTimestamp": "2022-10-19 21:30:36.209975"}, {"businessID": "Qli775QfVY4oFPNu7Cy5Tw", "name": "Yakitori Sun-Chan", "address": "2707 Broadway, New York, NY 10025", "coordinates": "40.7995,-73.9686399", "rating": 3.5, "review_count": 249, "zip_code": "10025", "cuisineType": "korean", "insertedAtTimestamp": "2022-10-19 21:30:36.431467"}, {"businessID": "oBcqZs0CAZjsLuMB-mNJ6A", "name": "Sticky's Finger Joint", "address": "484 3rd Ave, New York, NY 10016", "coordinates": "40.74505372839559,-73.9788811", "rating": 4.0, "review_count": 460, "zip_code": "10016", "cuisineType": "korean", "insertedAtTimestamp": "2022-10-19 21:30:36.621782"}, {"businessID": "YjDOSFuRWNp2d1znivWyIA", "name": "Sunrise Mart", "address": "494 Broome St, New York, NY 10012", "coordinates": "40.7232311,-74.0025149", "rating": 4.0, "review_count": 292, "zip_code": "10012", "cuisineType": "korean", "insertedAtTimestamp": "2022-10-19 21:30:37.840581"}, {"businessID": "44SY464xDHbvOcjDzRbKkQ", "name": "Ippudo NY", "address": "65 4th Ave, New York, NY 10003", "coordinates": "40.73092,-73.99015", "rating": 4.0, "review_count": 10410, "zip_code": "10003", "cuisineType": "korean", "insertedAtTimestamp": "2022-10-19 21:30:38.028956"}, {"businessID": "ya8HC5_97zGt3wNPWNNENA", "name": "Food Gallery 32", "address": "11 W 32nd St, New York, NY 10001", "coordinates": "40.74761,-73.98631", "rating": 4.0, "review_count": 872, "zip_code": "10001", "cuisineType": "korean", "insertedAtTimestamp": "2022-10-19 21:30:38.254755"}, {"businessID": "QAGFu7pqCAZUJkYkUB5pjg", "name": "Urbanspace", "address": "230 Park Ave, New York, NY 10169", "coordinates": "40.754455,-73.9760113", "rating": 4.0, "review_count": 680, "zip_code": "10169", "cuisineType": "korean", "insertedAtTimestamp": "2022-10-19 21:30:38.467338"}, {"businessID": "icZcEK39HXuL2q08i4EkkQ", "name": "Bessou", "address": "5 Bleecker St, New York, NY 10012", "coordinates": "40.725502,-73.992675", "rating": 4.0, "review_count": 356, "zip_code": "10012", "cuisineType": "korean", "insertedAtTimestamp": "2022-10-19 21:30:38.678584"}, {"businessID": "Y9xDoL1NqjmjnwODxgzdXg", "name": "JJ Dak", "address": "144 Main St, Fort Lee, NJ 07024", "coordinates": "40.85065,-73.96773", "rating": 4.5, "review_count": 21, "zip_code": "07024", "cuisineType": "korean", "insertedAtTimestamp": "2022-10-19 21:30:38.916346"}, {"businessID": "NGkr5QR9HwDhVjvgBW5_4g", "name": "39 K Food", "address": "720 2nd Ave, New York, NY 10016", "coordinates": "40.747625,-73.973561", "rating": 3.0, "review_count": 1, "zip_code": "10016", "cuisineType": "korean", "insertedAtTimestamp": "2022-10-19 21:30:39.161340"}, {"businessID": "bh_I5H4LYQNrJw5T9-lhVQ", "name": "Eddie Fancy Food", "address": "8611 19th Ave, Brooklyn, NY 11214", "coordinates": "40.6056042015553,-74.0006862580776", "rating": 4.5, "review_count": 54, "zip_code": "11214", "cuisineType": "korean", "insertedAtTimestamp": "2022-10-19 21:30:39.382682"}, {"businessID": "w2zQozUnGO2bxi29xbEwGA", "name": "Jongro Rice Hot Dog", "address": "33 W 32nd St, New York, NY 10001", "coordinates": "40.74786060320412,-73.98684282466675", "rating": 4.0, "review_count": 153, "zip_code": "10001", "cuisineType": "korean", "insertedAtTimestamp": "2022-10-19 21:30:39.589088"}, {"businessID": "Nnc2RVv5TPNAy70gOJrc-Q", "name": "Moonrise Izakaya", "address": "774 Amsterdam Ave, New York, NY 10025", "coordinates": "40.795399,-73.969762", "rating": 4.0, "review_count": 159, "zip_code": "10025", "cuisineType": "korean", "insertedAtTimestamp": "2022-10-19 21:30:39.785948"}, {"businessID": "SoZvIrx7TSRj-mV2izNwOQ", "name": "Gopchang Story  Fort Lee", "address": "214 Main St, Fort Lee, NJ 07024", "coordinates": "40.851128,-73.971", "rating": 4.0, "review_count": 82, "zip_code": "07024", "cuisineType": "korean", "insertedAtTimestamp": "2022-10-19 21:30:40.008552"}, {"businessID": "D6ZEcG1FCZ18nekMWrhgMg", "name": "Wokuni", "address": "327 Lexington Ave, New York, NY 10016", "coordinates": "40.7492189,-73.9773529", "rating": 4.0, "review_count": 347, "zip_code": "10016", "cuisineType": "korean", "insertedAtTimestamp": "2022-10-19 21:30:40.260833"}, {"businessID": "U5bc4d4tY3TZGvs88sCvFA", "name": "Bada Story", "address": "464 Sylvan Ave, Englewood Cliffs, NJ 07632", "coordinates": "40.87768,-73.95234", "rating": 4.0, "review_count": 61, "zip_code": "07632", "cuisineType": "korean", "insertedAtTimestamp": "2022-10-19 21:30:40.471853"}, {"businessID": "vcvQBFX9wejuqWf6ea9Clw", "name": "Peeps Kitchen", "address": "55 McGuinness Blvd S, Brooklyn, NY 11222", "coordinates": "40.72139,-73.94587", "rating": 5.0, "review_count": 37, "zip_code": "11222", "cuisineType": "korean", "insertedAtTimestamp": "2022-10-19 21:30:40.685757"}, {"businessID": "cqaEC8brOh7P2OLT_r2xNg", "name": "The Coop", "address": "133-42 39th Ave, Ste 103, Flushing, NY 11354", "coordinates": "40.7592888,-73.8326492", "rating": 4.0, "review_count": 1012, "zip_code": "11354", "cuisineType": "korean", "insertedAtTimestamp": "2022-10-19 21:30:40.887080"}, {"businessID": "vdAHJRWYTTLrrIYzHNmHsQ", "name": "Fuku", "address": "20 Hudson Yards, Unit RU 203, New York, NY 10001", "coordinates": "40.7491302490234,-73.9923629760742", "rating": 3.5, "review_count": 291, "zip_code": "10001", "cuisineType": "korean", "insertedAtTimestamp": "2022-10-19 21:30:41.045147"}, {"businessID": "KlVTn6XZdm03C0bL4aZ4oA", "name": "Oh K-Dog", "address": "70 7th Ave S, New York, NY 10014", "coordinates": "40.73197,-74.00398", "rating": 4.5, "review_count": 12, "zip_code": "10014", "cuisineType": "korean", "insertedAtTimestamp": "2022-10-19 21:30:41.262983"}, {"businessID": "0gPXct_l_82phIEoKdtWZw", "name": "RYUJIN", "address": "513 Grand St, Brooklyn, NY 11211", "coordinates": "40.711178187852,-73.9506256676857", "rating": 4.0, "review_count": 338, "zip_code": "11211", "cuisineType": "korean", "insertedAtTimestamp": "2022-10-19 21:30:41.527322"}, {"businessID": "bB8dHfAEJrF5tNcHr0yJjA", "name": "Gyu-Kaku Japanese BBQ", "address": "34 Cooper Sq, New York, NY 10003", "coordinates": "40.72822,-73.99142", "rating": 4.0, "review_count": 1772, "zip_code": "10003", "cuisineType": "korean", "insertedAtTimestamp": "2022-10-19 21:30:41.731120"}, {"businessID": "Zjdtcex73QIz2_MvEvDrFQ", "name": "MakiMaki Sushi", "address": "1369 6th Ave, New York, NY 10019", "coordinates": "40.7633913312621,-73.9780393019703", "rating": 4.0, "review_count": 237, "zip_code": "10019", "cuisineType": "korean", "insertedAtTimestamp": "2022-10-19 21:30:41.957076"}, {"businessID": "MWx4HB9p7pCzse9CInLuDw", "name": "Sushi Seki", "address": "1143 1st Ave, New York, NY 10065", "coordinates": "40.761918,-73.960536", "rating": 4.0, "review_count": 540, "zip_code": "10065", "cuisineType": "korean", "insertedAtTimestamp": "2022-10-19 21:30:42.165296"}, {"businessID": "f0CAuvkgAByWo4ceT3u9uw", "name": "Kobeyaki", "address": "110 W 40th St, New York, NY 10018", "coordinates": "40.753931,-73.985985", "rating": 3.5, "review_count": 314, "zip_code": "10018", "cuisineType": "korean", "insertedAtTimestamp": "2022-10-19 21:30:42.502767"}, {"businessID": "toqDpg0qMq-TOxJ2n7FbPQ", "name": "Bang Ga Nae", "address": "518 Broad Ave, Ridgefield, NJ 07657", "coordinates": "40.8339181186311,-74.0092921257019", "rating": 4.5, "review_count": 21, "zip_code": "07657", "cuisineType": "korean", "insertedAtTimestamp": "2022-10-19 21:30:42.723717"}, {"businessID": "_lRU0Iczcf5WSsxbDnwE6w", "name": "Chick Of Us", "address": "205 Allen St, New York, NY 10002", "coordinates": "40.72268,-73.98903", "rating": 5.0, "review_count": 11, "zip_code": "10002", "cuisineType": "korean", "insertedAtTimestamp": "2022-10-19 21:30:42.928337"}, {"businessID": "fb25QQAA6WB_1ljad-E4EA", "name": "Kinyobi", "address": "838 Main St, Hackensack, NJ 07601", "coordinates": "40.9056115,-74.0419801", "rating": 4.5, "review_count": 255, "zip_code": "07601", "cuisineType": "korean", "insertedAtTimestamp": "2022-10-19 21:30:43.127954"}, {"businessID": "XgNDhlefDhJ3TimoYrNlaQ", "name": "Gahwa Korean Restaurant", "address": "29-32 Union St, Flushing, NY 11354", "coordinates": "40.7713025,-73.8267556", "rating": 4.0, "review_count": 175, "zip_code": "11354", "cuisineType": "korean", "insertedAtTimestamp": "2022-10-19 21:30:43.336521"}, {"businessID": "2f0EWTvp3YDtGNKEEXKKhA", "name": "Naruto Ramen", "address": "1596 3rd Ave, New York, NY 10128", "coordinates": "40.781223,-73.952636", "rating": 3.5, "review_count": 1021, "zip_code": "10128", "cuisineType": "korean", "insertedAtTimestamp": "2022-10-19 21:30:43.555172"}, {"businessID": "0vSAR3Ym2fuehBvHSZyqIQ", "name": "Koi Restaurant", "address": "40 W 40th St, New York, NY 10018", "coordinates": "40.75306524578346,-73.98408130671038", "rating": 3.5, "review_count": 808, "zip_code": "10018", "cuisineType": "korean", "insertedAtTimestamp": "2022-10-19 21:30:43.996832"}, {"businessID": "OfhbwhWzIn6TYYpubLZNsQ", "name": "Tang Maru", "address": "500 10th St, Palisades Park, NJ 07650", "coordinates": "40.8472084713549,-73.9845913276076", "rating": 4.0, "review_count": 238, "zip_code": "07650", "cuisineType": "korean", "insertedAtTimestamp": "2022-10-19 21:30:44.326381"}, {"businessID": "SU14Pu68Esh6_M9NC6KC4Q", "name": "Gam Mee Ok Restaurant", "address": "485 Main St, Fort Lee, NJ 07024", "coordinates": "40.85549,-73.9773", "rating": 3.0, "review_count": 227, "zip_code": "07024", "cuisineType": "korean", "insertedAtTimestamp": "2022-10-19 21:30:44.536795"}, {"businessID": "gtixZFBnphHqxlE5ZlNqLg", "name": "bb.q Chicken 3rd Ave", "address": "383 3rd Ave, New York, NY 10016", "coordinates": "40.74157,-73.98093", "rating": 4.0, "review_count": 5, "zip_code": "10016", "cuisineType": "korean", "insertedAtTimestamp": "2022-10-19 21:30:44.799308"}, {"businessID": "SJ82Jd2eJxtu3oCj91sqPA", "name": "Sodam", "address": "156-50 Northern Blvd, Flushing, NY 11354", "coordinates": "40.763658,-73.808391", "rating": 4.0, "review_count": 252, "zip_code": "11354", "cuisineType": "korean", "insertedAtTimestamp": "2022-10-19 21:30:45.013199"}, {"businessID": "FLKABU82NNDnCvZSZD75Bg", "name": "Naruto Ramen", "address": "2634 Broadway, New York, NY 10025", "coordinates": "40.7968567,-73.9698717", "rating": 4.0, "review_count": 301, "zip_code": "10025", "cuisineType": "korean", "insertedAtTimestamp": "2022-10-19 21:30:45.197584"}, {"businessID": "So7eEBQ8rZK0ESq4CxSTSg", "name": "Spiced NYC", "address": "511 9th Ave, New York, NY 10018", "coordinates": "40.75625,-73.9946", "rating": 4.0, "review_count": 4, "zip_code": "10018", "cuisineType": "korean", "insertedAtTimestamp": "2022-10-19 21:30:45.422976"}, {"businessID": "nIx-xlDO83KwWP_5t3PyMw", "name": "Delissimo", "address": "39 E 60th St, New York, NY 10022", "coordinates": "40.76411,-73.97013", "rating": 3.5, "review_count": 68, "zip_code": "10022", "cuisineType": "korean", "insertedAtTimestamp": "2022-10-19 21:30:45.729031"}, {"businessID": "wgwRNXuUhdvmoTi2PMuupw", "name": "Mahsil", "address": "4007 150th St, Flushing, NY 11354", "coordinates": "40.76342,-73.81408", "rating": 4.0, "review_count": 53, "zip_code": "11354", "cuisineType": "korean", "insertedAtTimestamp": "2022-10-19 21:30:45.961506"}, {"businessID": "_9Hjy0gZ5TJ8D_LfYkV_bA", "name": "Mad For Chicken - Sunnyside", "address": "43-22 Queens Blvd, Sunnyside, NY 11104", "coordinates": "40.743129,-73.920801", "rating": 4.0, "review_count": 85, "zip_code": "11104", "cuisineType": "korean", "insertedAtTimestamp": "2022-10-19 21:30:46.270475"}, {"businessID": "ISxL2HWJNCazHAdy5oblJA", "name": "Coney Shack", "address": "100 Pearl St, New York, NY 10004", "coordinates": "40.76140851579951,-73.98063545283277", "rating": 4.5, "review_count": 299, "zip_code": "10004", "cuisineType": "korean", "insertedAtTimestamp": "2022-10-19 21:30:46.494442"}, {"businessID": "I4Z8vyaZjbD2aS5xoMeF8Q", "name": "Kiku Japanese Restaurant", "address": "50 W 55th St, New York, NY 10019", "coordinates": "40.7623443603516,-73.9770812988281", "rating": 3.0, "review_count": 116, "zip_code": "10019", "cuisineType": "korean", "insertedAtTimestamp": "2022-10-19 21:30:46.740905"}, {"businessID": "i8F0fnempD5fTb2CxbwKDw", "name": "Izakaya", "address": "326 E 6th St, New York, NY 10003", "coordinates": "40.72667,-73.98738", "rating": 4.0, "review_count": 273, "zip_code": "10003", "cuisineType": "korean", "insertedAtTimestamp": "2022-10-19 21:30:48.046104"}, {"businessID": "ULDVJYTT-47RqbLtlR_FUA", "name": "Ootoya Union Square", "address": "41 E 11th St, New York, NY 10003", "coordinates": "40.73316,-73.99273", "rating": 4.0, "review_count": 380, "zip_code": "10003", "cuisineType": "korean", "insertedAtTimestamp": "2022-10-19 21:30:48.247732"}, {"businessID": "Qi1AoRNcFEX8etII_RZkFg", "name": "Ajisai Japanese Fusion", "address": "795 Lexington Ave, New York, NY 10065", "coordinates": "40.763763,-73.966743", "rating": 3.5, "review_count": 171, "zip_code": "10065", "cuisineType": "korean", "insertedAtTimestamp": "2022-10-19 21:30:48.565902"}, {"businessID": "lY_gb_hNbit6GHBiOn3VeQ", "name": "Nami Nori", "address": "33 Carmine St, New York, NY 10014", "coordinates": "40.730284,-74.003212", "rating": 4.0, "review_count": 613, "zip_code": "10014", "cuisineType": "korean", "insertedAtTimestamp": "2022-10-19 21:30:48.798615"}, {"businessID": "ayPcRNuHNiXgS2oCc8FU9g", "name": "Caf\u00e9 Hestia", "address": "80 Maiden Ln, New York, NY 10038", "coordinates": "40.70711,-74.00748", "rating": 4.0, "review_count": 13, "zip_code": "10038", "cuisineType": "korean", "insertedAtTimestamp": "2022-10-19 21:30:48.982979"}, {"businessID": "nkfUKb7oWQt54Uz9VQLhUg", "name": "Butcher Bar", "address": "37-10 30th Ave, Astoria, NY 11103", "coordinates": "40.76431,-73.9164", "rating": 4.0, "review_count": 2241, "zip_code": "11103", "cuisineType": "korean", "insertedAtTimestamp": "2022-10-19 21:30:49.178989"}, {"businessID": "cevkTGf4vX_IBU_bGlz9ww", "name": "Ubu", "address": "205 Hudson St, Hoboken, NJ 07030", "coordinates": "40.738641,-74.0292022", "rating": 3.5, "review_count": 108, "zip_code": "07030", "cuisineType": "korean", "insertedAtTimestamp": "2022-10-19 21:30:49.364197"}, {"businessID": "msTXnS05fuNxeyflpNfUrQ", "name": "Kuku Chicken Williamsburg", "address": "137 Havemeyer St, Brooklyn, NY 11211", "coordinates": "40.71199,-73.95716", "rating": 4.5, "review_count": 27, "zip_code": "11211", "cuisineType": "korean", "insertedAtTimestamp": "2022-10-19 21:30:49.521809"}, {"businessID": "wcnfhQ7Q_us38Q1uEARagw", "name": "Sushi Jin", "address": "316 E 84th St, New York, NY 10028", "coordinates": "40.776032,-73.951988", "rating": 5.0, "review_count": 59, "zip_code": "10028", "cuisineType": "korean", "insertedAtTimestamp": "2022-10-19 21:30:49.806983"}, {"businessID": "AR_0QV4O12sHojkky_IMkg", "name": "Canal Street Market", "address": "265 Canal St, New York, NY 10013", "coordinates": "40.71897,-74.00102", "rating": 4.0, "review_count": 205, "zip_code": "10013", "cuisineType": "korean", "insertedAtTimestamp": "2022-10-19 21:30:50.297181"}, {"businessID": "PKE5qKY7FXOoZt2NiWtbig", "name": "Sticky's Finger Joint", "address": "598 9th Ave, New York, NY 10036", "coordinates": "40.7588493,-73.9919546", "rating": 4.0, "review_count": 364, "zip_code": "10036", "cuisineType": "korean", "insertedAtTimestamp": "2022-10-19 21:30:50.543898"}, {"businessID": "WxYKoCNEMjSLW2CQab2cRg", "name": "Ondubu", "address": "73 Park Ave, Rutherford, NJ 07070", "coordinates": "40.827029,-74.104766", "rating": 4.5, "review_count": 44, "zip_code": "07070", "cuisineType": "korean", "insertedAtTimestamp": "2022-10-19 21:30:50.778366"}, {"businessID": "MwtXOkRUndPU-ivbtLD-bQ", "name": "Amura Japanese", "address": "1567 2nd Ave, New York, NY 10028", "coordinates": "40.775001,-73.9542", "rating": 4.0, "review_count": 371, "zip_code": "10028", "cuisineType": "korean", "insertedAtTimestamp": "2022-10-19 21:30:51.008303"}, {"businessID": "P_UREWCQxEYVbBa-KW_Wew", "name": "EN Japanese Brasserie", "address": "435 Hudson St, New York, NY 10014", "coordinates": "40.7306,-74.00698", "rating": 4.0, "review_count": 1337, "zip_code": "10014", "cuisineType": "korean", "insertedAtTimestamp": "2022-10-19 21:30:51.290365"}, {"businessID": "TXEl8kyZ4de8CoW7nT_i3A", "name": "Roy's Fish Market", "address": "1138 1st Ave, New York, NY 10065", "coordinates": "40.7617347309091,-73.9604171678531", "rating": 4.5, "review_count": 234, "zip_code": "10065", "cuisineType": "korean", "insertedAtTimestamp": "2022-10-19 21:30:51.516536"}, {"businessID": "ATnx_OJQ3P-q5TKohVB7EA", "name": "So Moon Nan Jip", "address": "238 Broad Ave, Palisades Park, NJ 07650", "coordinates": "40.8465327,-73.9986421", "rating": 3.5, "review_count": 507, "zip_code": "07650", "cuisineType": "korean", "insertedAtTimestamp": "2022-10-19 21:30:51.727975"}, {"businessID": "WVgYnHEQTZzDkqpvEV4mbQ", "name": "Myung San", "address": "162-21 Depot Rd, Flushing, NY 11358", "coordinates": "40.7621256898097,-73.8031031180687", "rating": 4.0, "review_count": 81, "zip_code": "11358", "cuisineType": "korean", "insertedAtTimestamp": "2022-10-19 21:30:51.955263"}, {"businessID": "N0qeEodiddbFR6TlgTmkOg", "name": "Kaya Garden", "address": "450 Broad Ave, Leonia, NJ 07605", "coordinates": "40.8657,-73.98541", "rating": 4.0, "review_count": 104, "zip_code": "07605", "cuisineType": "korean", "insertedAtTimestamp": "2022-10-19 21:30:52.174049"}, {"businessID": "JvkUu0bpYEEPOvZWyBtTUw", "name": "KPOT Korean BBQ & Hot Pot", "address": "45 Nathaniel Pl, Englewood, NJ 07631", "coordinates": "40.8957,-73.97458", "rating": 4.0, "review_count": 79, "zip_code": "07631", "cuisineType": "korean", "insertedAtTimestamp": "2022-10-19 21:30:52.330594"}, {"businessID": "lN5tiN-4eBNeh8F0zcI6Hw", "name": "Fuyu Ramen", "address": "4617 Queens Blvd, Sunnyside, NY 11104", "coordinates": "40.7434146,-73.9182384", "rating": 4.5, "review_count": 188, "zip_code": "11104", "cuisineType": "korean", "insertedAtTimestamp": "2022-10-19 21:30:52.534636"}, {"businessID": "a72Ef9G4VV1i-POTZJvbHg", "name": "Kim Na Food Truck", "address": "E 25th St Lexington Ave, New York, NY 10010", "coordinates": "40.7408026524036,-73.9838092822248", "rating": 3.5, "review_count": 18, "zip_code": "10010", "cuisineType": "korean", "insertedAtTimestamp": "2022-10-19 21:30:52.769766"}, {"businessID": "wrFoBJM9SsHIfz2VaqgmSg", "name": "Dallas BBQ", "address": "241 W 42nd St, New York, NY 10036", "coordinates": "40.7569835859189,-73.9888188242912", "rating": 3.0, "review_count": 1988, "zip_code": "10036", "cuisineType": "korean", "insertedAtTimestamp": "2022-10-19 21:30:52.999804"}, {"businessID": "O9WmKufAUqDM0j2HpgLVlw", "name": "Tamashii Ramen", "address": "2905 Broadway, Astoria, NY 11106", "coordinates": "40.7628026,-73.926578", "rating": 4.0, "review_count": 803, "zip_code": "11106", "cuisineType": "korean", "insertedAtTimestamp": "2022-10-19 21:30:53.164581"}, {"businessID": "MWq62A_i9i8i-VoEeSRqRw", "name": "BCD Tofu House", "address": "1640 Schlosser St, Unit C1, Fort Lee, NJ 07024", "coordinates": "40.849631647668154,-73.97011202825998", "rating": 4.0, "review_count": 539, "zip_code": "07024", "cuisineType": "korean", "insertedAtTimestamp": "2022-10-19 21:30:53.458541"}, {"businessID": "8IHja8GNmW61cCWj1nIiuA", "name": "Jeju-Island", "address": "149-22 41st Ave, Queens, NY 11355", "coordinates": "40.762162594703405,-73.8149569", "rating": 4.5, "review_count": 18, "zip_code": "11355", "cuisineType": "korean", "insertedAtTimestamp": "2022-10-19 21:30:53.662993"}, {"businessID": "Jwa9ibcOtv42oNpqdE7z8A", "name": "Ani Ramen House", "address": "218 Newark Ave, Jersey City, NJ 07302", "coordinates": "40.72234,-74.04699", "rating": 4.0, "review_count": 729, "zip_code": "07302", "cuisineType": "korean", "insertedAtTimestamp": "2022-10-19 21:30:53.894675"}, {"businessID": "raelHbSJ_gTo701c-KyXWg", "name": "Minca", "address": "536 E 5th St, New York, NY 10009", "coordinates": "40.72412,-73.98288", "rating": 4.0, "review_count": 1710, "zip_code": "10009", "cuisineType": "korean", "insertedAtTimestamp": "2022-10-19 21:30:54.111949"}, {"businessID": "m9Ud-Z_3AnRca9gUe95crQ", "name": "Gansevoort Liberty Market", "address": "101 Liberty St, New York, NY 10007", "coordinates": "40.710206,-74.011823", "rating": 4.0, "review_count": 300, "zip_code": "10007", "cuisineType": "korean", "insertedAtTimestamp": "2022-10-19 21:30:54.292606"}, {"businessID": "o5EIqc4LekAoeLHiYjzLqQ", "name": "Bar Goto", "address": "245 Eldridge St, New York, NY 10002", "coordinates": "40.72277,-73.98989", "rating": 4.5, "review_count": 254, "zip_code": "10002", "cuisineType": "korean", "insertedAtTimestamp": "2022-10-19 21:30:54.511957"}, {"businessID": "0ePn6TQSJQky4ueKeGQvpQ", "name": "SUGARFISH by sushi nozawa", "address": "33 E 20th St, New York, NY 10003", "coordinates": "40.73901,-73.98882", "rating": 4.0, "review_count": 955, "zip_code": "10003", "cuisineType": "korean", "insertedAtTimestamp": "2022-10-19 21:30:54.678994"}, {"businessID": "fodZOSMMVFK_vBQ8h-FxSA", "name": "BentOn", "address": "38-40 Crescent St, Long Island City, NY 11101", "coordinates": "40.75497,-73.93692", "rating": 4.0, "review_count": 7, "zip_code": "11101", "cuisineType": "korean", "insertedAtTimestamp": "2022-10-19 21:30:54.874962"}, {"businessID": "TGe5KcS2NuAL0z13Lnm_dw", "name": "Bossam House", "address": "464 Broad Ave, Palisades Park, NJ 07650", "coordinates": "40.8519145099471,-73.9946667104959", "rating": 4.5, "review_count": 73, "zip_code": "07650", "cuisineType": "korean", "insertedAtTimestamp": "2022-10-19 21:30:55.110898"}, {"businessID": "xZQ9YfOeBtFC6nWGGobjUg", "name": "Jongro Gopchang", "address": "22 W 32nd St, Fl 5, New York, NY 10001", "coordinates": "40.74763,-73.98686", "rating": 3.5, "review_count": 6, "zip_code": "10001", "cuisineType": "korean", "insertedAtTimestamp": "2022-10-19 21:30:55.319818"}, {"businessID": "Fv6ueSQwc_ITpXEhybHvtA", "name": "RA Sushi Times Square", "address": "229 West 43rd St, Unit 221, New York, NY 10036", "coordinates": "40.7574225387188,-73.9874100349182", "rating": 3.5, "review_count": 867, "zip_code": "10036", "cuisineType": "korean", "insertedAtTimestamp": "2022-10-19 21:30:55.512936"}, {"businessID": "FAALx4s7PBtCZWKFqRNPNQ", "name": "Tiger Box", "address": "169 Park Ave, Brooklyn, NY 11205", "coordinates": "40.6963379,-73.972758", "rating": 4.5, "review_count": 75, "zip_code": "11205", "cuisineType": "korean", "insertedAtTimestamp": "2022-10-19 21:30:55.711825"}, {"businessID": "16heVvLqYfLpl8mC1RN3Bg", "name": "Laojie Hotpot", "address": "811 53rd St, Brooklyn, NY 11220", "coordinates": "40.6389709339157,-74.0046846944427", "rating": 4.5, "review_count": 707, "zip_code": "11220", "cuisineType": "korean", "insertedAtTimestamp": "2022-10-19 21:30:55.883042"}, {"businessID": "FXimZKjpMjbDR20M2ruhvg", "name": "Sapps", "address": "27-26 Jackson Ave, Long Island City, NY 11101", "coordinates": "40.74762,-73.94008", "rating": 4.0, "review_count": 258, "zip_code": "11101", "cuisineType": "korean", "insertedAtTimestamp": "2022-10-19 21:30:56.092286"}, {"businessID": "RYKGs45OjF-vlb2Ds2Jb_g", "name": "Izakaya Juraku", "address": "121 Ludlow St, New York, NY 10002", "coordinates": "40.7196796287355,-73.9887088537216", "rating": 4.5, "review_count": 173, "zip_code": "10002", "cuisineType": "korean", "insertedAtTimestamp": "2022-10-19 21:30:56.330658"}, {"businessID": "7U9iB23UJB2NSe2Q6OCmgw", "name": "Mad For Chicken - Astoria", "address": "36-10 30th Ave, Astoria, NY 11103", "coordinates": "40.76471065730614,-73.91717615977826", "rating": 3.5, "review_count": 32, "zip_code": "11103", "cuisineType": "korean", "insertedAtTimestamp": "2022-10-19 21:30:56.589705"}, {"businessID": "Yv2W9NMGgLiFHjatC-oHag", "name": "mochiron", "address": "34-18 30th Ave, Astoria, NY 11103", "coordinates": "40.7653,-73.91856", "rating": 4.0, "review_count": 120, "zip_code": "11103", "cuisineType": "korean", "insertedAtTimestamp": "2022-10-19 21:30:56.808461"}, {"businessID": "87x1XzjA1CZvII84NfUW2A", "name": "Buddha - Bar Restaurant New York", "address": "62 Thomas St, New York, NY 10013", "coordinates": "40.71669,-74.00734", "rating": 3.5, "review_count": 112, "zip_code": "10013", "cuisineType": "korean", "insertedAtTimestamp": "2022-10-19 21:30:58.293752"}, {"businessID": "PjjpgjY_sdawJU1JHbyNTQ", "name": "Temakase", "address": "157 Second Ave, New York, NY 10003", "coordinates": "40.729711,-73.987127", "rating": 4.5, "review_count": 512, "zip_code": "10003", "cuisineType": "korean", "insertedAtTimestamp": "2022-10-19 21:30:58.662376"}, {"businessID": "y0iJ2BrB2rrOM-hogOO1mg", "name": "Yama Ramen", "address": "60 W 48th St, Fl 2, New York, NY 10036", "coordinates": "40.7581,-73.9806399", "rating": 3.5, "review_count": 293, "zip_code": "10036", "cuisineType": "korean", "insertedAtTimestamp": "2022-10-19 21:30:58.858185"}, {"businessID": "1wawnv6mzqatgA17pukdZw", "name": "Nakaji", "address": "48 Bowery, New York, NY 10013", "coordinates": "40.7157,-73.99663", "rating": 4.0, "review_count": 66, "zip_code": "10013", "cuisineType": "korean", "insertedAtTimestamp": "2022-10-19 21:30:59.099397"}, {"businessID": "xbzUfm4PjqyKMg1eZTLo6A", "name": "Halal Mama", "address": "160 University Ave, Newark, NJ 07102", "coordinates": "40.7422335269512,-74.1735648249168", "rating": 3.5, "review_count": 8, "zip_code": "07102", "cuisineType": "korean", "insertedAtTimestamp": "2022-10-19 21:30:59.294713"}, {"businessID": "Aw69I2eD-lYffytWGGYM8A", "name": "Pinwheel Garden Dumpling & Noodle Bar", "address": "318 Communipaw Ave, Jersey City, NJ 07304", "coordinates": "40.71039,-74.06102", "rating": 4.5, "review_count": 382, "zip_code": "07304", "cuisineType": "korean", "insertedAtTimestamp": "2022-10-19 21:30:59.805257"}, {"businessID": "tTOVOkgXehSp4fhzGFbpsA", "name": "Cafe Cello", "address": "48 W 46th St, New York, NY 10036", "coordinates": "40.75671,-73.98122", "rating": 4.0, "review_count": 48, "zip_code": "10036", "cuisineType": "korean", "insertedAtTimestamp": "2022-10-19 21:31:00.006686"}, {"businessID": "vuccqiNbe1nDqajthJR-KQ", "name": "Bonchon", "address": "267 W 23rd St, New York, NY 10011", "coordinates": "40.74522041,-73.99778917", "rating": 3.0, "review_count": 130, "zip_code": "10011", "cuisineType": "korean", "insertedAtTimestamp": "2022-10-19 21:31:00.183671"}, {"businessID": "0zcgBHXbaJn0ZxgpcTJ1aQ", "name": "Nostrand Cafe", "address": "261 Nostrand Ave, Brooklyn, NY 11216", "coordinates": "40.689746,-73.951286", "rating": 4.5, "review_count": 127, "zip_code": "11216", "cuisineType": "korean", "insertedAtTimestamp": "2022-10-19 21:31:00.363584"}, {"businessID": "dYPY-6cpPIDWYkdWvM2N0A", "name": "Kun Sohn Korean Noodle House", "address": "35-04 154th St, Flushing, NY 11354", "coordinates": "40.7658289,-73.8108625", "rating": 4.5, "review_count": 118, "zip_code": "11354", "cuisineType": "korean", "insertedAtTimestamp": "2022-10-19 21:31:00.557422"}, {"businessID": "Z9aKhli3CtrRcPqMz31gjg", "name": "Hansang Restaurant", "address": "520 Bergen Blvd, Palisades Park, NJ 07650", "coordinates": "40.84779048097749,-73.98472622331037", "rating": 4.0, "review_count": 78, "zip_code": "07650", "cuisineType": "korean", "insertedAtTimestamp": "2022-10-19 21:31:00.800865"}, {"businessID": "sN5DM0aBacVUZ1uCrODJbw", "name": "Cuisine K", "address": "242-258 Greenwich St, New York, NY 10007", "coordinates": "40.7145575491987,-74.0115081595686", "rating": 3.5, "review_count": 16, "zip_code": "10007", "cuisineType": "korean", "insertedAtTimestamp": "2022-10-19 21:31:00.998456"}, {"businessID": "k3zGo29AJQA8PrDo5mEi7A", "name": "Myung Dong Noodle House", "address": "2013 Lemoine Ave, Fort Lee, NJ 07024", "coordinates": "40.8518601,-73.9698527", "rating": 3.5, "review_count": 349, "zip_code": "07024", "cuisineType": "korean", "insertedAtTimestamp": "2022-10-19 21:31:01.230309"}, {"businessID": "K3Pol2TudEUXgjWeABHeGA", "name": "Maiden Korea", "address": "316 5th Ave, New York, NY 10001", "coordinates": "40.74712996071734,-73.98573998361826", "rating": 4.0, "review_count": 20, "zip_code": "10001", "cuisineType": "korean", "insertedAtTimestamp": "2022-10-19 21:31:01.433098"}, {"businessID": "U0deo-JRQmHrru0uSf6QWA", "name": "Virgil's Real BBQ - New York", "address": "152 W 44th St, Times Square, New York, NY 10036", "coordinates": "40.75685,-73.9851", "rating": 3.5, "review_count": 1761, "zip_code": "10036", "cuisineType": "korean", "insertedAtTimestamp": "2022-10-19 21:31:01.610880"}, {"businessID": "BLnq_CETaoJYQB7U3IxGCw", "name": "Mr.Chicken & Mrs.Tea", "address": "150-29 Crossbay Blvd, Ste 1, Ozone Park, NY 11417", "coordinates": "40.6698487,-73.8423077", "rating": 4.5, "review_count": 110, "zip_code": "11417", "cuisineType": "korean", "insertedAtTimestamp": "2022-10-19 21:31:01.811657"}, {"businessID": "NwpMub7ITt7sI5rRBvOuQA", "name": "Waffle & Bubble", "address": "6306 Bergenline Ave, West New York, NJ 07093", "coordinates": "40.7919610959615,-74.0138012543321", "rating": 4.5, "review_count": 2, "zip_code": "07093", "cuisineType": "korean", "insertedAtTimestamp": "2022-10-19 21:31:02.044838"}, {"businessID": "t7BIiUN0tFg33kySuuQ0aQ", "name": "Masa", "address": "10 Columbus Cir, Fl 4, Time Warner Center, New York, NY 10019", "coordinates": "40.7685297553528,-73.98304619784298", "rating": 4.0, "review_count": 385, "zip_code": "10019", "cuisineType": "korean", "insertedAtTimestamp": "2022-10-19 21:31:02.262170"}, {"businessID": "oH0vbJFtK7RM-f5JCXDXyA", "name": "Dynasty Taste", "address": "539 E Tremont Ave, Bronx, NY 10457", "coordinates": "40.846789,-73.895408", "rating": 4.5, "review_count": 8, "zip_code": "10457", "cuisineType": "korean", "insertedAtTimestamp": "2022-10-19 21:31:02.458855"}, {"businessID": "9LqZoFIN7dbRfNk8YMgueg", "name": "YUBU SoHo", "address": "46 Grand St, New York, NY 10013", "coordinates": "40.722654,-74.003949", "rating": 5.0, "review_count": 4, "zip_code": "10013", "cuisineType": "korean", "insertedAtTimestamp": "2022-10-19 21:31:02.645474"}, {"businessID": "5V2P6CVsz9wHCZ_M-JMT1w", "name": "Gayeon", "address": "2020 Hudson St, Fort Lee, NJ 07024", "coordinates": "40.8513843,-73.9689942", "rating": 3.5, "review_count": 196, "zip_code": "07024", "cuisineType": "korean", "insertedAtTimestamp": "2022-10-19 21:31:02.891166"}, {"businessID": "hol0xoP_4m4EmJBo9fLszQ", "name": "Kimchi Guys", "address": "172 Newark Ave, Jersey City, NJ 07302", "coordinates": "40.72159196425567,-74.04502284444553", "rating": 4.0, "review_count": 2, "zip_code": "07302", "cuisineType": "korean", "insertedAtTimestamp": "2022-10-19 21:31:03.093699"}, {"businessID": "IioDQDntKQm9r10OmNTIXQ", "name": "SGD Dubu So Gong Dong Tofu & Korean BBQ", "address": "450 Hackensack Ave, Ste 22, Hackensack, NJ 07601", "coordinates": "40.90903,-74.028443", "rating": 3.5, "review_count": 87, "zip_code": "07601", "cuisineType": "korean", "insertedAtTimestamp": "2022-10-19 21:31:03.310054"}, {"businessID": "t1_qBEjXscQn-mp6-or_sw", "name": "Suyo Gastrofusion", "address": "1401 Plaza Dr, Bronx, NY 10452", "coordinates": "40.84061,-73.91825", "rating": 4.5, "review_count": 281, "zip_code": "10452", "cuisineType": "korean", "insertedAtTimestamp": "2022-10-19 21:31:03.527166"}, {"businessID": "46GnKuRv1SKz78CWgdc8SQ", "name": "Goo Gong Tan", "address": "40-09 149th Pl, Flushing, NY 11354", "coordinates": "40.76318,-73.81492", "rating": 3.5, "review_count": 125, "zip_code": "11354", "cuisineType": "korean", "insertedAtTimestamp": "2022-10-19 21:31:03.774471"}, {"businessID": "QXW-RUQDs1r4VwwY18T4_Q", "name": "Seoul", "address": "11 W 32nd St, New York, NY 10001", "coordinates": "40.74761,-73.98631", "rating": 4.0, "review_count": 24, "zip_code": "10001", "cuisineType": "korean", "insertedAtTimestamp": "2022-10-19 21:31:04.083545"}, {"businessID": "WLl0nKeWBksVM5SkKKuLpg", "name": "TabeTomo", "address": "131 Avenue A, New York, NY 10009", "coordinates": "40.72688,-73.98311", "rating": 4.0, "review_count": 503, "zip_code": "10009", "cuisineType": "korean", "insertedAtTimestamp": "2022-10-19 21:31:04.299940"}, {"businessID": "xUD5j3fq3CExLfyV-GhHPA", "name": "Tabata Ramen", "address": "540 9th Ave, New York, NY 10018", "coordinates": "40.756877,-73.993382", "rating": 3.5, "review_count": 638, "zip_code": "10018", "cuisineType": "korean", "insertedAtTimestamp": "2022-10-19 21:31:04.513256"}, {"businessID": "NVtz1npMTJBAC0MMrB6MdA", "name": "Pranzo", "address": "100 Broad St, New York, NY 10004", "coordinates": "40.70345,-74.01213", "rating": 5.0, "review_count": 1, "zip_code": "10004", "cuisineType": "korean", "insertedAtTimestamp": "2022-10-19 21:31:04.778743"}, {"businessID": "mlGfXoxc8cEss8Yms6VrXg", "name": "Fette Sau", "address": "354 Metropolitan Ave, Brooklyn, NY 11211", "coordinates": "40.714066,-73.956327", "rating": 4.0, "review_count": 2302, "zip_code": "11211", "cuisineType": "korean", "insertedAtTimestamp": "2022-10-19 21:31:04.999286"}, {"businessID": "97dD6qG56uXMU9SonTx_jw", "name": "Kim Ga Meon Ok", "address": "322 Commercial Ave, UNIT C, Palisades Park, NJ 07650", "coordinates": "40.85181,-74.00179", "rating": 4.5, "review_count": 17, "zip_code": "07650", "cuisineType": "korean", "insertedAtTimestamp": "2022-10-19 21:31:05.180387"}, {"businessID": "lxQ-tzFmL1tmUqZUN-CSRQ", "name": "Bozu", "address": "296 Grand St, Brooklyn, NY 11211", "coordinates": "40.7129,-73.95749", "rating": 4.0, "review_count": 869, "zip_code": "11211", "cuisineType": "korean", "insertedAtTimestamp": "2022-10-19 21:31:05.386100"}, {"businessID": "L6MbVViZUG0SQQqWQc4MDQ", "name": "GG Tokyo", "address": "120 E 28th St, New York, NY 10016", "coordinates": "40.74283,-73.98319", "rating": 3.5, "review_count": 7, "zip_code": "10016", "cuisineType": "korean", "insertedAtTimestamp": "2022-10-19 21:31:05.579885"}, {"businessID": "00knD0qT1obuq3cJ-lWcIw", "name": "Shinjuku Ramen", "address": "58 W 56th St, New York, NY 10019", "coordinates": "40.76326,-73.97706", "rating": 4.5, "review_count": 44, "zip_code": "10019", "cuisineType": "korean", "insertedAtTimestamp": "2022-10-19 21:31:05.855755"}, {"businessID": "_A9wLSvvbGNt_IcBaO9nCA", "name": "Yakitori 39", "address": "252-254 Degraw Ave, Teaneck, NJ 07666", "coordinates": "40.87518,-74.0213", "rating": 4.0, "review_count": 217, "zip_code": "07666", "cuisineType": "korean", "insertedAtTimestamp": "2022-10-19 21:31:06.075614"}, {"businessID": "3pBnrAgtUAMlYwlGBJtuxA", "name": "Bon Cafe Et Restaurant", "address": "4131 Queens Blvd, Sunnyside, NY 11104", "coordinates": "40.743970060523495,-73.9225025", "rating": 4.5, "review_count": 11, "zip_code": "11104", "cuisineType": "korean", "insertedAtTimestamp": "2022-10-19 21:31:06.293535"}, {"businessID": "jPqvHf8SszsIOqP1DSA6Sg", "name": "Halmae Noodle", "address": "413 Broad Ave, Palisades Park, NJ 07650", "coordinates": "40.8503538,-73.9962792", "rating": 4.5, "review_count": 150, "zip_code": "07650", "cuisineType": "korean", "insertedAtTimestamp": "2022-10-19 21:31:06.495498"}, {"businessID": "RoqLH-4rDugHlduthnZggg", "name": "Flame Hibachi", "address": "381 3rd Ave, 2FL, New York, NY 10016", "coordinates": "40.74152,-73.98097", "rating": 4.0, "review_count": 191, "zip_code": "10016", "cuisineType": "korean", "insertedAtTimestamp": "2022-10-19 21:31:06.685162"}, {"businessID": "hvrQQ0YWqgw0__OnofqXag", "name": "Kuu Ramen", "address": "20 John St, New York, NY 10038", "coordinates": "40.7096786,-74.0089569", "rating": 4.0, "review_count": 768, "zip_code": "10038", "cuisineType": "korean", "insertedAtTimestamp": "2022-10-19 21:31:06.912106"}, {"businessID": "nAH69T_51LpF7EuBDSjIpQ", "name": "RPM Underground", "address": "246 W 54th St, New York, NY 10019", "coordinates": "40.7642049,-73.9834251", "rating": 4.5, "review_count": 78, "zip_code": "10019", "cuisineType": "korean", "insertedAtTimestamp": "2022-10-19 21:31:07.143798"}, {"businessID": "eo3ML5g-Nt9vsvUfWqg-1w", "name": "Gorilla Grill", "address": "606 Anderson Ave, Cliffside Park, NJ 07010", "coordinates": "40.8247299665005,-73.9880000799894", "rating": 4.0, "review_count": 182, "zip_code": "07010", "cuisineType": "korean", "insertedAtTimestamp": "2022-10-19 21:31:07.343148"}, {"businessID": "oI3WqyqyP5OGtgGF-7qYCg", "name": "Memphis Seoul", "address": "569 Lincoln Pl, Brooklyn, NY 11238", "coordinates": "40.6716953,-73.9578342", "rating": 3.5, "review_count": 98, "zip_code": "11238", "cuisineType": "korean", "insertedAtTimestamp": "2022-10-19 21:31:08.787900"}, {"businessID": "i8h1ghJN7NdZmvIE3T6-yg", "name": "Kyuramen - Long Island City", "address": "27-17 42nd Rd, Long Island City, NY 11101", "coordinates": "40.7494198,-73.9402295", "rating": 4.5, "review_count": 79, "zip_code": "11101", "cuisineType": "korean", "insertedAtTimestamp": "2022-10-19 21:31:09.082790"}, {"businessID": "s-b1Mn_Gzkftz2MCjZ3lwg", "name": "Turntable LP Bar & Karaoke", "address": "34-36 W 32nd St, Fl 5, New York, NY 10001", "coordinates": "40.74769,-73.98735", "rating": 4.5, "review_count": 364, "zip_code": "10001", "cuisineType": "korean", "insertedAtTimestamp": "2022-10-19 21:31:09.316502"}, {"businessID": "N-yJYDnCQzO3w5n2Zmtc0A", "name": "Makina Cafe", "address": "36-47 30th St, Long Island City, NY 11106", "coordinates": "40.7556053,-73.931351", "rating": 4.5, "review_count": 82, "zip_code": "11106", "cuisineType": "korean", "insertedAtTimestamp": "2022-10-19 21:31:09.529189"}, {"businessID": "LeaMwZ8W2wmw6ZmVPnCLAg", "name": "The Cast Iron Pot 3", "address": "157-26 Northern Blvd, Flushing, NY 11354", "coordinates": "40.7634948,-73.8077104", "rating": 4.0, "review_count": 461, "zip_code": "11354", "cuisineType": "korean", "insertedAtTimestamp": "2022-10-19 21:31:09.728149"}, {"businessID": "VR7vl4qSerSyEMpHc0Bp9w", "name": "Go! Go! Curry!", "address": "231 Thompson St, New York, NY 10012", "coordinates": "40.7295,-73.999026", "rating": 4.0, "review_count": 255, "zip_code": "10012", "cuisineType": "korean", "insertedAtTimestamp": "2022-10-19 21:31:09.994155"}, {"businessID": "PjF1dqCskf3T8jH2gA66JA", "name": "Pelicana Chicken", "address": "52 East 8th St, New York, NY 10003", "coordinates": "40.73102,-73.99373", "rating": 3.5, "review_count": 102, "zip_code": "10003", "cuisineType": "korean", "insertedAtTimestamp": "2022-10-19 21:31:10.181103"}, {"businessID": "qp9Q6k7uvx5Y206aqKBuQg", "name": "moonbowls", "address": "500 Cortlandt St, Belleville, NJ 07109", "coordinates": "40.79761,-74.14562", "rating": 4.0, "review_count": 2, "zip_code": "07109", "cuisineType": "korean", "insertedAtTimestamp": "2022-10-19 21:31:10.379997"}, {"businessID": "No4ny0agfERlycMQwkLD4w", "name": "Purple Yam", "address": "1314 Cortelyou Rd, Brooklyn, NY 11226", "coordinates": "40.6402061280108,-73.9656538486476", "rating": 3.5, "review_count": 455, "zip_code": "11226", "cuisineType": "korean", "insertedAtTimestamp": "2022-10-19 21:31:10.628524"}, {"businessID": "RwT7wGzZzaMypW5mjNaNNA", "name": "Bonchon", "address": "68 Willoughby St, Brooklyn, NY 11201", "coordinates": "40.692088,-73.98593", "rating": 3.5, "review_count": 150, "zip_code": "11201", "cuisineType": "korean", "insertedAtTimestamp": "2022-10-19 21:31:10.815764"}, {"businessID": "7g1pN6JgTf03ts4Jupgdmw", "name": "6b", "address": "60 E 42nd St, Lobby Level, New York, NY 10165", "coordinates": "40.7521961,-73.9787133", "rating": 4.0, "review_count": 83, "zip_code": "10165", "cuisineType": "korean", "insertedAtTimestamp": "2022-10-19 21:31:11.746703"}, {"businessID": "PwrYnl3j3YCGzILX_5UHpw", "name": "Davelle", "address": "102 Suffolk St, New York, NY 10002", "coordinates": "40.71852,-73.98605", "rating": 4.0, "review_count": 303, "zip_code": "10002", "cuisineType": "korean", "insertedAtTimestamp": "2022-10-19 21:31:11.955097"}, {"businessID": "sZ_jO_NYyOFfTalCNC_2Ow", "name": "White Tiger Tavern", "address": "455 Myrtle Ave, Brooklyn, NY 11205", "coordinates": "40.6934707,-73.96738289999999", "rating": 4.5, "review_count": 3, "zip_code": "11205", "cuisineType": "korean", "insertedAtTimestamp": "2022-10-19 21:31:12.178548"}, {"businessID": "FU3_u6uZ5d5Zli_XffQnlg", "name": "Dr. Clark", "address": "104 Bayard St, New York, NY 10013", "coordinates": "40.71618,-73.99981", "rating": 3.0, "review_count": 126, "zip_code": "10013", "cuisineType": "korean", "insertedAtTimestamp": "2022-10-19 21:31:12.379289"}, {"businessID": "ves5zPXMxQk1-HK3E1fNhA", "name": "Norikoh", "address": "43 W 24th St, New York, NY 10010", "coordinates": "40.74336530428082,-73.99134204180429", "rating": 4.0, "review_count": 73, "zip_code": "10010", "cuisineType": "korean", "insertedAtTimestamp": "2022-10-19 21:31:12.634897"}, {"businessID": "fnj0NiZpdmtUl7PzITgv3A", "name": "Komegashi Too", "address": "99 Town Square Pl, Jersey City, NJ 07310", "coordinates": "40.7265105097,-74.0330536074767", "rating": 3.5, "review_count": 481, "zip_code": "07310", "cuisineType": "korean", "insertedAtTimestamp": "2022-10-19 21:31:12.825775"}, {"businessID": "w2iGKUXTxl-8_6iAdjjRUQ", "name": "Dallas BBQ", "address": "261 8th Ave, New York, NY 10011", "coordinates": "40.74569,-73.99843", "rating": 3.0, "review_count": 731, "zip_code": "10011", "cuisineType": "korean", "insertedAtTimestamp": "2022-10-19 21:31:13.072937"}, {"businessID": "LKNhVc1VIt87NQL2wn9rnw", "name": "Suki", "address": "32 St Marks Pl, New York, NY 10003", "coordinates": "40.72879603529948,-73.98840203138467", "rating": 4.0, "review_count": 223, "zip_code": "10003", "cuisineType": "korean", "insertedAtTimestamp": "2022-10-19 21:31:13.296662"}, {"businessID": "2lbHlWGnpb6AHVfuyZnaPQ", "name": "Hudson Eats", "address": "225 Liberty St, New York, NY 10080", "coordinates": "40.7128272044248,-74.0156737008855", "rating": 4.0, "review_count": 13, "zip_code": "10080", "cuisineType": "korean", "insertedAtTimestamp": "2022-10-19 21:31:13.492908"}, {"businessID": "dxHn9Zk17fiY-9CvydZdgg", "name": "South Street Fish & Ramen Co", "address": "36 Newark St, Hoboken, NJ 07030", "coordinates": "40.7392772570087,-74.0301139572917", "rating": 4.0, "review_count": 188, "zip_code": "07030", "cuisineType": "korean", "insertedAtTimestamp": "2022-10-19 21:31:13.705034"}, {"businessID": "s0Klxfd2XRZSrATjzEimBg", "name": "GAN-HOO BBQ", "address": "3702 Main St, Fl 2, Flushing, NY 11354", "coordinates": "40.76128486839699,-73.83164884110349", "rating": 4.5, "review_count": 527, "zip_code": "11354", "cuisineType": "korean", "insertedAtTimestamp": "2022-10-19 21:31:14.024756"}, {"businessID": "qikiQkcPe40utb7uKDJMHQ", "name": "Cafe Zaiya", "address": "1073 6th Ave, Fl 2, Kinokuniya Bookstore, New York, NY 10018", "coordinates": "40.75413971422578,-73.98500266571587", "rating": 3.5, "review_count": 184, "zip_code": "10018", "cuisineType": "korean", "insertedAtTimestamp": "2022-10-19 21:31:14.258323"}, {"businessID": "2SMaAUcbNjW7vSwdg38P2Q", "name": "Ajisen Ramen", "address": "136 W 28th St, New York, NY 10001", "coordinates": "40.74661,-73.9921", "rating": 3.5, "review_count": 459, "zip_code": "10001", "cuisineType": "korean", "insertedAtTimestamp": "2022-10-19 21:31:14.448089"}, {"businessID": "qGKlWra62jtslZKVuyQYIg", "name": "Iyagi", "address": "1578 Main Ave, Clifton, NJ 07011", "coordinates": "40.888034,-74.151614", "rating": 4.5, "review_count": 11, "zip_code": "07011", "cuisineType": "korean", "insertedAtTimestamp": "2022-10-19 21:31:14.661257"}, {"businessID": "7lv8jYYurEBFRglhPYALkw", "name": "Tampopo Ramen", "address": "1 Bennett Ave, New York, NY 10033", "coordinates": "40.8505899,-73.93648", "rating": 4.0, "review_count": 461, "zip_code": "10033", "cuisineType": "korean", "insertedAtTimestamp": "2022-10-19 21:31:14.871667"}, {"businessID": "nnSyjwIkhbJIBMiBtch_BQ", "name": "Kimoto Rooftop", "address": "228 Duffield St, Brooklyn, NY 11201", "coordinates": "40.6915156530047,-73.9846554", "rating": 3.0, "review_count": 673, "zip_code": "11201", "cuisineType": "korean", "insertedAtTimestamp": "2022-10-19 21:31:15.093645"}, {"businessID": "WNF_VEyAkld2E1xGvSb2sw", "name": "GUPJI", "address": "149-11A 41st Ave, Flushing, NY 11355", "coordinates": "40.76239547410955,-73.8154854", "rating": 4.5, "review_count": 120, "zip_code": "11355", "cuisineType": "korean", "insertedAtTimestamp": "2022-10-19 21:31:15.279005"}, {"businessID": "LxwwqCCIhRamlIykyG18uA", "name": "Chicken Factory", "address": "529 Washington St, Hoboken, NJ 07030", "coordinates": "40.74304,-74.02883", "rating": 4.0, "review_count": 207, "zip_code": "07030", "cuisineType": "korean", "insertedAtTimestamp": "2022-10-19 21:31:15.488191"}, {"businessID": "s01bWRSBTSfE0zciJv79WA", "name": "The Cast Iron Pot Signature", "address": "260 Bergen Turnpike, Little Ferry, NJ 07643", "coordinates": "40.856041191473565,-74.03377974973756", "rating": 4.5, "review_count": 70, "zip_code": "07643", "cuisineType": "korean", "insertedAtTimestamp": "2022-10-19 21:31:15.704351"}, {"businessID": "L_Y1uWFf1ZUdmeYDloh_zQ", "name": "Hongdae Pocha", "address": "14909 41st Ave, Flushing, NY 11355", "coordinates": "40.76241,-73.81551", "rating": 4.0, "review_count": 34, "zip_code": "11355", "cuisineType": "korean", "insertedAtTimestamp": "2022-10-19 21:31:15.912604"}, {"businessID": "u5V6wQQv3e4BmbyzUDYLNQ", "name": "Takesushi", "address": "43-46 42nd St, Sunnyside, NY 11104", "coordinates": "40.7441219,-73.9224056", "rating": 4.0, "review_count": 391, "zip_code": "11104", "cuisineType": "korean", "insertedAtTimestamp": "2022-10-19 21:31:16.120974"}, {"businessID": "04DsleqgEGQfoBhNTeTJlA", "name": "PyeongAnDong", "address": "2020 N Central Rd, Fort Lee, NJ 07024", "coordinates": "40.851355,-73.965705", "rating": 3.5, "review_count": 68, "zip_code": "07024", "cuisineType": "korean", "insertedAtTimestamp": "2022-10-19 21:31:16.352369"}, {"businessID": "fPMjJeTGwKarPzMIM5mBLw", "name": "Yuk Jun Gui", "address": "41-05 150th St, Flushing, NY 11355", "coordinates": "40.7625699,-73.8136899", "rating": 4.5, "review_count": 42, "zip_code": "11355", "cuisineType": "korean", "insertedAtTimestamp": "2022-10-19 21:31:16.569350"}, {"businessID": "P6lp4sbzK29yQAMnEqe9dA", "name": "Rockmeisha", "address": "11 Barrow St, New York, NY 10014", "coordinates": "40.7325636,-74.0024582", "rating": 3.5, "review_count": 185, "zip_code": "10014", "cuisineType": "korean", "insertedAtTimestamp": "2022-10-19 21:31:16.802323"}, {"businessID": "nF4TpiO5N12f5mYRyZ3ktg", "name": "Urbanspace", "address": "570 Lexington Ave, New York, NY 10022", "coordinates": "40.756995,-73.972461", "rating": 4.0, "review_count": 133, "zip_code": "10022", "cuisineType": "korean", "insertedAtTimestamp": "2022-10-19 21:31:17.025900"}, {"businessID": "O73yeXgNF7ReLuY6EsOa1w", "name": "Sushi & Co", "address": "67 Nassau St, New York, NY 10038", "coordinates": "40.709438789999666,-74.00843474100763", "rating": 4.5, "review_count": 121, "zip_code": "10038", "cuisineType": "korean", "insertedAtTimestamp": "2022-10-19 21:31:17.222528"}, {"businessID": "hB0DCqfyHKGI137Gfg-yxQ", "name": "Buttumak", "address": "150-05 Northern Blvd, Flushing, NY 11354", "coordinates": "40.76546661795065,-73.8148386622517", "rating": 4.5, "review_count": 35, "zip_code": "11354", "cuisineType": "korean", "insertedAtTimestamp": "2022-10-19 21:31:17.417665"}, {"businessID": "seGYMEYsw6F_H33Md1E1dA", "name": "Tito Rad's Grill", "address": "49-10 Queens Blvd, Woodside, NY 11377", "coordinates": "40.7426021292423,-73.9155745324366", "rating": 3.5, "review_count": 785, "zip_code": "11377", "cuisineType": "korean", "insertedAtTimestamp": "2022-10-19 21:31:17.772765"}, {"businessID": "LHzu-L1UoWnTrBdiGLMaPQ", "name": "Muteki Ramen", "address": "100 York St, Jersey City, NJ 07302", "coordinates": "40.71626,-74.03796", "rating": 4.5, "review_count": 28, "zip_code": "07302", "cuisineType": "korean", "insertedAtTimestamp": "2022-10-19 21:31:18.031825"}, {"businessID": "0Z8meRXFc_dxP2rr1iZfCQ", "name": "Jeong Yook", "address": "329 Bergen Blvd, Palisades Park, NJ 07650", "coordinates": "40.843529,-73.987495", "rating": 4.0, "review_count": 221, "zip_code": "07650", "cuisineType": "korean", "insertedAtTimestamp": "2022-10-19 21:31:18.433165"}, {"businessID": "us2cegdaGlJRLbSLZsu54w", "name": "Charlie's Place", "address": "1960 Madison Ave, New York, NY 10035", "coordinates": "40.80622,-73.94061", "rating": 4.0, "review_count": 152, "zip_code": "10035", "cuisineType": "korean", "insertedAtTimestamp": "2022-10-19 21:31:18.690596"}, {"businessID": "fEnX6R_foFOc3NriJY4J2Q", "name": "Three Bowls Ramen", "address": "63-28 Roosevelt Ave, Woodside, NY 11377", "coordinates": "40.7457251,-73.9007075", "rating": 4.0, "review_count": 105, "zip_code": "11377", "cuisineType": "korean", "insertedAtTimestamp": "2022-10-19 21:31:18.927982"}, {"businessID": "EXsorzjQ3y3Oh5-m82lgtg", "name": "Bushniwa", "address": "250 Varet St, Brooklyn, NY 11206", "coordinates": "40.70397,-73.93344", "rating": 4.0, "review_count": 266, "zip_code": "11206", "cuisineType": "korean", "insertedAtTimestamp": "2022-10-19 21:31:19.093064"}, {"businessID": "oE0gOeRyjDU6Me0zNAsz_Q", "name": "BARO by Chefs Society", "address": "34 West 32nd St, New York, NY 10001", "coordinates": "40.74769,-73.98735", "rating": 3.5, "review_count": 184, "zip_code": "10001", "cuisineType": "korean", "insertedAtTimestamp": "2022-10-19 21:31:20.644981"}, {"businessID": "-Zhzk6rUuCDGsdw48eBz-g", "name": "Ugly Donuts & Corn Dogs - Bushwick ", "address": "398 Knickerbocker Ave, Brooklyn, NY 11237", "coordinates": "40.69992827748475,-73.920527936385", "rating": 5.0, "review_count": 11, "zip_code": "11237", "cuisineType": "korean", "insertedAtTimestamp": "2022-10-19 21:31:20.828763"}, {"businessID": "N--h7x9gMLbu7EgCLZ_w9A", "name": "Mito", "address": "27-35 Jackson Ave, Long Island City, NY 11101", "coordinates": "40.748146921326985,-73.94010539277195", "rating": 3.5, "review_count": 29, "zip_code": "11101", "cuisineType": "korean", "insertedAtTimestamp": "2022-10-19 21:31:21.105408"}, {"businessID": "nYc2sIDAPVfQJAtDoQCU9Q", "name": "Honey Pig", "address": "344 Broad Ave, Leonia, NJ 07605", "coordinates": "40.862645,-73.987578", "rating": 4.5, "review_count": 18, "zip_code": "07605", "cuisineType": "korean", "insertedAtTimestamp": "2022-10-19 21:31:21.315804"}, {"businessID": "2txI-FAVf7q0SHNPcnjm7Q", "name": "Longevousjoy", "address": "6610 Bay Pkwy, Brooklyn, NY 11204", "coordinates": "40.61312,-73.98246", "rating": 3.5, "review_count": 334, "zip_code": "11204", "cuisineType": "korean", "insertedAtTimestamp": "2022-10-19 21:31:21.506654"}, {"businessID": "d-h7LmoOIO8hvtYILi8HlQ", "name": "K-pop Haus", "address": "185 Greenwich St, New York, NY 10007", "coordinates": "40.71158,-74.01141", "rating": 2.5, "review_count": 5, "zip_code": "10007", "cuisineType": "korean", "insertedAtTimestamp": "2022-10-19 21:31:21.730562"}, {"businessID": "s-UAKra4P0sFE9ylXlwwfA", "name": "Le Viet Cafe", "address": "1750 2nd Ave, New York, NY 10128", "coordinates": "40.78116,-73.94913", "rating": 4.0, "review_count": 147, "zip_code": "10128", "cuisineType": "korean", "insertedAtTimestamp": "2022-10-19 21:31:21.951524"}, {"businessID": "mnj9O1tbCKiAN5zWMe5v8w", "name": "Picnic Garden", "address": "154-05 Northern Blvd, Flushing, NY 11354", "coordinates": "40.76489,-73.81062", "rating": 3.5, "review_count": 1435, "zip_code": "11354", "cuisineType": "korean", "insertedAtTimestamp": "2022-10-19 21:31:22.164608"}, {"businessID": "5LmGHz8Py5oLtQCV8hkYMw", "name": "Dalgoona Bowl", "address": "272 Old River Rd, Edgewater, NJ 07020", "coordinates": "40.809822,-73.99033", "rating": 4.5, "review_count": 43, "zip_code": "07020", "cuisineType": "korean", "insertedAtTimestamp": "2022-10-19 21:31:22.370880"}, {"businessID": "k67-o4M_l_7LO_RxWBIpbA", "name": "Dainobu", "address": "498 6th Ave, New York, NY 10011", "coordinates": "40.736282,-73.9972", "rating": 4.5, "review_count": 115, "zip_code": "10011", "cuisineType": "korean", "insertedAtTimestamp": "2022-10-19 21:31:22.575511"}, {"businessID": "-pab00ajP_NS1KGfILveYA", "name": "Marumi", "address": "546 Laguardia Pl, New York, NY 10012", "coordinates": "40.7289699,-73.99837", "rating": 4.0, "review_count": 446, "zip_code": "10012", "cuisineType": "korean", "insertedAtTimestamp": "2022-10-19 21:31:22.806900"}, {"businessID": "isIFCDLE3VIDJcqhVy_klA", "name": "99 Favor Taste - Brooklyn", "address": "732 61st St, Brooklyn, NY 11220", "coordinates": "40.6355691,-74.0115482", "rating": 4.0, "review_count": 924, "zip_code": "11220", "cuisineType": "korean", "insertedAtTimestamp": "2022-10-19 21:31:23.010313"}, {"businessID": "5QgBCrAbXbM1ORiqZDrBPQ", "name": "Cha-An", "address": "230 E 9th St, Fl 2, New York, NY 10003", "coordinates": "40.72947,-73.98813", "rating": 4.0, "review_count": 1894, "zip_code": "10003", "cuisineType": "korean", "insertedAtTimestamp": "2022-10-19 21:31:23.244394"}, {"businessID": "MnV_28NaCVTObHsDNshWcg", "name": "Meat Me BBQ", "address": "29-18 Union St, Flushing, NY 11354", "coordinates": "40.771737,-73.8268227", "rating": 4.5, "review_count": 220, "zip_code": "11354", "cuisineType": "korean", "insertedAtTimestamp": "2022-10-19 21:31:23.439475"}, {"businessID": "6aFOJZHJsCRGwrPFqjpUBw", "name": "King's Chicken", "address": "4900 Bergenline Ave, Union City, NJ 07087", "coordinates": "40.78223,-74.02098", "rating": 3.5, "review_count": 5, "zip_code": "07087", "cuisineType": "korean", "insertedAtTimestamp": "2022-10-19 21:31:23.622107"}, {"businessID": "00mykkev3tKCjTsKV60yOA", "name": "Sushi of Gari 46", "address": "347 W 46th St, New York, NY 10036", "coordinates": "40.76072,-73.98957", "rating": 4.0, "review_count": 707, "zip_code": "10036", "cuisineType": "korean", "insertedAtTimestamp": "2022-10-19 21:31:23.852311"}, {"businessID": "tA1QO_GParSsaOaO8UoBvQ", "name": "Blue Smoke", "address": "255 Vesey St, New York, NY 10282", "coordinates": "40.71465104736801,-74.01536738406452", "rating": 3.5, "review_count": 716, "zip_code": "10282", "cuisineType": "korean", "insertedAtTimestamp": "2022-10-19 21:31:24.047533"}, {"businessID": "pqebqpVTT8bR_s9iEu8dOA", "name": "Curry-Ya", "address": "218 E 10th St, New York, NY 10003", "coordinates": "40.72924,-73.9858", "rating": 4.0, "review_count": 751, "zip_code": "10003", "cuisineType": "korean", "insertedAtTimestamp": "2022-10-19 21:31:24.272291"}, {"businessID": "4wo5YUEbU41siBN_Zzn_GQ", "name": "Bull Chicken", "address": "152 W 52nd St, Urbanspace, New York, NY 10019", "coordinates": "40.7617745,-73.98173", "rating": 3.0, "review_count": 11, "zip_code": "10019", "cuisineType": "korean", "insertedAtTimestamp": "2022-10-19 21:31:24.521162"}, {"businessID": "HujT24Z7xaWxBv5D0uNTmQ", "name": "Cho Dang House", "address": "2151 Lemoine Ave, Fort Lee, NJ 07024", "coordinates": "40.85622,-73.96783", "rating": 4.5, "review_count": 19, "zip_code": "07024", "cuisineType": "korean", "insertedAtTimestamp": "2022-10-19 21:31:24.749458"}, {"businessID": "kMZAO0Sc91FrSz7y1JL0XA", "name": "Bread & Butter", "address": "757 3rd Ave, New York, NY 10017", "coordinates": "40.7537832561612,-73.971406698227", "rating": 2.5, "review_count": 112, "zip_code": "10017", "cuisineType": "korean", "insertedAtTimestamp": "2022-10-19 21:31:24.935985"}, {"businessID": "4UXwPdVdaMJx1xWNNBlWNQ", "name": "Katsune Donkatsu Cafe", "address": "1400 Anderson Ave, Ste 3, Fort Lee, NJ 07024", "coordinates": "40.84558017806659,-73.978595619292", "rating": 4.5, "review_count": 172, "zip_code": "07024", "cuisineType": "korean", "insertedAtTimestamp": "2022-10-19 21:31:25.167006"}, {"businessID": "YxCLC_Jv5svNgfJdwu9rJg", "name": "Cafe De Novo", "address": "94 1/2 Greenwich St, New York, NY 10006", "coordinates": "40.7081208335465,-74.0138110214958", "rating": 3.0, "review_count": 103, "zip_code": "10006", "cuisineType": "korean", "insertedAtTimestamp": "2022-10-19 21:31:25.408354"}, {"businessID": "nTd7Lwa7eTxCmzlbZwXt1w", "name": "SGD Dubu So Gong Dong Tofu & BBQ", "address": "118 Broad Ave, Palisades Park, NJ 07650", "coordinates": "40.8447606,-73.9998523", "rating": 4.0, "review_count": 198, "zip_code": "07650", "cuisineType": "korean", "insertedAtTimestamp": "2022-10-19 21:31:25.623536"}, {"businessID": "aItau84To0R70ahVK_b5CA", "name": "Krazy Korean Dogz", "address": "41-18 38th St, New York, NY 11101", "coordinates": "40.746974,-73.926766", "rating": 2.5, "review_count": 7, "zip_code": "11101", "cuisineType": "korean", "insertedAtTimestamp": "2022-10-19 21:31:25.845196"}, {"businessID": "tLJt1dtV484bdT4PX-d_Hw", "name": "Hansol Young Yang Center", "address": "160-26 Northern Blvd, Queens, NY 11358", "coordinates": "40.762352,-73.804765", "rating": 4.5, "review_count": 183, "zip_code": "11358", "cuisineType": "korean", "insertedAtTimestamp": "2022-10-19 21:31:26.060624"}, {"businessID": "YuvWY1Jx8QuJGWJVjl6-MQ", "name": "Naju Gomtang", "address": "156-18 Northern Blvd, Flushing, NY 11354", "coordinates": "40.763877,-73.8089005", "rating": 4.0, "review_count": 30, "zip_code": "11354", "cuisineType": "korean", "insertedAtTimestamp": "2022-10-19 21:31:26.286123"}, {"businessID": "MBpcYNiqrmr8qcFSeJK5mQ", "name": "Mad For Chicken", "address": "157-18 Northern Blvd, Flushing, NY 11354", "coordinates": "40.7635739,-73.8079404", "rating": 4.0, "review_count": 2060, "zip_code": "11354", "cuisineType": "korean", "insertedAtTimestamp": "2022-10-19 21:31:26.466226"}, {"businessID": "NQbh8zKPqILV6WeYSOM-yQ", "name": "Makana Hawaiian & Japanese BBQ", "address": "2245 1st Ave, New York, NY 10029", "coordinates": "40.79568,-73.93599", "rating": 3.0, "review_count": 196, "zip_code": "10029", "cuisineType": "korean", "insertedAtTimestamp": "2022-10-19 21:31:26.713168"}, {"businessID": "47r2XzhXKcbPIb785mvK3g", "name": "Bada Story", "address": "799 Abott Blvd, Fort Lee, NJ 07024", "coordinates": "40.831503,-73.9829498", "rating": 4.0, "review_count": 193, "zip_code": "07024", "cuisineType": "korean", "insertedAtTimestamp": "2022-10-19 21:31:26.950363"}, {"businessID": "J85NKgA4tOgBAoqxu0vBNw", "name": "Sushi Damo", "address": "330 W 58th St, New York, NY 10019", "coordinates": "40.76778,-73.98358", "rating": 3.5, "review_count": 325, "zip_code": "10019", "cuisineType": "korean", "insertedAtTimestamp": "2022-10-19 21:31:27.129723"}, {"businessID": "7EaiwMVaNdQibSs0yYkE5Q", "name": "Sushi Yasuda", "address": "204 E 43rd St, New York, NY 10017", "coordinates": "40.75113,-73.97347", "rating": 4.0, "review_count": 2228, "zip_code": "10017", "cuisineType": "korean", "insertedAtTimestamp": "2022-10-19 21:31:27.369022"}, {"businessID": "Cg5kGSXIelsKX9eqlHr31A", "name": "Kyuramen - Union Square", "address": "210 E 14th St, New York, NY 10003", "coordinates": "40.73310125993799,-73.9866958494115", "rating": 4.5, "review_count": 448, "zip_code": "10003", "cuisineType": "korean", "insertedAtTimestamp": "2022-10-19 21:31:27.568931"}, {"businessID": "hgWE_O5i4Po-h8r6ixK4Vw", "name": "Poke Bowl", "address": "80 Broad St, New York, NY 10004", "coordinates": "40.70426,-74.01172", "rating": 4.5, "review_count": 6, "zip_code": "10004", "cuisineType": "korean", "insertedAtTimestamp": "2022-10-19 21:31:27.798752"}, {"businessID": "0v2rI4CivY0nrQM3_W4VmA", "name": "Kondo", "address": "2913 Broadway, Astoria, NY 11106", "coordinates": "40.7626545293336,-73.9265084112689", "rating": 4.0, "review_count": 194, "zip_code": "11106", "cuisineType": "korean", "insertedAtTimestamp": "2022-10-19 21:31:28.000452"}, {"businessID": "TvkSfCrirQTnSjhHE0sTpQ", "name": "Dwit Gol Mok - Back Alley", "address": "41-14 150th St, Fl 2, Flushing, NY 11355", "coordinates": "40.7621651,-73.8139038", "rating": 4.5, "review_count": 25, "zip_code": "11355", "cuisineType": "korean", "insertedAtTimestamp": "2022-10-19 21:31:28.264168"}, {"businessID": "_JtZuBGBwlpL46L6N7CN5Q", "name": "Genji Sushi Bars", "address": "10 Columbus Cir, Ste 101, New York, NY 10003", "coordinates": "40.7681178171433,-73.9821528465896", "rating": 5.0, "review_count": 1, "zip_code": "10003", "cuisineType": "korean", "insertedAtTimestamp": "2022-10-19 21:31:28.518192"}, {"businessID": "l0XHjPJPvpL2upFQppWb1w", "name": "Krazy Chicken & Mandu", "address": "19 Belleville Ave, Bloomfield, NJ 07003", "coordinates": "40.7979259660824,-74.1801266091787", "rating": 5.0, "review_count": 1, "zip_code": "07003", "cuisineType": "korean", "insertedAtTimestamp": "2022-10-19 21:31:28.733495"}, {"businessID": "GruO4BzCMQviHdY-2D4QYA", "name": "Joe's Kitchen", "address": "637 Broadway, Bayonne, NJ 07002", "coordinates": "40.669,-74.11435", "rating": 4.0, "review_count": 106, "zip_code": "07002", "cuisineType": "korean", "insertedAtTimestamp": "2022-10-19 21:31:28.970791"}, {"businessID": "ZdhzqQd3haOn1eAiwH2WDw", "name": "Steak Freak", "address": "50 St 6th Ave, New York, NY 10020", "coordinates": "40.7545583408224,-73.9842533892464", "rating": 4.5, "review_count": 124, "zip_code": "10020", "cuisineType": "korean", "insertedAtTimestamp": "2022-10-19 21:31:29.221594"}, {"businessID": "vAKq3p5nKXLDKNRYbtfR3g", "name": "Wingstop", "address": "2665 Broadway, New York, NY 10025", "coordinates": "40.7982267,-73.969502", "rating": 4.0, "review_count": 1, "zip_code": "10025", "cuisineType": "korean", "insertedAtTimestamp": "2022-10-19 21:31:29.460618"}, {"businessID": "Kyx9QFPJUzlC7dmM8SE1bw", "name": "Jaiya", "address": "1553 2nd Ave, New York, NY 10075", "coordinates": "40.774506510521,-73.95444183340685", "rating": 3.5, "review_count": 331, "zip_code": "10075", "cuisineType": "korean", "insertedAtTimestamp": "2022-10-19 21:31:29.680310"}, {"businessID": "V-pJRqvQq6UHPvHeS7gWzw", "name": "Chop Steak Truck", "address": "620 8th Ave, New York, NY 10018", "coordinates": "40.75621,-73.9903", "rating": 4.5, "review_count": 54, "zip_code": "10018", "cuisineType": "korean", "insertedAtTimestamp": "2022-10-19 21:31:30.041622"}, {"businessID": "mZdxvKqo8-hP86lus1pVHQ", "name": "Ssam Tong", "address": "41-08 149th Pl, Flushing, NY 11355", "coordinates": "40.7620679529178,-73.8147188962881", "rating": 4.5, "review_count": 253, "zip_code": "11355", "cuisineType": "korean", "insertedAtTimestamp": "2022-10-19 21:31:31.325963"}, {"businessID": "sb2NQ6D23N1ADXSYw-wLag", "name": "Gobong Chicken", "address": "326 Garden St, Ste 9, Carlstadt, NJ 07072", "coordinates": "40.84198711819234,-74.10099847334256", "rating": 4.5, "review_count": 12, "zip_code": "07072", "cuisineType": "korean", "insertedAtTimestamp": "2022-10-19 21:31:31.521245"}, {"businessID": "Ms3CAGddVbgetiQrpzqxPQ", "name": "Hometown Bar-B-Que", "address": "454 Van Brunt St, Brooklyn, NY 11231", "coordinates": "40.67486,-74.01602", "rating": 4.0, "review_count": 1551, "zip_code": "11231", "cuisineType": "korean", "insertedAtTimestamp": "2022-10-19 21:31:31.751039"}, {"businessID": "uK7BhMiook9Ij93l-5nEUA", "name": "Hanabi", "address": "1450 2nd Ave, New York, NY 10021", "coordinates": "40.771,-73.95636", "rating": 3.5, "review_count": 131, "zip_code": "10021", "cuisineType": "korean", "insertedAtTimestamp": "2022-10-19 21:31:31.955709"}, {"businessID": "jQR3S4SQgLdCrIfaSSjOrg", "name": "Yea Jip", "address": "235 Main St, Fort Lee, NJ 07024", "coordinates": "40.85205,-73.9716", "rating": 4.0, "review_count": 100, "zip_code": "07024", "cuisineType": "korean", "insertedAtTimestamp": "2022-10-19 21:31:32.117026"}, {"businessID": "eZ2eaBKoeqaY7C-_ZbKgPg", "name": "The Gochujang", "address": "11 W 32nd St, New York, NY 10001", "coordinates": "40.747675,-73.986274", "rating": 3.0, "review_count": 103, "zip_code": "10001", "cuisineType": "korean", "insertedAtTimestamp": "2022-10-19 21:31:32.313072"}, {"businessID": "c6R_hvUwsqXX2MUXWtO94Q", "name": "Nakamura", "address": "172 Delancey St, New York, NY 10002", "coordinates": "40.71790294387109,-73.98516533290938", "rating": 4.0, "review_count": 400, "zip_code": "10002", "cuisineType": "korean", "insertedAtTimestamp": "2022-10-19 21:31:32.543446"}, {"businessID": "abNHO9-xlCsv31gghCUuxw", "name": "Zutto Japanese American Pub", "address": "77 Hudson St, New York, NY 10013", "coordinates": "40.71847,-74.00903", "rating": 4.0, "review_count": 969, "zip_code": "10013", "cuisineType": "korean", "insertedAtTimestamp": "2022-10-19 21:31:32.711309"}, {"businessID": "ZaJS8EKQNSaQpwpmgN-vVw", "name": "Samurai Mama", "address": "205 Grand St, Brooklyn, NY 11211", "coordinates": "40.7140208838114,-73.960325717926", "rating": 4.0, "review_count": 641, "zip_code": "11211", "cuisineType": "korean", "insertedAtTimestamp": "2022-10-19 21:31:32.957622"}, {"businessID": "gO5H3t30me0zl5BbToC3fw", "name": "Dong Bang Grill", "address": "1616 Palisade Ave, Fort Lee, NJ 07024", "coordinates": "40.8493,-73.9688199", "rating": 3.5, "review_count": 340, "zip_code": "07024", "cuisineType": "korean", "insertedAtTimestamp": "2022-10-19 21:31:33.195961"}, {"businessID": "xYJOW011WJPaYXHRP4anxg", "name": "Yuju\u2019s Bob-Sang", "address": "152-26 Northern Blvd, Queens, NY 11354", "coordinates": "40.764666,-73.812094", "rating": 4.0, "review_count": 1, "zip_code": "11354", "cuisineType": "korean", "insertedAtTimestamp": "2022-10-19 21:31:33.387419"}, {"businessID": "wcwftlB-61XG4ymGTR61aw", "name": "SakaMai", "address": "157 Ludlow St, New York, NY 10002", "coordinates": "40.7209536656701,-73.9881407239426", "rating": 4.0, "review_count": 753, "zip_code": "10002", "cuisineType": "korean", "insertedAtTimestamp": "2022-10-19 21:31:33.622352"}, {"businessID": "kVRK5uqGUQTRD_KYLt7laQ", "name": "Jip Bob Mrs Baek", "address": "1550 Lemoine Ave, Ste 2F, Fort Lee, NJ 07024", "coordinates": "40.847623,-73.970404", "rating": 4.5, "review_count": 50, "zip_code": "07024", "cuisineType": "korean", "insertedAtTimestamp": "2022-10-19 21:31:33.863100"}, {"businessID": "_1LUC6gT1ckfiG3LyMfolw", "name": "Chung Moo Rollrice & Dongas", "address": "39-04 Union St, Flushing, NY 11354", "coordinates": "40.7609309256077,-73.8268536329269", "rating": 4.0, "review_count": 208, "zip_code": "11354", "cuisineType": "korean", "insertedAtTimestamp": "2022-10-19 21:31:34.064227"}, {"businessID": "PoKmg-C-oSdA9oI0gFnNEg", "name": "Bunsik Fort Lee", "address": "247 Main St, Fort Lee, NJ 07024", "coordinates": "40.85216,-73.97206", "rating": 4.0, "review_count": 10, "zip_code": "07024", "cuisineType": "korean", "insertedAtTimestamp": "2022-10-19 21:31:34.277471"}, {"businessID": "5NyOV1yaipv9FpiHRriDwg", "name": "Jin Jja Roo", "address": "11 W 32nd St, Ste 6, New York, NY 10016", "coordinates": "40.7478790283203,-73.9875183105469", "rating": 3.0, "review_count": 29, "zip_code": "10016", "cuisineType": "korean", "insertedAtTimestamp": "2022-10-19 21:31:34.571693"}, {"businessID": "XhCzENVgRBYcKwWLMX7FRg", "name": "Kimchi Grill", "address": "766 Washington Ave, Brooklyn, NY 11238", "coordinates": "40.6750885,-73.9634982", "rating": 4.0, "review_count": 639, "zip_code": "11238", "cuisineType": "korean", "insertedAtTimestamp": "2022-10-19 21:31:34.786530"}, {"businessID": "9GEPKXerLoWIKefSvfnurw", "name": "Duri Pocha", "address": "441 Broad Ave, Ridgefield, NJ 07657", "coordinates": "40.8288801,-74.0104649", "rating": 4.0, "review_count": 60, "zip_code": "07657", "cuisineType": "korean", "insertedAtTimestamp": "2022-10-19 21:31:35.023066"}, {"businessID": "v--4s91RgyWUdWvMH2QZHw", "name": "Han Joo Chik Naeng Myun & BBQ", "address": "41-06 149th Pl, Flushing, NY 11355", "coordinates": "40.7620607,-73.8148621", "rating": 4.0, "review_count": 234, "zip_code": "11355", "cuisineType": "korean", "insertedAtTimestamp": "2022-10-19 21:31:35.226081"}, {"businessID": "M7Ok9vs_TutG_vf859EP2Q", "name": "NAMHAN SANSUNG KOREAN RESTAURANT", "address": "500 10th St, Palisades Park, NJ 07650", "coordinates": "40.8468318419447,-73.9848739653826", "rating": 4.0, "review_count": 28, "zip_code": "07650", "cuisineType": "korean", "insertedAtTimestamp": "2022-10-19 21:31:35.444199"}, {"businessID": "jqKN0qeOizDmVHtgrDW0yQ", "name": "Oh K-Dog", "address": "36 St Marks Pl, New York, NY 10003", "coordinates": "40.72863,-73.98805", "rating": 4.0, "review_count": 13, "zip_code": "10003", "cuisineType": "korean", "insertedAtTimestamp": "2022-10-19 21:31:35.681523"}, {"businessID": "GfC7pvsvhZX4-QAeZ3z_Vg", "name": "Kuruma Zushi", "address": "7 E 47th St, Fl 2, New York, NY 10017", "coordinates": "40.756534576416,-73.9776763916016", "rating": 4.0, "review_count": 234, "zip_code": "10017", "cuisineType": "korean", "insertedAtTimestamp": "2022-10-19 21:31:35.850903"}, {"businessID": "l8F-LhA_LJgzY4pXeJRiIQ", "name": "Soosanghan Pocha", "address": "243 Broad Ave, Palisades Park, NJ 07650", "coordinates": "40.846433,-73.998589", "rating": 4.0, "review_count": 122, "zip_code": "07650", "cuisineType": "korean", "insertedAtTimestamp": "2022-10-19 21:31:36.063430"}, {"businessID": "2HpXUFgnQPxsUYPDXJ8E7g", "name": "Bulgogi & Kimchi Street Cart", "address": "49TH St And 6th Ave, New York, NY 10020", "coordinates": "40.7592712341372,-73.9808887692688", "rating": 3.5, "review_count": 32, "zip_code": "10020", "cuisineType": "korean", "insertedAtTimestamp": "2022-10-19 21:31:36.276886"}, {"businessID": "ExXARPpPn-zBSYicKYhknA", "name": "Sea Shai Korean & Japanese Restaurant", "address": "662 Passaic Ave, Nutley, NJ 07110", "coordinates": "40.827258,-74.145901", "rating": 4.5, "review_count": 111, "zip_code": "07110", "cuisineType": "korean", "insertedAtTimestamp": "2022-10-19 21:31:36.490177"}, {"businessID": "WpfuHkTsiRN2EerQ8ZaG4g", "name": "Saigon Cafe", "address": "188 Newark Ave, Jersey City, NJ 07302", "coordinates": "40.72164,-74.04574", "rating": 4.0, "review_count": 390, "zip_code": "07302", "cuisineType": "korean", "insertedAtTimestamp": "2022-10-19 21:31:36.702008"}, {"businessID": "neccHiLwwGeMUVRXSC7q_A", "name": "Hide-Chan Ramen - West Side", "address": "314 W 53rd St, New York, NY 10019", "coordinates": "40.7643263,-73.9854547", "rating": 4.0, "review_count": 253, "zip_code": "10019", "cuisineType": "korean", "insertedAtTimestamp": "2022-10-19 21:31:36.918776"}, {"businessID": "zqMfmlShMb8QluRQs9nP0A", "name": "The Diggs", "address": "486 Troutman St, Bushwick, NY 11237", "coordinates": "40.7074078907551,-73.9220158243392", "rating": 4.5, "review_count": 10, "zip_code": "11237", "cuisineType": "korean", "insertedAtTimestamp": "2022-10-19 21:31:37.141234"}, {"businessID": "ufBkr8JaT5rP-ndrGydasg", "name": "Frame Gourmet Eatery", "address": "552 Fashion Ave, New York, NY 10018", "coordinates": "40.75462842533793,-73.98836489577734", "rating": 3.0, "review_count": 115, "zip_code": "10018", "cuisineType": "korean", "insertedAtTimestamp": "2022-10-19 21:31:37.368567"}, {"businessID": "D65eObUbArHu6UiQsUasgw", "name": "HinoMaru Ramen", "address": "33-18 Ditmars Blvd, Astoria, NY 11105", "coordinates": "40.774889916651,-73.9092001318932", "rating": 4.0, "review_count": 940, "zip_code": "11105", "cuisineType": "korean", "insertedAtTimestamp": "2022-10-19 21:31:37.577834"}, {"businessID": "D3LtTiVtIPOcUT_bjxztRA", "name": "Teppan Bar & Grill", "address": "319 Warren St, Jersey City, NJ 07302", "coordinates": "40.718919,-74.038909", "rating": 3.5, "review_count": 588, "zip_code": "07302", "cuisineType": "korean", "insertedAtTimestamp": "2022-10-19 21:31:37.781840"}, {"businessID": "xTlz3ri9s_DLZ4Ukob-2OA", "name": "Gomtangjip", "address": "8 Henry Ave, Palisades Park, NJ 07650", "coordinates": "40.84623,-73.99969", "rating": 4.5, "review_count": 9, "zip_code": "07650", "cuisineType": "korean", "insertedAtTimestamp": "2022-10-19 21:31:38.075003"}, {"businessID": "vUZTHdPWqTCkj3g93D6CNQ", "name": "Cho-Ko Restaurant", "address": "59 1st Ave, New York, NY 10003", "coordinates": "40.72515,-73.98744", "rating": 3.5, "review_count": 116, "zip_code": "10003", "cuisineType": "korean", "insertedAtTimestamp": "2022-10-19 21:31:38.293188"}, {"businessID": "LjBKkUSpMwrpo99hXgtHYw", "name": "Franchia Vegan Cafe", "address": "12 Park Ave, New York, NY 10016", "coordinates": "40.7474712051298,-73.9812423408763", "rating": 4.0, "review_count": 1002, "zip_code": "10016", "cuisineType": "korean", "insertedAtTimestamp": "2022-10-19 21:31:38.544833"}, {"businessID": "lEH8EUPX3Zn_trHauIycYw", "name": "Aoi Kitchen", "address": "320 E 6th St, New York, NY 10003", "coordinates": "40.72683167,-73.98754333", "rating": 4.0, "review_count": 178, "zip_code": "10003", "cuisineType": "korean", "insertedAtTimestamp": "2022-10-19 21:31:38.822086"}, {"businessID": "HFOiW4RvijuoblE4DD3JwA", "name": "Dekalb Market Hall", "address": "445 Albee Square W, Basement Level, Brooklyn, NY 11201", "coordinates": "40.691025,-73.983311", "rating": 4.0, "review_count": 716, "zip_code": "11201", "cuisineType": "korean", "insertedAtTimestamp": "2022-10-19 21:31:39.031420"}, {"businessID": "kawTi2VXBNhbvNxQxc0YeQ", "name": "Street Boi", "address": "1021 Church Ave, Brooklyn, NY 11218", "coordinates": "40.64698905080299,-73.9696766", "rating": 4.5, "review_count": 28, "zip_code": "11218", "cuisineType": "korean", "insertedAtTimestamp": "2022-10-19 21:31:39.333444"}, {"businessID": "iHiEMvbpLzNYTMsd5-VnQw", "name": "Jacob Soul Food Restaurant", "address": "373 Lenox Ave, New York, NY 10027", "coordinates": "40.810025,-73.9439219", "rating": 4.0, "review_count": 382, "zip_code": "10027", "cuisineType": "korean", "insertedAtTimestamp": "2022-10-19 21:31:39.584475"}, {"businessID": "i9W3EVA6FjB6lWWSEmhndA", "name": "Sake Bar Decibel", "address": "240 E 9th St, New York, NY 10003", "coordinates": "40.729299,-73.9878008", "rating": 4.0, "review_count": 1042, "zip_code": "10003", "cuisineType": "korean", "insertedAtTimestamp": "2022-10-19 21:31:39.801628"}, {"businessID": "enDIsmxSG2bQccQWgGNcbg", "name": "Takumen", "address": "5-50 50th Ave, Long Island City, NY 11101", "coordinates": "40.74259,-73.9546699", "rating": 4.0, "review_count": 277, "zip_code": "11101", "cuisineType": "korean", "insertedAtTimestamp": "2022-10-19 21:31:40.018716"}, {"businessID": "wJwbAYEyD_sTJsn_3KL8oQ", "name": "Yaya Tea Garden", "address": "284 3rd Ave, New York, NY 10010", "coordinates": "40.73844,-73.98378", "rating": 3.5, "review_count": 100, "zip_code": "10010", "cuisineType": "korean", "insertedAtTimestamp": "2022-10-19 21:31:40.232702"}, {"businessID": "cMuHouN7_VzSsm6NsSkyAQ", "name": "iCook Buffet", "address": "81-17 Broadway, Elmhurst, NY 11373", "coordinates": "40.7432600908448,-73.883305080235", "rating": 3.5, "review_count": 292, "zip_code": "11373", "cuisineType": "korean", "insertedAtTimestamp": "2022-10-19 21:31:40.423386"}, {"businessID": "DCQr_8NTl9kVZW6CCzMrDg", "name": "PHUHROO", "address": "116 Anderson St, Hackensack, NJ 07601", "coordinates": "40.89416,-74.04363", "rating": 4.5, "review_count": 44, "zip_code": "07601", "cuisineType": "korean", "insertedAtTimestamp": "2022-10-19 21:31:41.779996"}, {"businessID": "QJTLAOMNvhV1_jPfcQ_qPw", "name": "Nippon", "address": "155 E 52nd St, New York, NY 10022", "coordinates": "40.75743,-73.97042", "rating": 4.0, "review_count": 187, "zip_code": "10022", "cuisineType": "korean", "insertedAtTimestamp": "2022-10-19 21:31:42.044016"}, {"businessID": "mi3r8tPY-nHGfsl-9BGmBw", "name": "Sushi By Bo\u016b - NoMad", "address": "32 E 32nd St, New York, NY 10016", "coordinates": "40.74614,-73.98336", "rating": 4.5, "review_count": 288, "zip_code": "10016", "cuisineType": "korean", "insertedAtTimestamp": "2022-10-19 21:31:42.268942"}, {"businessID": "bgm69D_aZpXdV5OXoG3zIg", "name": "Seoul TTukbaegi", "address": "149-14 41st Ave, Queens, NY 11355", "coordinates": "40.76212031577526,-73.81526389999999", "rating": 4.5, "review_count": 13, "zip_code": "11355", "cuisineType": "korean", "insertedAtTimestamp": "2022-10-19 21:31:42.450638"}, {"businessID": "VwSxF9Ron5y0PIXTtGrqkQ", "name": "Gopchang Story Flushing", "address": "160-18 Northern Blvd, Fl 1, Flushing, NY 11358", "coordinates": "40.762706,-73.8053579", "rating": 4.0, "review_count": 215, "zip_code": "11358", "cuisineType": "korean", "insertedAtTimestamp": "2022-10-19 21:31:42.658424"}, {"businessID": "_zGsfwGAY8ZTob_mIFAM-w", "name": "Pokeworks", "address": "63 W 37th St, New York, NY 10018", "coordinates": "40.75166024917636,-73.98585830122367", "rating": 4.0, "review_count": 1815, "zip_code": "10018", "cuisineType": "korean", "insertedAtTimestamp": "2022-10-19 21:31:42.833665"}, {"businessID": "HrbVnUR1-F0sareGcleyMw", "name": "Red Poke", "address": "885 8th Ave, New York, NY 10019", "coordinates": "40.7641043,-73.9849486", "rating": 4.5, "review_count": 143, "zip_code": "10019", "cuisineType": "korean", "insertedAtTimestamp": "2022-10-19 21:31:43.044350"}, {"businessID": "IPHolyNKu-W1DPJKxWvKQw", "name": "Inase Restaurant", "address": "1586 1st Ave, New York, NY 10028", "coordinates": "40.77452,-73.950729", "rating": 4.0, "review_count": 162, "zip_code": "10028", "cuisineType": "korean", "insertedAtTimestamp": "2022-10-19 21:31:43.250742"}, {"businessID": "E8358H_xh9dqfcdO34gnkg", "name": "BapEeRang", "address": "476 Bergen Blvd, Palisades Park, NJ 07650", "coordinates": "40.847066163285,-73.9850712360145", "rating": 4.5, "review_count": 40, "zip_code": "07650", "cuisineType": "korean", "insertedAtTimestamp": "2022-10-19 21:31:43.499909"}, {"businessID": "bHGETjP_InKy0sIVHFgHyw", "name": "Sushi of Gari", "address": "402 East 78th St, New York, NY 10075", "coordinates": "40.771269,-73.952835", "rating": 4.0, "review_count": 633, "zip_code": "10075", "cuisineType": "korean", "insertedAtTimestamp": "2022-10-19 21:31:43.773535"}, {"businessID": "qKwjmEjFcpP7tWYaigPWaw", "name": "Madang Restaurant & Cafe", "address": "11 Sylvan Ave, Englewood Cliffs, NJ 07632", "coordinates": "40.86599752960838,-73.96079379999999", "rating": 4.0, "review_count": 73, "zip_code": "07632", "cuisineType": "korean", "insertedAtTimestamp": "2022-10-19 21:31:44.019712"}, {"businessID": "wbOeQWie2YoRWuNkiI5BmA", "name": "Mighty Quinn's Barbeque", "address": "75 Greenwich Ave, New York, NY 10014", "coordinates": "40.7366742117697,-74.0013010473027", "rating": 3.5, "review_count": 448, "zip_code": "10014", "cuisineType": "korean", "insertedAtTimestamp": "2022-10-19 21:31:44.286822"}, {"businessID": "ruBUmEgfRVu7M6i64XMQ9Q", "name": "Kouzan Japanese Restaurant", "address": "685 Amsterdam Ave, New York, NY 10025", "coordinates": "40.79226,-73.97145", "rating": 3.5, "review_count": 250, "zip_code": "10025", "cuisineType": "korean", "insertedAtTimestamp": "2022-10-19 21:31:44.538096"}, {"businessID": "_NCh8Gxnrp33NOaDRCxRbQ", "name": "Dumok", "address": "8 Henry Ave, Fl 2, Palisades Park, NJ 07650", "coordinates": "40.8461988,-73.9996687", "rating": 3.5, "review_count": 56, "zip_code": "07650", "cuisineType": "korean", "insertedAtTimestamp": "2022-10-19 21:31:44.751551"}, {"businessID": "II7C8s_nkPXfttDq_vHmGA", "name": "Gyu-Kaku Japanese BBQ", "address": "620 Amsterdam Ave, New York, NY 10024", "coordinates": "40.79046,-73.97322", "rating": 3.5, "review_count": 55, "zip_code": "10024", "cuisineType": "korean", "insertedAtTimestamp": "2022-10-19 21:31:44.969820"}, {"businessID": "oOsJn3leUnWDfErRWMf81g", "name": "Soco", "address": "509 Myrtle Ave, Brooklyn, NY 11205", "coordinates": "40.693739699999334,-73.96449631779052", "rating": 4.0, "review_count": 2312, "zip_code": "11205", "cuisineType": "korean", "insertedAtTimestamp": "2022-10-19 21:31:45.190440"}, {"businessID": "XKDHsS8PevoEdFLNtt05FA", "name": "Shuya Cafe De Ramen", "address": "42-13 Broadway, Astoria, NY 11103", "coordinates": "40.758007205736,-73.9167939666258", "rating": 4.5, "review_count": 328, "zip_code": "11103", "cuisineType": "korean", "insertedAtTimestamp": "2022-10-19 21:31:45.407715"}, {"businessID": "WfqMC8dGFCZPTQ-K0YuPBA", "name": "Jin Da Lai", "address": "35-30 Union St, Flushing, NY 11354", "coordinates": "40.7645446214285,-73.8281665929767", "rating": 4.5, "review_count": 35, "zip_code": "11354", "cuisineType": "korean", "insertedAtTimestamp": "2022-10-19 21:31:45.640503"}, {"businessID": "WZ8WI-3Z7kd3hqHL_mn8MA", "name": "Mr Dak", "address": "194-15 Northern Blvd, FLUSHING, NY 11358", "coordinates": "40.7580629,-73.7869417", "rating": 5.0, "review_count": 47, "zip_code": "11358", "cuisineType": "korean", "insertedAtTimestamp": "2022-10-19 21:31:45.865591"}, {"businessID": "qeu3pO24hp3wbH7yIYkDkw", "name": "PORA FOODS", "address": "1 American Dream Way, American Dream Mall, East Rutherford, NJ 07073", "coordinates": "40.808091,-74.068973", "rating": 3.5, "review_count": 71, "zip_code": "07073", "cuisineType": "korean", "insertedAtTimestamp": "2022-10-19 21:31:46.084867"}, {"businessID": "Pfjb9Rn5Th7R-pLXVARwlA", "name": "Jin Ramen - West Harlem", "address": "3183 Broadway, New York, NY 10027", "coordinates": "40.8154774,-73.9587672", "rating": 4.0, "review_count": 1142, "zip_code": "10027", "cuisineType": "korean", "insertedAtTimestamp": "2022-10-19 21:31:46.286194"}, {"businessID": "GazJ5_JArwtAacygzxqDIQ", "name": "Nadoori", "address": "105 E 9th St, New York, NY 10003", "coordinates": "40.7305374145508,-73.9900512695312", "rating": 3.0, "review_count": 5, "zip_code": "10003", "cuisineType": "korean", "insertedAtTimestamp": "2022-10-19 21:31:46.499485"}, {"businessID": "wK19oQSdTF6lGKsjr9fJ-A", "name": "Rai Rai Ken", "address": "1467 Amsterdam Ave, New York, NY 10027", "coordinates": "40.8169855,-73.9533486", "rating": 3.0, "review_count": 90, "zip_code": "10027", "cuisineType": "korean", "insertedAtTimestamp": "2022-10-19 21:31:46.729737"}, {"businessID": "onjYbHkzjMDhaQKgeqiRZg", "name": "Signal", "address": "162-15 Depot Rd, Queens, NY 11358", "coordinates": "40.7621129,-73.8031492", "rating": 4.0, "review_count": 94, "zip_code": "11358", "cuisineType": "korean", "insertedAtTimestamp": "2022-10-19 21:31:46.966385"}, {"businessID": "d8qCvlsG3jwxQPZc_OGogQ", "name": "Hibino", "address": "333 Henry St, Brooklyn, NY 11201", "coordinates": "40.69017,-73.99637", "rating": 4.0, "review_count": 411, "zip_code": "11201", "cuisineType": "korean", "insertedAtTimestamp": "2022-10-19 21:31:47.158475"}, {"businessID": "SJmMIWWS267q4d9PLc3zAQ", "name": "Tuk Tuk Tucker", "address": "1462 1st Ave, New York, NY 10075", "coordinates": "40.77037,-73.953763", "rating": 4.5, "review_count": 5, "zip_code": "10075", "cuisineType": "korean", "insertedAtTimestamp": "2022-10-19 21:31:47.530935"}, {"businessID": "T1GdjfVQw76CtwswQ5JOXw", "name": "Koko Ramen", "address": "375 Marlborough Rd, Brooklyn, NY 11226", "coordinates": "40.6410361919404,-73.9642817210745", "rating": 4.0, "review_count": 165, "zip_code": "11226", "cuisineType": "korean", "insertedAtTimestamp": "2022-10-19 21:31:47.774998"}, {"businessID": "InEqFA1IvuSLhvDBXhBR0w", "name": "The Penthouse - Ravel Hotel", "address": "8-08 Queens Plz S, Long Island City, NY 11101", "coordinates": "40.7541228285616,-73.9491779487454", "rating": 2.5, "review_count": 1028, "zip_code": "11101", "cuisineType": "korean", "insertedAtTimestamp": "2022-10-19 21:31:47.977134"}, {"businessID": "0lZeHrKy9DLfBxek_oR3Kg", "name": "Yama", "address": "122 E 17th St, New York, NY 10003", "coordinates": "40.73590516663025,-73.98767988956808", "rating": 3.5, "review_count": 449, "zip_code": "10003", "cuisineType": "korean", "insertedAtTimestamp": "2022-10-19 21:31:48.303078"}, {"businessID": "6gD2rXvCO10sFxB4P4WixQ", "name": "Tong Sam Gyup Goo Yi", "address": "162-23 Depot Rd, Flushing, NY 11358", "coordinates": "40.76214,-73.80299", "rating": 4.0, "review_count": 222, "zip_code": "11358", "cuisineType": "korean", "insertedAtTimestamp": "2022-10-19 21:31:48.517424"}, {"businessID": "Op43gk4VHEhENJGs-FKi3g", "name": "Garlic To the Chicken", "address": "66-92 Forest Ave, Ridgewood, NY 11385", "coordinates": "40.7049523,-73.9022751", "rating": 4.5, "review_count": 105, "zip_code": "11385", "cuisineType": "korean", "insertedAtTimestamp": "2022-10-19 21:31:48.744228"}, {"businessID": "AWhq18o77ZrsFKzOXTaiIw", "name": "Charles\u2019s Pan Fried Chicken", "address": "146 W 72nd St, New York, NY 10023", "coordinates": "40.77796,-73.98054", "rating": 4.0, "review_count": 113, "zip_code": "10023", "cuisineType": "korean", "insertedAtTimestamp": "2022-10-19 21:31:48.985794"}, {"businessID": "naKx74Q0wLANNxmVDtq_6Q", "name": "Dokdoya", "address": "161-29 Crocheron Ave, Flushing, NY 11358", "coordinates": "40.7626895,-73.804204", "rating": 4.0, "review_count": 143, "zip_code": "11358", "cuisineType": "korean", "insertedAtTimestamp": "2022-10-19 21:31:49.376920"}, {"businessID": "Ab-oC8Wm_R73gWQYOUW_xA", "name": "Unidentified Flying Chickens", "address": "71-22 Roosevelt Ave, Jackson Heights , NY 11372", "coordinates": "40.746559,-73.8940372", "rating": 3.5, "review_count": 708, "zip_code": "11372", "cuisineType": "korean", "insertedAtTimestamp": "2022-10-19 21:31:49.752738"}, {"businessID": "a5H9p1B6m6WPVjakPylvdA", "name": "Spicy Shallot", "address": "7701 Woodside Ave, Elmhurst, NY 11373", "coordinates": "40.7437053273707,-73.8878916857991", "rating": 4.0, "review_count": 702, "zip_code": "11373", "cuisineType": "korean", "insertedAtTimestamp": "2022-10-19 21:31:49.990802"}, {"businessID": "cZAh6BzEeMI5fofWeDvuhw", "name": "Sake Bar Satsko", "address": "202 E 7th St, New York, NY 10009", "coordinates": "40.72445,-73.9802799", "rating": 4.0, "review_count": 172, "zip_code": "10009", "cuisineType": "korean", "insertedAtTimestamp": "2022-10-19 21:31:50.232520"}, {"businessID": "kqJApXkfFn42SZZG7QTc4w", "name": "Go Zen", "address": "144 W 4th St, New York, NY 10012", "coordinates": "40.7313398845326,-74.0005102638063", "rating": 4.0, "review_count": 588, "zip_code": "10012", "cuisineType": "korean", "insertedAtTimestamp": "2022-10-19 21:31:50.435876"}, {"businessID": "Mc-ylQayCx25clpna9AW-A", "name": "Mad for Chicken Brooklyn Heights", "address": "80 Montague St, Brooklyn, NY 11201", "coordinates": "40.69519905751762,-73.99625069999999", "rating": 5.0, "review_count": 4, "zip_code": "11201", "cuisineType": "korean", "insertedAtTimestamp": "2022-10-19 21:31:50.655088"}, {"businessID": "PZFNjlHDCTXi-PTOg_jE5g", "name": "Jumong Pocha", "address": "1550 Lemoine Ave, Fort Lee, NJ 07024", "coordinates": "40.84757,-73.97061", "rating": 4.0, "review_count": 46, "zip_code": "07024", "cuisineType": "korean", "insertedAtTimestamp": "2022-10-19 21:31:50.839742"}, {"businessID": "p7HH7fLzx_H1y2hkttYxtg", "name": "Robongi", "address": "520 Washington St, Hoboken, NJ 07030", "coordinates": "40.74293,-74.02955", "rating": 3.5, "review_count": 510, "zip_code": "07030", "cuisineType": "korean", "insertedAtTimestamp": "2022-10-19 21:31:51.107044"}, {"businessID": "kP3NnuEzkg5WtPgxt2aTxA", "name": "Tyga Bites", "address": "Long Island City, NY 11101", "coordinates": "40.74284092935596,-73.9535217", "rating": 1.0, "review_count": 1, "zip_code": "11101", "cuisineType": "korean", "insertedAtTimestamp": "2022-10-19 21:31:51.354118"}, {"businessID": "wob2d43mnUOksdKD51wJ3A", "name": "Sakai Ramen", "address": "965 Richmond Ave, Ste F, Staten Island, NY 10314", "coordinates": "40.623464,-74.148136", "rating": 4.0, "review_count": 70, "zip_code": "10314", "cuisineType": "korean", "insertedAtTimestamp": "2022-10-19 21:31:51.741457"}, {"businessID": "AAPJkyU0Y7Aci0RZBdJONg", "name": "Shokunin BBQ", "address": "952 60th St, Brooklyn, NY 11219", "coordinates": "40.6332876204455,-74.0062164404754", "rating": 3.5, "review_count": 347, "zip_code": "11219", "cuisineType": "korean", "insertedAtTimestamp": "2022-10-19 21:31:53.305749"}, {"businessID": "AARX21qWWgGK7KsJM_3ZCA", "name": "The Cast Iron Pot 2", "address": "320 Bergen Blvd, Fairview, NJ 07022", "coordinates": "40.82018,-73.99984", "rating": 4.5, "review_count": 195, "zip_code": "07022", "cuisineType": "korean", "insertedAtTimestamp": "2022-10-19 21:31:53.522734"}, {"businessID": "Sd_tMVcRghVRYXf8psqA1g", "name": "Hanam BBQ", "address": "445 Grand Ave, Palisades Park, NJ 07650", "coordinates": "40.8538444131875,-73.99945771062212", "rating": 4.0, "review_count": 190, "zip_code": "07650", "cuisineType": "korean", "insertedAtTimestamp": "2022-10-19 21:31:53.747071"}, {"businessID": "a_IjdMmMQDM8MqpC3Nn-HQ", "name": "Backyard Smokehouse", "address": "25-22 Astoria Blvd, Local A, New York, NY 11102", "coordinates": "40.770833,-73.92208", "rating": 4.0, "review_count": 4, "zip_code": "11102", "cuisineType": "korean", "insertedAtTimestamp": "2022-10-19 21:31:53.953259"}, {"businessID": "yono7ZJcU1KiqfC-xUMaIA", "name": "Japan Village", "address": "934 3rd Ave, Brooklyn, NY 11232", "coordinates": "40.65597,-74.00641", "rating": 3.5, "review_count": 276, "zip_code": "11232", "cuisineType": "korean", "insertedAtTimestamp": "2022-10-19 21:31:54.210146"}, {"businessID": "U3HBAGY3yV40WDY1F9Nf9g", "name": "Wingstop", "address": "77 Lexington Ave, New York, NY 10010", "coordinates": "40.74121,-73.98321", "rating": 2.5, "review_count": 10, "zip_code": "10010", "cuisineType": "korean", "insertedAtTimestamp": "2022-10-19 21:31:54.386792"}, {"businessID": "NfMCq2ZF89FKD5ut6KmUkw", "name": "Industry City", "address": "220 36th St, Ste 2-A, Brooklyn, NY 11232", "coordinates": "40.65663,-74.00843", "rating": 4.0, "review_count": 150, "zip_code": "11232", "cuisineType": "korean", "insertedAtTimestamp": "2022-10-19 21:31:54.579628"}, {"businessID": "oczaVdQ3NRSKJpNo-4undg", "name": "Brooklyn Chop House Time Square", "address": "253 W 47th St, New York, NY 10036", "coordinates": "40.7602,-73.98637", "rating": 3.5, "review_count": 78, "zip_code": "10036", "cuisineType": "korean", "insertedAtTimestamp": "2022-10-19 21:31:54.787702"}, {"businessID": "1VulIvaA95_ZjBIs1O0sxQ", "name": "Brooklyn Ball Factory", "address": "95 Montrose Ave, Brooklyn, NY 11206", "coordinates": "40.7072338027948,-73.9458661779097", "rating": 4.0, "review_count": 153, "zip_code": "11206", "cuisineType": "korean", "insertedAtTimestamp": "2022-10-19 21:31:55.018861"}, {"businessID": "k_rLFIMOAbvchgWKEuKdtw", "name": "Kikoo Sushi", "address": "998 Columbus Ave, New York, NY 10025", "coordinates": "40.8016099,-73.96164", "rating": 4.0, "review_count": 175, "zip_code": "10025", "cuisineType": "korean", "insertedAtTimestamp": "2022-10-19 21:31:55.204590"}, {"businessID": "_tII-JpeU67AJgq1gRqg_w", "name": "Yumi", "address": "802 Pelham Pkwy, Pelham Manor, NY 10803", "coordinates": "40.893762,-73.820514", "rating": 3.5, "review_count": 208, "zip_code": "10803", "cuisineType": "korean", "insertedAtTimestamp": "2022-10-19 21:31:55.431113"}, {"businessID": "bWRGDbQHe6alt54Acdg5ZQ", "name": "K Town Pocha", "address": "34 W 32nd St, New York, NY 10001", "coordinates": "40.7477685727933,-73.9872914067459", "rating": 3.5, "review_count": 359, "zip_code": "10001", "cuisineType": "korean", "insertedAtTimestamp": "2022-10-19 21:31:55.642521"}, {"businessID": "NRJq2BNcbjqAyxUB_bw7gw", "name": "Momoya", "address": "185 7th Ave, New York, NY 10011", "coordinates": "40.7426255196333,-73.9966481924057", "rating": 4.0, "review_count": 782, "zip_code": "10011", "cuisineType": "korean", "insertedAtTimestamp": "2022-10-19 21:31:55.855705"}, {"businessID": "_X7gtd1PcXBsvvmR35Inhg", "name": "Kangtong BBQ", "address": "149-20 41st Ave, Flushing, NY 11355", "coordinates": "40.76203,-73.81498", "rating": 4.0, "review_count": 51, "zip_code": "11355", "cuisineType": "korean", "insertedAtTimestamp": "2022-10-19 21:31:56.061626"}, {"businessID": "4xeG4hxOJfxhD3ayOcu1pQ", "name": "Hiro Sushi", "address": "555 Valley Brook Ave, Lyndhurst, NJ 07071", "coordinates": "40.80912724768693,-74.11933642446526", "rating": 4.5, "review_count": 162, "zip_code": "07071", "cuisineType": "korean", "insertedAtTimestamp": "2022-10-19 21:31:56.276075"}, {"businessID": "9O859_RIFsgQ9VXfUfNebg", "name": "Domodachi", "address": "300 Union Ave, Rutherford, NJ 07070", "coordinates": "40.8360032749111,-74.1129330173135", "rating": 4.5, "review_count": 129, "zip_code": "07070", "cuisineType": "korean", "insertedAtTimestamp": "2022-10-19 21:31:56.496498"}, {"businessID": "K6Gv6Jh76SwqRfU3GKPsyg", "name": "Two Hands Seoul Fresh Corn Dogs", "address": "95 MacDougal St, New York, NY 10012", "coordinates": "40.72948,-74.00105", "rating": 5.0, "review_count": 4, "zip_code": "10012", "cuisineType": "korean", "insertedAtTimestamp": "2022-10-19 21:31:56.682149"}, {"businessID": "vk7W3_sQwr7eZbRFsXv6rw", "name": "Taiyaki NYC", "address": "119 Baxter St, New York, NY 10013", "coordinates": "40.71789,-73.9988", "rating": 4.5, "review_count": 3216, "zip_code": "10013", "cuisineType": "korean", "insertedAtTimestamp": "2022-10-19 21:31:56.898028"}, {"businessID": "K54qUgd274Fj_LvHCjeSFw", "name": "Okinii", "address": "216 Thompson St, New York, NY 10012", "coordinates": "40.72894,-73.99911", "rating": 4.0, "review_count": 340, "zip_code": "10012", "cuisineType": "korean", "insertedAtTimestamp": "2022-10-19 21:31:57.086278"}, {"businessID": "JXCiSk6ZbczHXZ9kfBEsOA", "name": "1st Ave Gourmet", "address": "1274 1st Ave, New York, NY 10065", "coordinates": "40.765414,-73.957324", "rating": 3.0, "review_count": 49, "zip_code": "10065", "cuisineType": "korean", "insertedAtTimestamp": "2022-10-19 21:31:57.320481"}, {"businessID": "O8_93nB50rK6xCdgNZg3LQ", "name": "Moonbowls", "address": "383 Bridge St, Brooklyn, NY 11201", "coordinates": "40.69183,-73.98511", "rating": 3.5, "review_count": 10, "zip_code": "11201", "cuisineType": "korean", "insertedAtTimestamp": "2022-10-19 21:31:57.542236"}, {"businessID": "rwNSlFZLGsVc0PN71mpTmA", "name": "Tyga Bites", "address": "New York, NY 10036", "coordinates": "40.759765625,-73.9879684448242", "rating": 1.0, "review_count": 2, "zip_code": "10036", "cuisineType": "korean", "insertedAtTimestamp": "2022-10-19 21:31:57.791696"}, {"businessID": "ydmcPeX9eOokT-p3gGr-AA", "name": "XPL Halal Food", "address": "2ND Ave At 43rd St, New York, NY 10017", "coordinates": "40.7505,-73.9717299", "rating": 4.0, "review_count": 6, "zip_code": "10017", "cuisineType": "korean", "insertedAtTimestamp": "2022-10-19 21:31:58.005725"}, {"businessID": "7PeLcW2CTzsv4c2l02B6Zg", "name": "Takumi Taco", "address": "97 W 32nd St, New York, NY 10001", "coordinates": "40.748489,-73.988328", "rating": 4.0, "review_count": 11, "zip_code": "10001", "cuisineType": "korean", "insertedAtTimestamp": "2022-10-19 21:31:58.500980"}, {"businessID": "Lm8_nGWG8CJM6PZYzZzvug", "name": "Pelicana Chicken", "address": "11 W 32nd St, New York, NY 10001", "coordinates": "40.7477351,-73.986215", "rating": 3.5, "review_count": 297, "zip_code": "10001", "cuisineType": "korean", "insertedAtTimestamp": "2022-10-19 21:31:58.730560"}, {"businessID": "JRmQRFEEnSUdAcesHun9AQ", "name": "ICHIRAN - Brooklyn", "address": "374 Johnson Ave, Brooklyn, NY 11206", "coordinates": "40.707587,-73.933271", "rating": 4.0, "review_count": 1279, "zip_code": "11206", "cuisineType": "korean", "insertedAtTimestamp": "2022-10-19 21:31:58.968358"}, {"businessID": "HFn1sPqKSzvxaMk2n2ZtJw", "name": "Kotobuki Manhattan", "address": "56 3rd Ave, New York, NY 10003", "coordinates": "40.731107,-73.98912", "rating": 4.0, "review_count": 701, "zip_code": "10003", "cuisineType": "korean", "insertedAtTimestamp": "2022-10-19 21:31:59.152251"}, {"businessID": "mIhqKMgru4002wfrVW-Gfw", "name": "ChikaLicious Dessert Bar", "address": "203 E 10th St, New York, NY 10003", "coordinates": "40.72964636531206,-73.98620154365136", "rating": 4.0, "review_count": 1363, "zip_code": "10003", "cuisineType": "korean", "insertedAtTimestamp": "2022-10-19 21:31:59.404459"}, {"businessID": "IZpSGcy19JDDEyJtq-vAXQ", "name": "Ricepot Thai Cookhouse", "address": "1972 86th St, Brooklyn, NY 11214", "coordinates": "40.60474,-73.99879", "rating": 4.5, "review_count": 76, "zip_code": "11214", "cuisineType": "korean", "insertedAtTimestamp": "2022-10-19 21:31:59.685472"}, {"businessID": "ltBOGInL7ap8KnGAw3taQg", "name": "Karaoke DUET 48", "address": "304 E 48th St, New York, NY 10017", "coordinates": "40.75342289514752,-73.96924504900467", "rating": 4.0, "review_count": 281, "zip_code": "10017", "cuisineType": "korean", "insertedAtTimestamp": "2022-10-19 21:31:59.913279"}, {"businessID": "Mk8Z_9h_NtVJhff1pwK1Gg", "name": "Itto Sushi", "address": "239 Barrow St, Jersey City, NJ 07302", "coordinates": "40.71674,-74.04721", "rating": 4.5, "review_count": 51, "zip_code": "07302", "cuisineType": "korean", "insertedAtTimestamp": "2022-10-19 21:32:00.346649"}, {"businessID": "WxaROsYvllqmemovnkyciQ", "name": "Kum Sung BBQ", "address": "40-07 149th Pl, Flushing, NY 11354", "coordinates": "40.76323,-73.81495", "rating": 4.0, "review_count": 122, "zip_code": "11354", "cuisineType": "korean", "insertedAtTimestamp": "2022-10-19 21:32:00.548077"}, {"businessID": "G9SWgxH65OBQaJaE8dHkbw", "name": "Zest Ramen", "address": "112 Eldridge St, New York, NY 10002", "coordinates": "40.71816,-73.99186", "rating": 4.5, "review_count": 307, "zip_code": "10002", "cuisineType": "korean", "insertedAtTimestamp": "2022-10-19 21:32:00.830849"}, {"businessID": "qYV_BJ6Pkv6pUFm26nW4Bw", "name": "Kyu, New York", "address": "324 Lafayette St, New York, NY 10012", "coordinates": "40.72561796731312,-73.99526341371117", "rating": 3.5, "review_count": 61, "zip_code": "10012", "cuisineType": "korean", "insertedAtTimestamp": "2022-10-19 21:32:01.042040"}, {"businessID": "itblJyiTY2h2ACidLk66oA", "name": "Takahachi", "address": "85 Ave A, New York, NY 10009", "coordinates": "40.725315,-73.984436", "rating": 4.0, "review_count": 592, "zip_code": "10009", "cuisineType": "korean", "insertedAtTimestamp": "2022-10-19 21:32:01.343581"}, {"businessID": "Zllq4CaBBAhbGFIadEXxrA", "name": "Pelicana Chicken", "address": "417 E Brinkerhoff Ave, Palisades Park, NJ 07650", "coordinates": "40.841249,-73.98822", "rating": 4.0, "review_count": 518, "zip_code": "07650", "cuisineType": "korean", "insertedAtTimestamp": "2022-10-19 21:32:01.546362"}, {"businessID": "FzQqZQlp9BQ56mOvhQssPA", "name": "U Chun", "address": "260 Bergen Turnpike, Little Ferry, NJ 07643", "coordinates": "40.85589123673331,-74.03350616659515", "rating": 4.0, "review_count": 25, "zip_code": "07643", "cuisineType": "korean", "insertedAtTimestamp": "2022-10-19 21:32:01.907506"}, {"businessID": "IwmUnAhFgDfu6zgYxhbXJA", "name": "Mad For Chicken - Forest Hills", "address": "71-37 Austin St, Forest Hills, NY 11375", "coordinates": "40.71981,-73.8433", "rating": 4.0, "review_count": 159, "zip_code": "11375", "cuisineType": "korean", "insertedAtTimestamp": "2022-10-19 21:32:02.152603"}, {"businessID": "tltxRKesOFGcnEklx3vqUA", "name": "Touch The Heart", "address": "324 Washington St, Hoboken, NJ 07030", "coordinates": "40.74096,-74.03016", "rating": 4.0, "review_count": 190, "zip_code": "07030", "cuisineType": "korean", "insertedAtTimestamp": "2022-10-19 21:32:02.360177"}, {"businessID": "MQway2v2b2Qyjr8ThZdakQ", "name": "Ninja Sushi", "address": "75 Washington Ave, Nutley, NJ 07110", "coordinates": "40.80896,-74.1472", "rating": 4.5, "review_count": 301, "zip_code": "07110", "cuisineType": "korean", "insertedAtTimestamp": "2022-10-19 21:32:02.531556"}, {"businessID": "Zhx_XHDtrMmc_Mj4YGWfKA", "name": "MUSES 35", "address": "248 W 35th St, New York, NY 10001", "coordinates": "40.75237,-73.99205", "rating": 3.5, "review_count": 45, "zip_code": "10001", "cuisineType": "korean", "insertedAtTimestamp": "2022-10-19 21:32:02.734969"}, {"businessID": "7nQZ0wzkQNQSvRLGYyIMmw", "name": "Muteki Ramen", "address": "533 Washington St, Hoboken, NJ 07030", "coordinates": "40.743191,-74.028813", "rating": 4.5, "review_count": 110, "zip_code": "07030", "cuisineType": "korean", "insertedAtTimestamp": "2022-10-19 21:32:02.933335"}, {"businessID": "fmf27DIVDUOZSi15gmdR-g", "name": "Toribro Ramen", "address": "366 W 52nd St, New York, NY 10019", "coordinates": "40.7644627406818,-73.9875809848309", "rating": 4.5, "review_count": 81, "zip_code": "10019", "cuisineType": "korean", "insertedAtTimestamp": "2022-10-19 21:32:03.166948"}, {"businessID": "L0to1r6mqlKbgJsd_SM_gw", "name": "Fairview BBQ", "address": "39 Anderson Ave, Fairview, NJ 07022", "coordinates": "40.81119,-74.00043", "rating": 4.0, "review_count": 70, "zip_code": "07022", "cuisineType": "korean", "insertedAtTimestamp": "2022-10-19 21:32:03.398299"}, {"businessID": "7rxg-tWPc1jK7Cikn5R86g", "name": "Hi-Collar", "address": "231 E 9th St, New York, NY 10003", "coordinates": "40.729564,-73.98786", "rating": 4.0, "review_count": 716, "zip_code": "10003", "cuisineType": "korean", "insertedAtTimestamp": "2022-10-19 21:32:03.672233"}, {"businessID": "gl1p0g_BN_DC4Eh_hRaUEg", "name": "Joong Koog Jip", "address": "149-08 41st Ave, Flushing, NY 11355", "coordinates": "40.76194966092599,-73.8153339", "rating": 4.0, "review_count": 268, "zip_code": "11355", "cuisineType": "korean", "insertedAtTimestamp": "2022-10-19 21:32:03.863832"}, {"businessID": "7MzisfVMYsZYTFJv9Unpzw", "name": "Mr. Taka Ramen", "address": "170 Allen St, New York, NY 10002", "coordinates": "40.72128,-73.98903", "rating": 4.0, "review_count": 597, "zip_code": "10002", "cuisineType": "korean", "insertedAtTimestamp": "2022-10-19 21:32:05.661077"}, {"businessID": "aq0SXPyy_dpFjcfvTDRxBA", "name": "Wasabi Sushi & Bento", "address": "561 7th Ave, New York, NY 10018", "coordinates": "40.75484,-73.9876", "rating": 3.5, "review_count": 506, "zip_code": "10018", "cuisineType": "korean", "insertedAtTimestamp": "2022-10-19 21:32:05.855001"}, {"businessID": "GBk_i2qnjMtQIt_ntJpzbw", "name": "Ramen Andante", "address": "130 Grand St, Brooklyn, NY 11249", "coordinates": "40.7148695,-73.9625803", "rating": 4.0, "review_count": 81, "zip_code": "11249", "cuisineType": "korean", "insertedAtTimestamp": "2022-10-19 21:32:06.105381"}, {"businessID": "-fRgp3gv0-R6y9YOJX8ZVA", "name": "Warude", "address": "385 Tompkins Ave, Brooklyn, NY 11216", "coordinates": "40.6846262,-73.9440354", "rating": 4.0, "review_count": 136, "zip_code": "11216", "cuisineType": "korean", "insertedAtTimestamp": "2022-10-19 21:32:06.290174"}, {"businessID": "QR1YIRzFjd2bi5iBzT9zXg", "name": "Blue Ribbon Sushi", "address": "119 Sullivan St, New York, NY 10012", "coordinates": "40.72612,-74.0025299", "rating": 4.0, "review_count": 1200, "zip_code": "10012", "cuisineType": "korean", "insertedAtTimestamp": "2022-10-19 21:32:06.509547"}, {"businessID": "IYlO-XRwjZlUl0yoKY87cA", "name": "Cagen", "address": "414 E 9th St, New York, NY 10009", "coordinates": "40.72779,-73.98417", "rating": 4.0, "review_count": 230, "zip_code": "10009", "cuisineType": "korean", "insertedAtTimestamp": "2022-10-19 21:32:06.732944"}, {"businessID": "NoxA3MUaKFjkbGrawkPehA", "name": "District Kitchen", "address": "210 Hudson St, Jersey City, NJ 07311", "coordinates": "40.7177979110845,-74.0341565746368", "rating": 3.5, "review_count": 15, "zip_code": "07311", "cuisineType": "korean", "insertedAtTimestamp": "2022-10-19 21:32:06.923708"}, {"businessID": "YvL7_ZXp-VAhrOCy1mb-cQ", "name": "bb.q Chicken - NY KTOWN", "address": "25 W 32nd St, New York, NY 10001", "coordinates": "40.74783,-73.98685", "rating": 3.5, "review_count": 879, "zip_code": "10001", "cuisineType": "korean", "insertedAtTimestamp": "2022-10-19 21:32:07.134248"}, {"businessID": "KvLrI20Abz6F9WzAIHmyWQ", "name": "Cafe R", "address": "116 W 32nd St, New York, NY 10001", "coordinates": "40.74883,-73.98972", "rating": 3.0, "review_count": 285, "zip_code": "10001", "cuisineType": "korean", "insertedAtTimestamp": "2022-10-19 21:32:07.372913"}, {"businessID": "l-qrqyz1sznqSavFe6LAYA", "name": "Baro 1376", "address": "75-32 Broadway, Queens, NY 11373", "coordinates": "40.74573545575676,-73.8896167137176", "rating": 5.0, "review_count": 2, "zip_code": "11373", "cuisineType": "korean", "insertedAtTimestamp": "2022-10-19 21:32:07.577502"}, {"businessID": "leYx3XTNEDLn9ezoXjlA5g", "name": "Krush", "address": "2 W 32nd St, Fl 4, New York, NY 10001", "coordinates": "40.747204,-73.986198", "rating": 3.5, "review_count": 221, "zip_code": "10001", "cuisineType": "korean", "insertedAtTimestamp": "2022-10-19 21:32:07.844092"}, {"businessID": "Tjo8JXQzoBwvw_QYicejiw", "name": "Ding Food Market", "address": "241 Harrison Ave, Harrison, NJ 07029", "coordinates": "40.7461823757412,-74.1584174860186", "rating": 5.0, "review_count": 127, "zip_code": "07029", "cuisineType": "korean", "insertedAtTimestamp": "2022-10-19 21:32:08.060629"}, {"businessID": "JUPxlDVMxuRSsqMcH6RCVg", "name": "Mitsuwa Marketplace", "address": "595 River Rd, Edgewater, NJ 07020", "coordinates": "40.8158107608922,-73.9801246070119", "rating": 4.5, "review_count": 1818, "zip_code": "07020", "cuisineType": "korean", "insertedAtTimestamp": "2022-10-19 21:32:08.310019"}, {"businessID": "6BZl-fakfZsFbAwJM7DeDA", "name": "Sambong Naeng Myun", "address": "110 Broad Ave, Ste S9, Palisades Park, NJ 07650", "coordinates": "40.84431,-74.0", "rating": 4.0, "review_count": 110, "zip_code": "07650", "cuisineType": "korean", "insertedAtTimestamp": "2022-10-19 21:32:08.528819"}, {"businessID": "Jeh1YAz4wZZQFCof46L2Vg", "name": "Jeong Yook", "address": "152-12 Northern Blvd, Flushing, NY 11354", "coordinates": "40.7647,-73.81248", "rating": 4.5, "review_count": 220, "zip_code": "11354", "cuisineType": "korean", "insertedAtTimestamp": "2022-10-19 21:32:08.727458"}, {"businessID": "_YN-BOSrib5uaffslr4dzQ", "name": "Boom Boom Chicken", "address": "36 Park Ave, Rutherford, NJ 07070", "coordinates": "40.8282711252748,-74.1025941073895", "rating": 4.0, "review_count": 223, "zip_code": "07070", "cuisineType": "korean", "insertedAtTimestamp": "2022-10-19 21:32:08.954374"}, {"businessID": "VZFrE1EgvVUhJGXzTUDjpw", "name": "Oishi Noodle Bar", "address": "9324 3rd Ave, Brooklyn, NY 11209", "coordinates": "40.6181,-74.03342", "rating": 4.0, "review_count": 34, "zip_code": "11209", "cuisineType": "korean", "insertedAtTimestamp": "2022-10-19 21:32:09.147182"}, {"businessID": "cLxp5gIPWIhmvpmdPo7BsA", "name": "969 NYC Coffee", "address": "37-61 80th St, Jackson Heights, NY 11372", "coordinates": "40.74779,-73.88553", "rating": 4.5, "review_count": 347, "zip_code": "11372", "cuisineType": "korean", "insertedAtTimestamp": "2022-10-19 21:32:09.362710"}, {"businessID": "cL8TLMCbs2B-vgy3SFtPGg", "name": "Geido", "address": "331 Flatbush Ave, Brooklyn, NY 11217", "coordinates": "40.67792,-73.97266", "rating": 4.5, "review_count": 355, "zip_code": "11217", "cuisineType": "korean", "insertedAtTimestamp": "2022-10-19 21:32:09.545356"}, {"businessID": "BJn68qCExYQrPCT7CeOpzw", "name": "Moon Star Grill", "address": "3519-25 Johnson Ave, Riverdale, NY 10463", "coordinates": "40.8861089331436,-73.909908766271", "rating": 4.0, "review_count": 126, "zip_code": "10463", "cuisineType": "korean", "insertedAtTimestamp": "2022-10-19 21:32:09.804402"}, {"businessID": "ZS49AhOMRPFH_3mQd_qA7A", "name": "Peck Peck Korean Style Chicken", "address": "250 Degraw Ave, Teaneck, NJ 07666", "coordinates": "40.875095,-74.021122", "rating": 4.5, "review_count": 684, "zip_code": "07666", "cuisineType": "korean", "insertedAtTimestamp": "2022-10-19 21:32:10.018555"}, {"businessID": "CidsTvazKX0BG9mfYq6CLA", "name": "IT Show", "address": "232 Broad Ave, Palisades Park, NJ 07650", "coordinates": "40.84647063816027,-73.99875738132879", "rating": 4.5, "review_count": 72, "zip_code": "07650", "cuisineType": "korean", "insertedAtTimestamp": "2022-10-19 21:32:10.206244"}, {"businessID": "jfnDwWBGK4JoWE5jbeKxSw", "name": "Chu Ros Thai", "address": "1590 Lexington Ave, New York, NY 10029", "coordinates": "40.78922,-73.94873", "rating": 4.5, "review_count": 159, "zip_code": "10029", "cuisineType": "korean", "insertedAtTimestamp": "2022-10-19 21:32:10.488804"}, {"businessID": "Dv28TvKBh_8i6W02uAaMKw", "name": "Samurai Papa BS", "address": "594 Lafayette Ave, Brooklyn, NY 11216", "coordinates": "40.68981,-73.95101", "rating": 4.0, "review_count": 188, "zip_code": "11216", "cuisineType": "korean", "insertedAtTimestamp": "2022-10-19 21:32:10.698460"}, {"businessID": "ymb0SvFrlcWm6k_Gx5SYcQ", "name": "Yuzu", "address": "350 Lenox Ave, New York, NY 10027", "coordinates": "40.80937,-73.94399", "rating": 4.0, "review_count": 214, "zip_code": "10027", "cuisineType": "korean", "insertedAtTimestamp": "2022-10-19 21:32:10.912228"}, {"businessID": "QNVt8mtNc768DM8lxkmYEw", "name": "Namudol", "address": "29-02 Union St, Flushing, NY 11354", "coordinates": "40.772124,-73.826938", "rating": 4.0, "review_count": 56, "zip_code": "11354", "cuisineType": "korean", "insertedAtTimestamp": "2022-10-19 21:32:11.151832"}, {"businessID": "VaL9GaBR_GR-q9d1VzJF3g", "name": "SUteiShi", "address": "24 Peck Slip, New York, NY 10038", "coordinates": "40.70788,-74.00194", "rating": 4.0, "review_count": 592, "zip_code": "10038", "cuisineType": "korean", "insertedAtTimestamp": "2022-10-19 21:32:11.393917"}, {"businessID": "a7rM-AOM7_xi8AlWX-Thkg", "name": "Oita NYC", "address": "833 Union St, Brooklyn, NY 11215", "coordinates": "40.675012,-73.976204", "rating": 4.5, "review_count": 329, "zip_code": "11215", "cuisineType": "korean", "insertedAtTimestamp": "2022-10-19 21:32:11.583347"}, {"businessID": "uUzmQDxLwADOZ4jW6SSwfA", "name": "Charim", "address": "1635 Lemoine Ave, Fort Lee, NJ 07024", "coordinates": "40.850537618719,-73.9706419759271", "rating": 4.0, "review_count": 33, "zip_code": "07024", "cuisineType": "korean", "insertedAtTimestamp": "2022-10-19 21:32:11.766002"}, {"businessID": "NiMLFWCL65B_YFUAW3yo_Q", "name": "Korean Food Cart", "address": "49TH And 6th Ave, Manhattan, NY 10020", "coordinates": "40.7592712341372,-73.9808887692688", "rating": 4.0, "review_count": 2, "zip_code": "10020", "cuisineType": "korean", "insertedAtTimestamp": "2022-10-19 21:32:11.979150"}, {"businessID": "h8vOeyK0ubtWS75B1McYxQ", "name": "A Canaan", "address": "154 W 29th St, New York, NY 10001", "coordinates": "40.74736,-73.99231", "rating": 3.0, "review_count": 181, "zip_code": "10001", "cuisineType": "korean", "insertedAtTimestamp": "2022-10-19 21:32:12.181508"}, {"businessID": "5zO24ZKYVnca0jbY2gpIzw", "name": "Hudson Sushi", "address": "4525 Broadway, Union City, NJ 07087", "coordinates": "40.77794,-74.01825", "rating": 4.0, "review_count": 153, "zip_code": "07087", "cuisineType": "korean", "insertedAtTimestamp": "2022-10-19 21:32:12.369138"}, {"businessID": "VsXxbeW5LTppZZHJqDuS1Q", "name": "Pelicana Chicken - Forest Hills", "address": "102-07 Metropolitan Ave, Forest Hills, NY 11375", "coordinates": "40.71057732797664,-73.8503856", "rating": 4.5, "review_count": 78, "zip_code": "11375", "cuisineType": "korean", "insertedAtTimestamp": "2022-10-19 21:32:12.575517"}, {"businessID": "I9nt0X_e_MlOz_rUwFt_Fg", "name": "Global Kitchen", "address": "1290 Ave Of Americas, New York, NY 10019", "coordinates": "40.7606671573033,-73.9788367502624", "rating": 3.0, "review_count": 118, "zip_code": "10019", "cuisineType": "korean", "insertedAtTimestamp": "2022-10-19 21:32:12.844112"}, {"businessID": "XKivBOh82hARaJtoEglS5w", "name": "Eddie's Pizza Truck", "address": "New York, NY 10001", "coordinates": "40.75095,-73.99811", "rating": 3.5, "review_count": 100, "zip_code": "10001", "cuisineType": "korean", "insertedAtTimestamp": "2022-10-19 21:32:13.056410"}, {"businessID": "SZQqAil4kuXhNCLR7_6khg", "name": "Playground Bar & Bistro And Taitoon Thai Karaoke", "address": "7130 Roosevelt Ave, Jackson Heights, NY 11372", "coordinates": "40.746388,-73.89379", "rating": 4.0, "review_count": 224, "zip_code": "11372", "cuisineType": "korean", "insertedAtTimestamp": "2022-10-19 21:32:13.310877"}, {"businessID": "cYlH0xOcN6M0aSb4r_3AfQ", "name": "SGD Tofu House & BBQ", "address": "156-16A Northern Blvd, Flushing, NY 11354", "coordinates": "40.76349758142898,-73.80893125746168", "rating": 4.0, "review_count": 21, "zip_code": "11354", "cuisineType": "korean", "insertedAtTimestamp": "2022-10-19 21:32:13.531803"}, {"businessID": "G4qZvheX74VwYvek7I8iQg", "name": "Buntopia", "address": "994 Broadway, Brooklyn, NY 11221", "coordinates": "40.69598,-73.93398", "rating": 4.5, "review_count": 359, "zip_code": "11221", "cuisineType": "korean", "insertedAtTimestamp": "2022-10-19 21:32:13.694491"}, {"businessID": "lKNN4sZxtDlGZwYYwIaZ2Q", "name": "MamaSushi", "address": "3417 Park Ave, Union City, NJ 07087", "coordinates": "40.77101,-74.02305", "rating": 3.0, "review_count": 74, "zip_code": "07087", "cuisineType": "korean", "insertedAtTimestamp": "2022-10-19 21:32:14.102095"}, {"businessID": "CdHOwIO6OFNXZxPYEUts2g", "name": "Ageha Sushi", "address": "767 9th Ave, New York, NY 10019", "coordinates": "40.76452,-73.98859", "rating": 4.0, "review_count": 715, "zip_code": "10019", "cuisineType": "korean", "insertedAtTimestamp": "2022-10-19 21:32:14.278587"}, {"businessID": "wA5WLYvThEsZc1Te_4Lcbw", "name": "Essex Market", "address": "88 Essex St, New York, NY 10002", "coordinates": "40.718056,-73.988081", "rating": 4.0, "review_count": 297, "zip_code": "10002", "cuisineType": "korean", "insertedAtTimestamp": "2022-10-19 21:32:14.493461"}, {"businessID": "t4B9GkAuiYIjFCt9SlK3EQ", "name": "Poke Bowl", "address": "104 Fulton St, New York, NY 10038", "coordinates": "40.709569,-74.0068345", "rating": 4.0, "review_count": 345, "zip_code": "10038", "cuisineType": "korean", "insertedAtTimestamp": "2022-10-19 21:32:14.734063"}, {"businessID": "IhY6ZCZ8neZ1RfjBjkYBPQ", "name": "Fields Good Chicken", "address": "148 Madison Ave, New York, NY 10016", "coordinates": "40.746471,-73.984245", "rating": 3.5, "review_count": 100, "zip_code": "10016", "cuisineType": "korean", "insertedAtTimestamp": "2022-10-19 21:32:14.947818"}, {"businessID": "QW1czVOqwkNet53Km_BIyQ", "name": "Tataki Japanese Restaurant", "address": "3 Lispenard St, New York, NY 10013", "coordinates": "40.72067,-74.00486", "rating": 3.5, "review_count": 175, "zip_code": "10013", "cuisineType": "korean", "insertedAtTimestamp": "2022-10-19 21:32:15.186540"}, {"businessID": "ZkDfw7qKIHFgTvOi34mP_g", "name": "Janchi Myeonga", "address": "40-16 150 St,, Flushing, NY 11354", "coordinates": "40.76321892299711,-73.81434592146222", "rating": 5.0, "review_count": 1, "zip_code": "11354", "cuisineType": "korean", "insertedAtTimestamp": "2022-10-19 21:32:15.412810"}]